[{"name":"Helpter Berg","lat":53.48666,"lon":13.60916,"ele":179},{"name":"Ruhner Berg","lat":53.29723,"lon":11.90474,"ele":177},{"name":"Dachsberg","lat":53.30339,"lon":11.89701,"ele":172},{"name":"Vogelkirsche","lat":53.38655,"lon":13.45884,"ele":166},{"name":"Reiherberg","lat":53.29509,"lon":11.90808,"ele":161},{"name":"Piekberg","lat":54.55338,"lon":13.62813,"ele":161},{"name":"Priemberg","lat":53.29719,"lon":11.895,"ele":153},{"name":"Matzdorfer Höhe","lat":53.58861,"lon":13.6581,"ele":153},{"name":"Rosenberge","lat":53.3287,"lon":13.42421,"ele":147},{"name":"Reiherberg","lat":53.35622,"lon":13.43855,"ele":143},{"name":"Hohe Burg","lat":53.86093,"lon":11.82658,"ele":143},{"name":"Rabenberg","lat":54.54464,"lon":13.60394,"ele":143},{"name":"Hirschberg","lat":53.32688,"lon":13.31787,"ele":143},{"name":"Keulenberg","lat":53.40956,"lon":13.17623,"ele":138},{"name":"Scharfenberg","lat":53.28709,"lon":11.96614,"ele":136},{"name":"Diedrichshagener Berg","lat":54.10689,"lon":11.76422,"ele":130},{"name":"Mühlenberg","lat":53.36608,"lon":13.5204,"ele":130},{"name":"Ravensberg","lat":53.38777,"lon":13.54446,"ele":130},{"name":"Römerberg","lat":53.57641,"lon":13.88143,"ele":129},{"name":"Krügerberg","lat":53.29304,"lon":11.88609,"ele":128},{"name":"Taubenberg","lat":53.29642,"lon":11.87977,"ele":127},{"name":"Schanzenberg","lat":53.56223,"lon":13.79372,"ele":125},{"name":"Schwarzer Berg","lat":53.28988,"lon":11.88694,"ele":125},{"name":"Serrahner Berge","lat":53.33854,"lon":13.20877,"ele":124},{"name":"Tannenberg","lat":53.5345,"lon":12.91514,"ele":124},{"name":"Hardtberg","lat":53.79403,"lon":12.69214,"ele":122},{"name":"Rollberg","lat":53.30584,"lon":11.93148,"ele":121},{"name":"Dusterholzberg","lat":53.39706,"lon":12.46405,"ele":121},{"name":"Hauptmannsberg","lat":53.30828,"lon":13.44325,"ele":120},{"name":"Schlanker Berg","lat":53.78843,"lon":12.7117,"ele":119},{"name":"Scholverberg","lat":53.34626,"lon":13.4544,"ele":118},{"name":"Kellerberg","lat":53.86919,"lon":11.86947,"ele":118},{"name":"Mentiner Berg","lat":53.30505,"lon":11.94291,"ele":118},{"name":"Buchberg","lat":53.39639,"lon":12.21775,"ele":118},{"name":"Lünenberg","lat":53.9482,"lon":11.76499,"ele":118},{"name":"Scharfer Berg","lat":53.44856,"lon":13.607,"ele":118},{"name":"Strelitzer Berg","lat":53.44404,"lon":13.02071,"ele":117},{"name":"Friedensberg","lat":53.29883,"lon":11.98651,"ele":117},{"name":"Luchsen-Berg","lat":53.33378,"lon":13.19884,"ele":117},{"name":"Dachsberg","lat":53.35623,"lon":13.49913,"ele":116},{"name":"Lenzberg","lat":54.51923,"lon":13.62623,"ele":116},{"name":"Kleiner Hellberg","lat":53.53203,"lon":13.63866,"ele":116},{"name":"Küsterberg","lat":53.30159,"lon":11.97164,"ele":114},{"name":"Dickeberg","lat":53.35734,"lon":13.17793,"ele":114},{"name":"Heideberg","lat":53.8778,"lon":11.2847,"ele":113},{"name":"Kalkberg","lat":54.1091,"lon":11.77181,"ele":112},{"name":"Zimmerberg","lat":54.11973,"lon":11.74455,"ele":110},{"name":"Barenberg","lat":53.43451,"lon":13.04248,"ele":109},{"name":"Sonnenberg","lat":53.40195,"lon":11.81303,"ele":109},{"name":"Buchenberg","lat":54.0998,"lon":11.78636,"ele":108},{"name":"Lehmkuhlenberg","lat":53.86473,"lon":11.86405,"ele":107},{"name":"Tempelberg","lat":54.38049,"lon":13.62614,"ele":107},{"name":"Tannenberg","lat":53.70876,"lon":12.48016,"ele":107},{"name":"Zeltberge","lat":53.34211,"lon":13.18152,"ele":107},{"name":"Steiner Berg","lat":53.33152,"lon":13.20871,"ele":107},{"name":"Kuckucksberg","lat":53.43858,"lon":13.04454,"ele":106},{"name":"Tabaksberg","lat":53.70368,"lon":12.45837,"ele":106},{"name":"Pieverstorfer Berge","lat":53.44235,"lon":12.97103,"ele":105},{"name":"Paßberg","lat":53.95183,"lon":11.70533,"ele":105},{"name":"Langer Berg","lat":53.27703,"lon":11.90029,"ele":104},{"name":"Granziner Heidberg","lat":53.45254,"lon":10.83619,"ele":103},{"name":"Primerberg","lat":53.68089,"lon":12.44762,"ele":102},{"name":"Warensberg","lat":53.48187,"lon":12.93859,"ele":102},{"name":"Steinberge","lat":53.31889,"lon":13.2736,"ele":102},{"name":"Fierdsberg","lat":53.8902,"lon":11.2988,"ele":101},{"name":"Voßbarg","lat":53.79234,"lon":12.69579,"ele":101},{"name":"Breiter Berg","lat":53.71804,"lon":12.47986,"ele":101},{"name":"Wurzelberg","lat":53.34724,"lon":13.18602,"ele":101},{"name":"Käflingsberg","lat":53.42924,"lon":12.8588,"ele":100},{"name":"Iserberg","lat":53.87232,"lon":11.22889,"ele":100},{"name":"Schwarzer Berg","lat":53.27432,"lon":11.93165,"ele":100},{"name":"Anningsbarg","lat":54.10085,"lon":11.79244,"ele":99},{"name":"Todtenberg","lat":53.71056,"lon":12.46115,"ele":99},{"name":"Homberg","lat":53.70839,"lon":11.57621,"ele":99},{"name":"Dänischer Berg","lat":53.80009,"lon":12.71307,"ele":98},{"name":"Galgenberg","lat":53.32871,"lon":13.24161,"ele":98},{"name":"Weselberg","lat":53.69615,"lon":12.50094,"ele":98},{"name":"Silberberg","lat":53.69716,"lon":12.43419,"ele":97},{"name":"Schäferberg","lat":53.45314,"lon":12.97467,"ele":96},{"name":"Kannenberg","lat":53.79401,"lon":12.70105,"ele":96},{"name":"Hütterberg","lat":53.67764,"lon":11.2941,"ele":96},{"name":"Heidberg","lat":53.33773,"lon":13.23512,"ele":95},{"name":"Schwieneger Berg","lat":53.6715,"lon":12.41703,"ele":95},{"name":"Papenberg","lat":53.40373,"lon":13.03273,"ele":94},{"name":"Jasenberg","lat":53.7067,"lon":12.05699,"ele":94},{"name":"Pottlücht","lat":53.40722,"lon":12.85777,"ele":94},{"name":"Kleiner Jägersberg","lat":54.11328,"lon":11.7565,"ele":93},{"name":"Gertzberg","lat":53.80035,"lon":12.70449,"ele":93},{"name":"Aussichtsplattform Hoher Schönberg","lat":53.98006,"lon":11.09308,"ele":93},{"name":"Hellberge","lat":53.42745,"lon":13.13912,"ele":92},{"name":"Hexenberg","lat":53.58577,"lon":13.00226,"ele":92},{"name":"Tempelberg","lat":53.58815,"lon":13.13396,"ele":92},{"name":"Rugard","lat":54.42186,"lon":13.4451,"ele":92},{"name":"Grillberg","lat":53.84838,"lon":12.39289,"ele":91},{"name":"Kirchhofsberg","lat":53.68192,"lon":12.41668,"ele":91},{"name":"Uhuberg","lat":53.66414,"lon":11.59598,"ele":90},{"name":"Wangelinsberg","lat":53.66493,"lon":12.42207,"ele":90},{"name":"Hoher Schönberg","lat":53.97969,"lon":11.09073,"ele":89},{"name":"Hünberg","lat":53.31944,"lon":13.237,"ele":89},{"name":"Buteberg","lat":53.35657,"lon":13.00477,"ele":88},{"name":"Kranichberg","lat":53.8372,"lon":12.35684,"ele":88},{"name":"Voßbarg","lat":53.84657,"lon":12.39439,"ele":88},{"name":"Forstberg","lat":53.39719,"lon":11.02594,"ele":87},{"name":"Michelberg","lat":53.68788,"lon":12.51293,"ele":87},{"name":"Weinberg","lat":53.63167,"lon":11.37353,"ele":86},{"name":"Rosinenbarg","lat":53.78469,"lon":12.70163,"ele":85},{"name":"Apothekerberg","lat":53.69486,"lon":12.41879,"ele":85},{"name":"Flötenberg","lat":53.46181,"lon":12.94671,"ele":85},{"name":"Bockholzberg","lat":53.87546,"lon":10.89304,"ele":84},{"name":"Rommelberg","lat":53.7788,"lon":11.43146,"ele":83},{"name":"Dornbusch","lat":53.85733,"lon":12.40647,"ele":82},{"name":"Doktorberg","lat":53.48814,"lon":12.68538,"ele":82},{"name":"Bastorfer Signalberg","lat":54.13169,"lon":11.69411,"ele":79},{"name":"Mühlenberg","lat":53.50504,"lon":13.09944,"ele":78},{"name":"Mühlenberg","lat":53.53157,"lon":13.07441,"ele":77},{"name":"Schaumberg","lat":53.40879,"lon":12.90423,"ele":77},{"name":"Kienhorst","lat":53.35112,"lon":12.86487,"ele":76},{"name":"Buchenberg","lat":53.34949,"lon":12.91617,"ele":76},{"name":"Kukuksberg","lat":53.52858,"lon":13.0867,"ele":74},{"name":"Bakenberg","lat":54.5972,"lon":13.117,"ele":73},{"name":"Fuchsberg","lat":53.8543,"lon":12.39864,"ele":73},{"name":"Voßbarg","lat":53.71015,"lon":12.86337,"ele":72},{"name":"Burgunderberg","lat":53.42013,"lon":13.07996,"ele":72},{"name":"Dolger Berg","lat":53.96324,"lon":12.26548,"ele":71},{"name":"Österberg","lat":53.40878,"lon":12.93723,"ele":69},{"name":"Golm","lat":53.88632,"lon":14.20037,"ele":69},{"name":"Wahrsberg","lat":53.69971,"lon":11.81432,"ele":69},{"name":"Langer Berg","lat":53.83521,"lon":12.7233,"ele":68},{"name":"Räuberberg","lat":53.52721,"lon":13.07718,"ele":68},{"name":"Pickel","lat":53.634,"lon":11.37989,"ele":67},{"name":"Petersberg","lat":53.6099,"lon":11.55593,"ele":67},{"name":"Suppenberg","lat":53.84486,"lon":12.41012,"ele":67},{"name":"Galgenberg","lat":53.58486,"lon":13.036,"ele":67},{"name":"Seeberg","lat":53.54672,"lon":13.80471,"ele":67},{"name":"Zickerberg","lat":54.29694,"lon":13.65848,"ele":66},{"name":"Bakenberg","lat":54.3019,"lon":13.69046,"ele":66},{"name":"Krugberg","lat":53.58816,"lon":11.499,"ele":65},{"name":"Gottesgaber Berg","lat":53.59643,"lon":11.23187,"ele":65},{"name":"Wulfsberg","lat":53.83766,"lon":12.34959,"ele":64},{"name":"Schwarzer Berg","lat":53.43557,"lon":13.97072,"ele":64},{"name":"Kappenberg","lat":53.81839,"lon":10.98167,"ele":63},{"name":"Kahler Berg","lat":53.58006,"lon":11.31637,"ele":62},{"name":"Strauchberg","lat":53.44401,"lon":11.81942,"ele":60},{"name":"Düsterberg","lat":53.85369,"lon":11.67488,"ele":59},{"name":"Hexenberg","lat":53.71799,"lon":12.04318,"ele":59},{"name":"Streckelsberg","lat":54.05309,"lon":14.01355,"ele":58},{"name":"Petersberg","lat":53.86137,"lon":11.67484,"ele":58},{"name":"Kückelsberg","lat":53.93332,"lon":14.08322,"ele":58},{"name":"Plansberg","lat":54.34287,"lon":13.73036,"ele":58},{"name":"Mühlenberg","lat":53.46081,"lon":11.44316,"ele":56},{"name":"Peperbarg","lat":53.94767,"lon":12.23218,"ele":56},{"name":"Mühlenberg","lat":53.97201,"lon":12.2786,"ele":56},{"name":"Galgenberg","lat":53.85879,"lon":12.52146,"ele":56},{"name":"Zirowberg","lat":53.92751,"lon":14.19152,"ele":56},{"name":"Mühlenberg","lat":53.8653,"lon":12.38618,"ele":55},{"name":"Chimborazo","lat":53.50826,"lon":13.22749,"ele":55},{"name":"Heideberge","lat":53.92801,"lon":14.0705,"ele":55},{"name":"Platter Berg","lat":53.97253,"lon":14.13081,"ele":54},{"name":"Mühlenberg","lat":53.9676,"lon":12.23237,"ele":52},{"name":"Kavelsberg","lat":53.65568,"lon":11.95245,"ele":51},{"name":"Heidberg","lat":53.8854,"lon":12.39844,"ele":49},{"name":"Zieseberg","lat":54.03806,"lon":13.7475,"ele":49},{"name":"Hoher Berg","lat":54.11786,"lon":13.63517,"ele":48},{"name":"Kammerberg","lat":53.94712,"lon":12.27704,"ele":48},{"name":"Kuhberg","lat":53.5046,"lon":10.8512,"ele":48},{"name":"Tangerberg","lat":53.4449,"lon":13.94477,"ele":47},{"name":"Präsidentenberg","lat":53.94537,"lon":14.16888,"ele":46},{"name":"Ebereschenberg","lat":53.84336,"lon":12.3255,"ele":46},{"name":"Ziegenberg","lat":53.4631,"lon":12.72977,"ele":46},{"name":"Kahler Berg","lat":53.93677,"lon":12.29195,"ele":45},{"name":"Holmberg","lat":53.85338,"lon":12.33711,"ele":44},{"name":"Kräugerbarg","lat":53.97528,"lon":12.17327,"ele":43},{"name":"Hoher Zwerg","lat":54.05699,"lon":13.57496,"ele":43},{"name":"Liepen Berg","lat":54.03229,"lon":13.48708,"ele":43},{"name":"Kötelberg","lat":53.98482,"lon":12.22637,"ele":42},{"name":"Köpckenberg","lat":53.93055,"lon":12.32433,"ele":42},{"name":"Schäferberg","lat":53.96954,"lon":14.11688,"ele":41},{"name":"Eckertsberg","lat":54.03877,"lon":13.56915,"ele":41},{"name":"Böser Berg","lat":53.78262,"lon":12.46333,"ele":40},{"name":"Königsberg","lat":54.055,"lon":13.57686,"ele":40},{"name":"Krückenberg","lat":53.95625,"lon":14.12225,"ele":40},{"name":"Langer Berg","lat":53.98988,"lon":13.5685,"ele":40},{"name":"Langer Berg","lat":54.04835,"lon":13.41602,"ele":40},{"name":"Glaubensberg","lat":53.96485,"lon":14.06917,"ele":39},{"name":"Dwasberg","lat":53.41707,"lon":11.53152,"ele":38},{"name":"Teschenberg","lat":54.33378,"lon":13.69831,"ele":38},{"name":"Jölkenberg","lat":54.05447,"lon":13.39681,"ele":38},{"name":"Maiberg","lat":54.09823,"lon":12.54299,"ele":37},{"name":"Rauher Berg","lat":54.05129,"lon":13.60197,"ele":37},{"name":"Kuhlenberg","lat":53.92246,"lon":12.32008,"ele":36},{"name":"Lotsenberg","lat":54.27497,"lon":13.72191,"ele":36},{"name":"Dornrehmelberg","lat":53.83959,"lon":12.59402,"ele":36},{"name":"Schafberg","lat":54.32931,"lon":13.69062,"ele":35},{"name":"Schanzberg","lat":54.04445,"lon":13.75291,"ele":35},{"name":"Hasenberg","lat":53.93131,"lon":14.15902,"ele":35},{"name":"Großer Werderberg","lat":53.77361,"lon":12.43457,"ele":34},{"name":"Elendsberg","lat":54.05798,"lon":13.56428,"ele":34},{"name":"Karlsberg","lat":54.14527,"lon":13.10407,"ele":34},{"name":"Schiefer Berg","lat":53.84217,"lon":12.58055,"ele":34},{"name":"Stemmerberg","lat":53.93157,"lon":12.19466,"ele":33},{"name":"Röbenberg","lat":53.93227,"lon":12.31924,"ele":32},{"name":"Weißer Berg","lat":54.00364,"lon":13.85471,"ele":32},{"name":"Schwarzer Berg","lat":54.04936,"lon":13.62931,"ele":32},{"name":"Voßbarg","lat":54.04074,"lon":13.48193,"ele":32},{"name":"Schlangeberg","lat":53.89467,"lon":13.00322,"ele":30},{"name":"Ebertberg","lat":54.06445,"lon":13.46423,"ele":30},{"name":"Hufenberg","lat":54.21522,"lon":13.02342,"ele":28},{"name":"Studentenberg","lat":54.06127,"lon":13.3715,"ele":27},{"name":"Trappenberg","lat":54.06318,"lon":13.50439,"ele":27},{"name":"Flöhbarg","lat":54.0905,"lon":11.6589,"ele":26},{"name":"Martensberg","lat":54.06121,"lon":13.3883,"ele":25},{"name":"Gallberg","lat":53.97619,"lon":13.8077,"ele":25},{"name":"Poppelberg","lat":54.06552,"lon":13.75941,"ele":25},{"name":"Katharinenberg","lat":54.06897,"lon":13.77689,"ele":25},{"name":"Dachsberg","lat":53.981,"lon":14.10535,"ele":25},{"name":"Heuberg","lat":53.98013,"lon":14.10013,"ele":25},{"name":"Ochsenberg","lat":53.93938,"lon":14.05914,"ele":25},{"name":"Helmshäger Berg","lat":54.06124,"lon":13.38086,"ele":24},{"name":"Mühlenberg","lat":54.09587,"lon":13.56988,"ele":24},{"name":"Buchberg","lat":54.0401,"lon":13.88452,"ele":24},{"name":"Mühlberg","lat":54.12003,"lon":13.68541,"ele":24},{"name":"Eisberg","lat":54.17979,"lon":13.00451,"ele":24},{"name":"Mühlenberg","lat":54.11137,"lon":13.05882,"ele":24},{"name":"Schwedenberg","lat":54.01049,"lon":12.72525,"ele":23},{"name":"Schalksberg","lat":54.27282,"lon":13.16615,"ele":23},{"name":"Bauerberg","lat":53.9827,"lon":13.83099,"ele":23},{"name":"Torfberg","lat":53.82947,"lon":13.35802,"ele":22},{"name":"Schusterberg","lat":54.24291,"lon":13.4037,"ele":22},{"name":"Tannenberg","lat":54.02116,"lon":13.88532,"ele":22},{"name":"Störenberg","lat":54.0245,"lon":13.87558,"ele":22},{"name":"Klodtenberg","lat":53.96336,"lon":10.96928,"ele":22},{"name":"Rauher Berg","lat":54.10119,"lon":13.07038,"ele":22},{"name":"Spitzer Berg","lat":54.08949,"lon":13.51608,"ele":21},{"name":"Kikerberg","lat":54.0908,"lon":13.10618,"ele":21},{"name":"Wildberg","lat":53.91325,"lon":12.99141,"ele":20},{"name":"Lütt Barg","lat":53.78892,"lon":11.69791,"ele":20},{"name":"Tempelberg","lat":54.3172,"lon":13.44184,"ele":20},{"name":"Langer Berg","lat":54.08881,"lon":12.92142,"ele":20},{"name":"Fuchsberg","lat":54.04382,"lon":12.78342,"ele":19},{"name":"Bakenberg","lat":54.27385,"lon":13.16087,"ele":19},{"name":"Togelberg","lat":53.94659,"lon":13.41008,"ele":19},{"name":"Bakelberg","lat":54.36405,"lon":12.40118,"ele":18},{"name":"Ballastberg","lat":54.04525,"lon":13.7882,"ele":18},{"name":"Jungfernberg","lat":53.95263,"lon":13.92874,"ele":18},{"name":"Höwt","lat":54.00278,"lon":13.8586,"ele":18},{"name":"Bratheringsberg","lat":53.92429,"lon":14.0247,"ele":18},{"name":"Glienkenberg","lat":53.73322,"lon":14.25193,"ele":17},{"name":"Konker Berg","lat":53.96785,"lon":14.04393,"ele":17},{"name":"Hasenberg","lat":53.93687,"lon":13.42349,"ele":17},{"name":"Schloßberg","lat":53.93992,"lon":13.41016,"ele":17},{"name":"Großer Negenberg","lat":54.29006,"lon":12.89464,"ele":17},{"name":"Fuchsberg","lat":53.83576,"lon":13.38435,"ele":17},{"name":"Kreideberg","lat":54.11889,"lon":12.98258,"ele":17},{"name":"Loitzer Berg","lat":53.95535,"lon":13.12131,"ele":16},{"name":"Hellberg","lat":53.88999,"lon":13.02554,"ele":16},{"name":"Rübscher Berg","lat":53.8861,"lon":14.10521,"ele":16},{"name":"Sandberg","lat":54.11016,"lon":13.00931,"ele":16},{"name":"Schifferberg","lat":54.38136,"lon":12.42921,"ele":15},{"name":"Hagenshöh","lat":53.7368,"lon":14.25826,"ele":15},{"name":"Mühlenberg","lat":54.06551,"lon":12.78245,"ele":15},{"name":"Großer Ochsenberg","lat":54.03276,"lon":13.76806,"ele":15},{"name":"Beckersberg","lat":53.73761,"lon":14.26001,"ele":14},{"name":"Musikantenberg","lat":54.05017,"lon":12.76917,"ele":14},{"name":"Koppelberg","lat":54.06717,"lon":13.38664,"ele":14},{"name":"Haselberg","lat":54.03236,"lon":12.76924,"ele":13},{"name":"Voßberg","lat":54.08864,"lon":13.51342,"ele":13},{"name":"Schanzenberg","lat":54.05073,"lon":12.78636,"ele":11},{"name":"Katharinenberg","lat":54.07286,"lon":12.82291,"ele":11},{"name":"Axels Höhe","lat":54.64552,"lon":13.24086,"ele":11},{"name":"Petersberg","lat":53.88794,"lon":13.93124,"ele":11},{"name":"Kooser Berg","lat":54.13519,"lon":13.41366,"ele":11},{"name":"Rauher Berg","lat":54.09524,"lon":13.7912,"ele":9},{"name":"Wulfsberg","lat":53.86211,"lon":11.46902,"ele":8},{"name":"Baumberg","lat":53.958,"lon":13.97966,"ele":8},{"name":"Kietzberg","lat":54.1229,"lon":13.22315,"ele":8},{"name":"Scheidelberg","lat":54.10697,"lon":13.22834,"ele":8},{"name":"Holmberg","lat":54.02005,"lon":12.89691,"ele":8},{"name":"Eiskellerberg","lat":53.92332,"lon":14.01732,"ele":7},{"name":"Schlossberg","lat":54.01658,"lon":12.98487,"ele":5},{"name":"Silberberg","lat":54.10813,"lon":13.4337,"ele":4},{"name":"Sandberg","lat":54.16162,"lon":13.34794,"ele":4},{"name":"Fuchsberg","lat":54.50561,"lon":13.15897,"ele":3}]