[{"name":"Wurmberg","lat":51.75652,"lon":10.61821,"ele":971},{"name":"Bruchberg","lat":51.78315,"lon":10.49871,"ele":927},{"name":"Achtermannshöhe","lat":51.76087,"lon":10.56898,"ele":925},{"name":"Wolfswarte","lat":51.79027,"lon":10.50287,"ele":916},{"name":"Rehberg","lat":51.73971,"lon":10.53696,"ele":893},{"name":"Quitschenberg","lat":51.79611,"lon":10.57778,"ele":882},{"name":"Hopfensäcke","lat":51.79067,"lon":10.56491,"ele":866},{"name":"Auf dem Acker","lat":51.7488,"lon":10.4453,"ele":865},{"name":"Großer Sonnenberg","lat":51.75548,"lon":10.51344,"ele":853},{"name":"Kleiner Sonnenberg","lat":51.74978,"lon":10.52688,"ele":853},{"name":"Königskopf","lat":51.75398,"lon":10.55935,"ele":853},{"name":"Steinkopf","lat":51.76077,"lon":10.46078,"ele":835},{"name":"Lerchenköpfe","lat":51.80192,"lon":10.53283,"ele":821},{"name":"Hanskühnenburg","lat":51.7281,"lon":10.40317,"ele":811},{"name":"Schubenstein","lat":51.80295,"lon":10.55013,"ele":803},{"name":"Lerchenköpfe","lat":51.80824,"lon":10.53484,"ele":801},{"name":"Dehnenkopf","lat":51.80564,"lon":10.52168,"ele":775},{"name":"Abbenstein","lat":51.8132,"lon":10.56241,"ele":769},{"name":"Sonnenkopf","lat":51.76334,"lon":10.49405,"ele":766},{"name":"Schalke","lat":51.85083,"lon":10.38333,"ele":762},{"name":"Haspelkopf","lat":51.72044,"lon":10.36869,"ele":749},{"name":"Sonnenkopf","lat":51.75953,"lon":10.4883,"ele":740},{"name":"Kahleberg","lat":51.84453,"lon":10.36909,"ele":730},{"name":"Kuppe","lat":51.72574,"lon":10.50785,"ele":729},{"name":"Großer Breitenberg","lat":51.73242,"lon":10.39472,"ele":727},{"name":"Bocksberg","lat":51.85694,"lon":10.35694,"ele":726},{"name":"Jordanshöhe","lat":51.72278,"lon":10.52417,"ele":723},{"name":"Waage","lat":51.73635,"lon":10.50057,"ele":721},{"name":"Stöberhai","lat":51.65634,"lon":10.55447,"ele":720},{"name":"Schlufterkopf","lat":51.74308,"lon":10.48911,"ele":715},{"name":"Kleiner Breitenberg","lat":51.73947,"lon":10.40519,"ele":711},{"name":"Schlufterkopf","lat":51.75175,"lon":10.4756,"ele":705},{"name":"Jagdkopf","lat":51.65444,"lon":10.5421,"ele":701},{"name":"Riesenbachskopf","lat":51.85367,"lon":10.40347,"ele":700},{"name":"Altetalskopf","lat":51.85079,"lon":10.41022,"ele":693},{"name":"Großer Knollen","lat":51.66737,"lon":10.43029,"ele":687},{"name":"Ebersberg","lat":51.68376,"lon":10.66017,"ele":687},{"name":"Hinterer Ebersberg","lat":51.67475,"lon":10.62125,"ele":686},{"name":"Aschentalshalbe","lat":51.6863,"lon":10.4526,"ele":685},{"name":"Kleiner Oderberg","lat":51.71368,"lon":10.54551,"ele":685},{"name":"Vorderer Ebersberg","lat":51.68031,"lon":10.64686,"ele":684},{"name":"Großer Breitenberg","lat":51.73238,"lon":10.38026,"ele":682},{"name":"Klingebielskopf","lat":51.84605,"lon":10.39248,"ele":682},{"name":"Hohestieg","lat":51.85938,"lon":10.41279,"ele":677},{"name":"Koboldstaler Köpfe","lat":51.68782,"lon":10.48033,"ele":673},{"name":"Großer Schleifsteinsberg","lat":51.86386,"lon":10.40058,"ele":671},{"name":"Sägemühlenberg","lat":51.71852,"lon":10.54439,"ele":670},{"name":"Eichenberg","lat":51.86258,"lon":10.45072,"ele":670},{"name":"Ifenkopf","lat":51.77037,"lon":10.42929,"ele":669},{"name":"Wolfskopf","lat":51.761,"lon":10.4233,"ele":669},{"name":"Thomas-Martins-Berg","lat":51.86204,"lon":10.36839,"ele":669},{"name":"Mittelberg","lat":51.80686,"lon":10.50461,"ele":667},{"name":"Pieptalsberg","lat":51.8699,"lon":10.43337,"ele":667},{"name":"Spitzenberg","lat":51.83665,"lon":10.51222,"ele":664},{"name":"Matthias-Schmidt-Berg","lat":51.70411,"lon":10.52549,"ele":663},{"name":"Beerberg","lat":51.70953,"lon":10.53106,"ele":658},{"name":"Eisensteinsberg","lat":51.72598,"lon":10.49389,"ele":658},{"name":"Hübichentalsköpfe","lat":51.66474,"lon":10.4349,"ele":654},{"name":"Kellerköpfe","lat":51.86858,"lon":10.40718,"ele":654},{"name":"Sidecum","lat":51.87562,"lon":10.43081,"ele":654},{"name":"Allerberg","lat":51.7568,"lon":10.41271,"ele":652},{"name":"Übelsberg","lat":51.6761,"lon":10.4491,"ele":651},{"name":"Großer Oderberg","lat":51.70281,"lon":10.54831,"ele":650},{"name":"Brautstein","lat":51.87912,"lon":10.4552,"ele":648},{"name":"Kleiner Steffentalskopf","lat":51.8543,"lon":10.49896,"ele":648},{"name":"Tränkeberg","lat":51.78543,"lon":10.39344,"ele":648},{"name":"Oberer Sellenberg","lat":51.82893,"lon":10.56046,"ele":647},{"name":"Unterer Sellenberg","lat":51.83766,"lon":10.56498,"ele":647},{"name":"Braakberg","lat":51.71124,"lon":10.36783,"ele":646},{"name":"Großer Wiesenberg","lat":51.84667,"lon":10.42293,"ele":645},{"name":"Breitenberg","lat":51.68786,"lon":10.55011,"ele":644},{"name":"Straussberg","lat":51.85402,"lon":10.42658,"ele":643},{"name":"Kleiner Eschenberg","lat":51.68694,"lon":10.51662,"ele":640},{"name":"Töberschekopf","lat":51.86697,"lon":10.36478,"ele":639},{"name":"Stephansecke","lat":51.6348,"lon":10.54784,"ele":636},{"name":"Quitschenkopf","lat":51.63741,"lon":10.51715,"ele":636},{"name":"Rammelsberg","lat":51.88755,"lon":10.43186,"ele":635},{"name":"Königsberg","lat":51.72456,"lon":10.47897,"ele":635},{"name":"Wagnerskopf","lat":51.65286,"lon":10.60444,"ele":633},{"name":"Herzberg","lat":51.88177,"lon":10.41172,"ele":632},{"name":"Kleiner Knollen","lat":51.6617,"lon":10.4199,"ele":631},{"name":"Großer Bockstalkopf","lat":51.63213,"lon":10.53767,"ele":630},{"name":"Schindelkopf","lat":51.72114,"lon":10.33958,"ele":629},{"name":"Glockenberg","lat":51.706,"lon":10.51253,"ele":627},{"name":"Großer Wurzelnberg","lat":51.72783,"lon":10.45922,"ele":626},{"name":"Schachtkopf","lat":51.80576,"lon":10.49179,"ele":626},{"name":"Schloßkopf","lat":51.70389,"lon":10.57028,"ele":624},{"name":"Oberer Breitenberg","lat":51.85805,"lon":10.51561,"ele":624},{"name":"Röhrtanz","lat":51.86732,"lon":10.50426,"ele":623},{"name":"Große Wulpke","lat":51.85401,"lon":10.25122,"ele":622},{"name":"Heidelbeerköpfe","lat":51.76683,"lon":10.34522,"ele":621},{"name":"Polsterberg","lat":51.79348,"lon":10.39737,"ele":621},{"name":"Hasselkopf","lat":51.71335,"lon":10.61699,"ele":620},{"name":"Radauberg","lat":51.83833,"lon":10.53742,"ele":618},{"name":"Adlersberg","lat":51.84003,"lon":10.28,"ele":615},{"name":"Rauhe Höhe","lat":51.64375,"lon":10.69047,"ele":614},{"name":"Am Riefenbruch","lat":51.84878,"lon":10.5173,"ele":614},{"name":"Spitzenberger Spitze","lat":51.84532,"lon":10.52709,"ele":612},{"name":"Bärentalsköpfe","lat":51.65597,"lon":10.43444,"ele":611},{"name":"Sieberberg","lat":51.7155,"lon":10.49298,"ele":611},{"name":"Hahnenklee","lat":51.86711,"lon":10.33371,"ele":611},{"name":"Kleiner Wurzelnberg","lat":51.7289,"lon":10.44861,"ele":610},{"name":"Lilienberg","lat":51.71122,"lon":10.44207,"ele":610},{"name":"Bockswieser Höhe","lat":51.82518,"lon":10.33366,"ele":610},{"name":"Hoher Berg","lat":51.8206,"lon":10.29522,"ele":609},{"name":"Großer Trogtaler Berg","lat":51.88268,"lon":10.25772,"ele":609},{"name":"Großer Ahrendsberg","lat":51.84754,"lon":10.4736,"ele":607},{"name":"Schwarzenberg","lat":51.80908,"lon":10.4781,"ele":606},{"name":"Langfast","lat":51.6923,"lon":10.38872,"ele":606},{"name":"Langentalskopf","lat":51.86414,"lon":10.35544,"ele":606},{"name":"Kaltetalskopf","lat":51.8664,"lon":10.59451,"ele":605},{"name":"Huthberg","lat":51.86945,"lon":10.48716,"ele":605},{"name":"Schadenbeeksköpfe","lat":51.67767,"lon":10.46199,"ele":605},{"name":"Ober-Sommerberg","lat":51.88237,"lon":10.32174,"ele":605},{"name":"Brandkopf","lat":51.76752,"lon":10.36711,"ele":605},{"name":"Leitweg","lat":51.63778,"lon":10.60379,"ele":605},{"name":"Jagdkopf","lat":51.63366,"lon":10.61552,"ele":603},{"name":"Jagdkopf","lat":51.63393,"lon":10.60657,"ele":603},{"name":"Jagdkopf","lat":51.64933,"lon":10.58586,"ele":602},{"name":"Großer Mittelberg","lat":51.71043,"lon":10.38077,"ele":601},{"name":"Mühlenberg","lat":51.79352,"lon":10.35023,"ele":601},{"name":"Hinterer Wolfsberg","lat":51.66257,"lon":10.64026,"ele":600},{"name":"Giengelsberg","lat":51.8834,"lon":10.44011,"ele":599},{"name":"Steintaler Berg","lat":51.78088,"lon":10.27736,"ele":599},{"name":"Brombergshöhe","lat":51.86744,"lon":10.25486,"ele":599},{"name":"Ziegenberg","lat":51.77311,"lon":10.33892,"ele":598},{"name":"Kalteborn","lat":51.79548,"lon":10.2744,"ele":598},{"name":"Hüttenkopf","lat":51.69326,"lon":10.51015,"ele":597},{"name":"Kirchberg","lat":51.69114,"lon":10.58637,"ele":597},{"name":"Mörlberg","lat":51.86679,"lon":10.51786,"ele":597},{"name":"Oberer Schmalenberg","lat":51.85122,"lon":10.52812,"ele":596},{"name":"Blockkötenkopf","lat":51.75756,"lon":10.33686,"ele":595},{"name":"Gropenbornskopf","lat":51.6941,"lon":10.45119,"ele":595},{"name":"Heimbergskopf","lat":51.88276,"lon":10.31288,"ele":595},{"name":"Galgenberg","lat":51.70914,"lon":10.50317,"ele":594},{"name":"Mittlerer Breitenberg","lat":51.86063,"lon":10.52715,"ele":594},{"name":"Eselsberg","lat":51.84253,"lon":10.31513,"ele":593},{"name":"Adlersberg","lat":51.68306,"lon":10.41972,"ele":593},{"name":"Brombergskopf","lat":51.87036,"lon":10.25061,"ele":593},{"name":"Mittelberg","lat":51.87966,"lon":10.61374,"ele":593},{"name":"Einersberg","lat":51.81369,"lon":10.29342,"ele":592},{"name":"Uhlenkopf","lat":51.87618,"lon":10.60654,"ele":591},{"name":"Obere Stiefmutter","lat":51.87369,"lon":10.50652,"ele":591},{"name":"Gelmkeberg","lat":51.88691,"lon":10.45582,"ele":590},{"name":"Großer Steffenstalskopf","lat":51.85241,"lon":10.48402,"ele":590},{"name":"Hasselkopf","lat":51.84838,"lon":10.57026,"ele":590},{"name":"Großer Eschenberg","lat":51.67311,"lon":10.51351,"ele":590},{"name":"Neckelnberg","lat":51.86855,"lon":10.23955,"ele":590},{"name":"Bremer Höhe","lat":51.80975,"lon":10.32425,"ele":590},{"name":"Kattnäse","lat":51.87931,"lon":10.61055,"ele":590},{"name":"Berghauptmannskopf","lat":51.77579,"lon":10.38498,"ele":589},{"name":"Großentalsköpfe","lat":51.6515,"lon":10.44039,"ele":588},{"name":"Eselsberg","lat":51.84484,"lon":10.3009,"ele":587},{"name":"Ahrendsberger Klippen","lat":51.85424,"lon":10.46776,"ele":586},{"name":"Flamsberg","lat":51.78196,"lon":10.31917,"ele":586},{"name":"Winterberg","lat":51.85369,"lon":10.55806,"ele":585},{"name":"Nesseltalskopf","lat":51.69756,"lon":10.48625,"ele":585},{"name":"Kuckuck","lat":51.63549,"lon":10.56487,"ele":585},{"name":"Borberg","lat":51.88697,"lon":10.31596,"ele":585},{"name":"Heidelbeerköpfe","lat":51.76351,"lon":10.34084,"ele":585},{"name":"Höxterberg","lat":51.67207,"lon":10.40537,"ele":584},{"name":"Unterer Breitenberg","lat":51.86466,"lon":10.53289,"ele":584},{"name":"Hirtenberg","lat":51.6866,"lon":10.3734,"ele":582},{"name":"Nesselkopf","lat":51.61698,"lon":10.51229,"ele":582},{"name":"Haferberg","lat":51.32125,"lon":9.73536,"ele":580},{"name":"Kargeskopf","lat":51.70275,"lon":10.35996,"ele":580},{"name":"Brandkopf","lat":51.83711,"lon":10.39958,"ele":580},{"name":"Breitentalskopf","lat":51.69333,"lon":10.43083,"ele":579},{"name":"Seidelskopf","lat":51.78829,"lon":10.30919,"ele":579},{"name":"Schieferberg","lat":51.76789,"lon":10.32544,"ele":578},{"name":"Scholben","lat":51.62706,"lon":10.49,"ele":575},{"name":"Heiligenstock","lat":51.76654,"lon":10.3077,"ele":575},{"name":"Hühnerkopf","lat":51.75424,"lon":10.40059,"ele":573},{"name":"Kunstberg","lat":51.79696,"lon":10.45334,"ele":573},{"name":"Hohestein","lat":51.90858,"lon":10.24375,"ele":572},{"name":"Hasenberg","lat":51.82811,"lon":10.25256,"ele":572},{"name":"Scholm","lat":51.62829,"lon":10.4854,"ele":572},{"name":"Borbergskappe","lat":51.88566,"lon":10.32797,"ele":572},{"name":"Mühlenberg","lat":51.80256,"lon":10.45757,"ele":572},{"name":"Lampertsberg","lat":51.64766,"lon":10.64985,"ele":572},{"name":"Stöttertalskopf","lat":51.87542,"lon":10.61245,"ele":572},{"name":"Wartenberg","lat":51.88352,"lon":10.61134,"ele":572},{"name":"Lageswarte","lat":51.91483,"lon":10.25136,"ele":571},{"name":"Langelieth","lat":51.87627,"lon":10.3393,"ele":571},{"name":"Klausberg","lat":51.76292,"lon":10.32569,"ele":570},{"name":"Großer Mittelberg","lat":51.77167,"lon":10.41361,"ele":569},{"name":"Woldsberg","lat":51.87925,"lon":10.62178,"ele":569},{"name":"Großer Romke","lat":51.85708,"lon":10.47972,"ele":568},{"name":"Sangenberg","lat":51.92669,"lon":10.27458,"ele":566},{"name":"Rotenberg","lat":51.80352,"lon":10.42999,"ele":566},{"name":"Rotenberg","lat":51.80104,"lon":10.42236,"ele":566},{"name":"Goldberg","lat":51.88046,"lon":10.50416,"ele":564},{"name":"Spüketalskopf","lat":51.87107,"lon":10.59419,"ele":564},{"name":"Iberg","lat":51.82181,"lon":10.25019,"ele":563},{"name":"Franzosenkopf","lat":51.7021,"lon":10.3705,"ele":562},{"name":"Riesberg","lat":51.8818,"lon":10.30354,"ele":561},{"name":"Ratsberg","lat":51.61279,"lon":10.52944,"ele":560},{"name":"Hohegeißberg","lat":51.65324,"lon":10.64647,"ele":558},{"name":"Zieglerskopf","lat":51.66477,"lon":10.49605,"ele":558},{"name":"Alte Schlewecke","lat":51.8711,"lon":10.51613,"ele":558},{"name":"Ecksberg","lat":51.89169,"lon":10.28931,"ele":557},{"name":"Kranichsberg","lat":51.85675,"lon":10.2967,"ele":557},{"name":"Lindtalskopf","lat":51.91866,"lon":10.25998,"ele":556},{"name":"Rabenklippe","lat":51.86436,"lon":10.6047,"ele":555},{"name":"Großer Staufenberg","lat":51.6256,"lon":10.6356,"ele":554},{"name":"Großer Bromberg","lat":51.86652,"lon":10.26546,"ele":554},{"name":"Kloppstert","lat":51.6856,"lon":10.4169,"ele":553},{"name":"Grimmberg","lat":51.6708,"lon":10.40061,"ele":550},{"name":"Eichelnberg","lat":51.74458,"lon":10.37509,"ele":548},{"name":"Sachsenberg","lat":51.86985,"lon":10.57525,"ele":546},{"name":"Eichelnkopf","lat":51.66,"lon":10.3948,"ele":546},{"name":"Ochsenberg","lat":51.82201,"lon":10.4771,"ele":546},{"name":"Kolliesberg","lat":51.71574,"lon":10.65238,"ele":546},{"name":"Pagelsburg","lat":51.6723,"lon":10.4186,"ele":545},{"name":"Glockenberg","lat":51.8744,"lon":10.38238,"ele":545},{"name":"Kleine Wulpke","lat":51.85799,"lon":10.25268,"ele":543},{"name":"Kleiner Steinberg","lat":51.36494,"lon":9.69822,"ele":542},{"name":"Großer Steinberg","lat":51.35693,"lon":9.70192,"ele":542},{"name":"Liethberg","lat":51.65347,"lon":10.41377,"ele":540},{"name":"Winterhalbe","lat":51.83003,"lon":10.29515,"ele":540},{"name":"Sagenholzkopf","lat":51.8161,"lon":10.46241,"ele":539},{"name":"Steiler Berg","lat":51.87656,"lon":10.26326,"ele":538},{"name":"Teufelsberg","lat":51.87806,"lon":10.26994,"ele":538},{"name":"Herzbeeks Ecke","lat":51.65317,"lon":10.52775,"ele":537},{"name":"Großer Hauxkopf","lat":51.65452,"lon":10.49827,"ele":537},{"name":"Rotenberg","lat":51.81175,"lon":10.42939,"ele":537},{"name":"Kummelberg","lat":51.64121,"lon":10.47056,"ele":536},{"name":"Langenweth","lat":51.87693,"lon":10.35522,"ele":536},{"name":"Schwarzenberg","lat":51.90624,"lon":10.25842,"ele":533},{"name":"Großer Mittelberg","lat":51.6951,"lon":10.3649,"ele":531},{"name":"Adenberg","lat":51.88791,"lon":10.49166,"ele":530},{"name":"Ochsenberg","lat":51.82376,"lon":10.45896,"ele":530},{"name":"Eiserner Weg","lat":51.83378,"lon":10.48764,"ele":530},{"name":"Hohenkehl","lat":51.87983,"lon":10.3894,"ele":529},{"name":"Große Blöße","lat":51.78061,"lon":9.59379,"ele":528},{"name":"Oberer Großer Buchberg","lat":51.83755,"lon":10.23126,"ele":528},{"name":"Fissenkenkopf","lat":51.68528,"lon":10.40917,"ele":527},{"name":"Jakobskopf","lat":51.71118,"lon":10.43083,"ele":527},{"name":"Oberer Großer Bakenberg","lat":51.92472,"lon":10.25839,"ele":526},{"name":"Dreienbörne","lat":51.87102,"lon":10.52535,"ele":526},{"name":"Scheffeltalskopf","lat":51.64649,"lon":10.43943,"ele":525},{"name":"Scheffeltalskopf","lat":51.64328,"lon":10.44377,"ele":525},{"name":"Hüttenberg","lat":51.83118,"lon":10.27819,"ele":524},{"name":"Käseberg","lat":51.63836,"lon":10.57733,"ele":520},{"name":"Hahnenberg","lat":51.89128,"lon":10.46814,"ele":520},{"name":"Kleiner Ahrendsberg","lat":51.83305,"lon":10.47336,"ele":520},{"name":"Vorderer Ziegenrücken","lat":51.88041,"lon":10.48934,"ele":520},{"name":"Steile Wand","lat":51.6749,"lon":10.3824,"ele":519},{"name":"Großer Ahrensberg","lat":51.8043,"lon":9.58136,"ele":518},{"name":"Mittelberg","lat":51.65189,"lon":10.46457,"ele":518},{"name":"Steimkerberg","lat":51.84087,"lon":10.25746,"ele":515},{"name":"Kurtsberg","lat":51.93157,"lon":10.28604,"ele":513},{"name":"Kleiner Wiesenberg","lat":51.83743,"lon":10.42656,"ele":513},{"name":"Moosberg","lat":51.76069,"lon":9.55577,"ele":513},{"name":"Glockenberg","lat":51.80009,"lon":10.44258,"ele":513},{"name":"Sautalkopf","lat":51.85354,"lon":10.22432,"ele":511},{"name":"Gallenberg","lat":51.8254,"lon":10.2697,"ele":510},{"name":"Vogelherd","lat":51.79587,"lon":9.56179,"ele":506},{"name":"Kahberg","lat":51.87509,"lon":10.46856,"ele":505},{"name":"Knicking","lat":51.62883,"lon":10.57606,"ele":505},{"name":"Schützenklippe","lat":51.79987,"lon":10.44902,"ele":505},{"name":"Geitstein","lat":51.87604,"lon":10.52343,"ele":502},{"name":"Mittelecke","lat":51.6631,"lon":10.4055,"ele":500},{"name":"Hessenkopf","lat":51.88934,"lon":10.38746,"ele":500},{"name":"Ettersberg","lat":51.85989,"lon":10.56407,"ele":500},{"name":"Wetzstein","lat":51.88399,"lon":10.61924,"ele":497},{"name":"Bielstein","lat":51.87531,"lon":10.29907,"ele":496},{"name":"Eichenberg","lat":51.61828,"lon":10.60353,"ele":495},{"name":"Pferdekopf","lat":51.83721,"lon":10.2454,"ele":495},{"name":"Dreiberg","lat":51.73022,"lon":9.5604,"ele":495},{"name":"Schullermann","lat":51.74797,"lon":9.57632,"ele":495},{"name":"Glockenberg","lat":51.88149,"lon":10.37665,"ele":494},{"name":"Taternberg","lat":51.90301,"lon":10.23557,"ele":494},{"name":"Hoher Hagen","lat":51.47512,"lon":9.7646,"ele":493},{"name":"Großer Teichtalskopf","lat":51.6766,"lon":10.3637,"ele":492},{"name":"Steimker Berg","lat":51.93387,"lon":10.2685,"ele":491},{"name":"Große Krautliet","lat":51.91891,"lon":10.23551,"ele":491},{"name":"Kleiner Mittelberg","lat":51.75743,"lon":10.38594,"ele":490},{"name":"Großer Steinberg","lat":51.70125,"lon":9.66744,"ele":490},{"name":"Arendsberg","lat":51.60566,"lon":10.50114,"ele":487},{"name":"Großer Bullars","lat":51.88383,"lon":10.22859,"ele":486},{"name":"Großer Burgberg","lat":51.8715,"lon":10.56741,"ele":485},{"name":"Voßtaler Berg","lat":51.93924,"lon":10.27457,"ele":485},{"name":"Heuer","lat":51.68528,"lon":10.35206,"ele":485},{"name":"Wethberg","lat":51.88844,"lon":10.3501,"ele":482},{"name":"Bloße Zelle","lat":51.95844,"lon":9.68976,"ele":480},{"name":"Vorderer Nönnekenberg","lat":51.86277,"lon":10.22117,"ele":480},{"name":"Brunsberg","lat":51.47979,"lon":9.76027,"ele":480},{"name":"Schlackentalskopf","lat":51.88395,"lon":10.51266,"ele":479},{"name":"Walkerlingsborn","lat":51.88552,"lon":10.50934,"ele":479},{"name":"Elfenstein","lat":51.87928,"lon":10.5276,"ele":475},{"name":"Heinrichsberg","lat":51.832,"lon":10.22726,"ele":474},{"name":"Birkenborn","lat":51.88915,"lon":10.36226,"ele":473},{"name":"Steinberg","lat":51.90654,"lon":10.40534,"ele":472},{"name":"Unterer Großer Bakenberg","lat":51.93025,"lon":10.24675,"ele":472},{"name":"Drachenberg","lat":51.87019,"lon":10.21998,"ele":470},{"name":"Grillenkopf","lat":51.62974,"lon":10.51668,"ele":470},{"name":"Unterer Schmalenberg","lat":51.86396,"lon":10.55129,"ele":470},{"name":"Oberschulenberg","lat":51.83091,"lon":10.3988,"ele":468},{"name":"Großesohl","lat":51.95196,"lon":9.68988,"ele":468},{"name":"Brandkopf","lat":51.65105,"lon":10.40133,"ele":467},{"name":"Wolfstrang","lat":51.70771,"lon":9.68793,"ele":467},{"name":"Großer Heibeekskopf","lat":51.639,"lon":10.45143,"ele":465},{"name":"Hengelsberg","lat":51.47696,"lon":9.74992,"ele":462},{"name":"Frickenberg","lat":51.92958,"lon":10.30212,"ele":461},{"name":"Brackenberg","lat":51.43302,"lon":9.7481,"ele":461},{"name":"Breitenberger Spitze","lat":51.87313,"lon":10.54036,"ele":461},{"name":"Ebersnacken","lat":51.92923,"lon":9.56578,"ele":460},{"name":"Nordberg","lat":51.90981,"lon":10.38836,"ele":459},{"name":"Schönenberg","lat":51.70966,"lon":9.71943,"ele":457},{"name":"Königsberg","lat":51.90086,"lon":10.39646,"ele":454},{"name":"Herbstberg","lat":51.64193,"lon":10.41904,"ele":454},{"name":"Sandberg","lat":51.89984,"lon":10.23229,"ele":450},{"name":"Wildenstein","lat":51.86012,"lon":10.46761,"ele":450},{"name":"Alte Schmacht","lat":51.71022,"lon":9.51493,"ele":448},{"name":"Holzberg","lat":51.84958,"lon":9.63095,"ele":445},{"name":"Königsberg","lat":51.81521,"lon":10.2318,"ele":445},{"name":"Sesebühl","lat":51.49898,"lon":9.78823,"ele":445},{"name":"Hausmannsklippe","lat":51.86866,"lon":10.61132,"ele":444},{"name":"Strut-Berg","lat":51.69255,"lon":9.60544,"ele":444},{"name":"Kleiner Romke","lat":51.86006,"lon":10.47431,"ele":442},{"name":"Hohe Schleife","lat":51.41105,"lon":9.79834,"ele":442},{"name":"Kohlhai","lat":51.92448,"lon":9.58273,"ele":441},{"name":"Kanstein","lat":52.05778,"lon":9.62361,"ele":441},{"name":"Radebrak","lat":51.88862,"lon":10.50358,"ele":441},{"name":"Hohe Egge","lat":52.17107,"lon":9.38362,"ele":440},{"name":"Kleiner Heibeekskopf","lat":51.63503,"lon":10.45174,"ele":440},{"name":"Auerhahnkopf","lat":51.77982,"lon":9.51468,"ele":440},{"name":"Auerhahnkopf","lat":51.78026,"lon":9.51563,"ele":440},{"name":"Lauensteiner Kopf","lat":52.08583,"lon":9.5268,"ele":439},{"name":"Käseberg","lat":51.43116,"lon":9.73779,"ele":438},{"name":"Schnippkopf","lat":51.93514,"lon":9.53783,"ele":437},{"name":"Großer Bocksbühl","lat":51.42925,"lon":9.96875,"ele":437},{"name":"Kleiner Burgberg","lat":51.87453,"lon":10.56625,"ele":436},{"name":"Grotenberg","lat":51.89448,"lon":10.37194,"ele":436},{"name":"Schäder","lat":51.89342,"lon":10.31361,"ele":436},{"name":"Schmalenberger Spitze","lat":51.86813,"lon":10.55224,"ele":436},{"name":"Königsberg","lat":51.89808,"lon":10.38842,"ele":435},{"name":"Großer Harlingskopf","lat":51.72007,"lon":9.56807,"ele":435},{"name":"Gläseckenberg","lat":51.88358,"lon":10.52091,"ele":434},{"name":"Stehbergskopf","lat":51.63828,"lon":9.74251,"ele":433},{"name":"Steinberg","lat":51.44477,"lon":9.75117,"ele":431},{"name":"Alte Gleichen","lat":51.46726,"lon":10.03855,"ele":430},{"name":"Rothenberg","lat":51.64824,"lon":9.72782,"ele":430},{"name":"Burgberg","lat":51.89687,"lon":9.83152,"ele":430},{"name":"Verlorener Berg","lat":51.90301,"lon":10.3932,"ele":430},{"name":"Hungershäuser Berg","lat":51.32946,"lon":9.7562,"ele":430},{"name":"Fahrenberg","lat":51.49712,"lon":9.78555,"ele":430},{"name":"Weinbergskopf","lat":51.89304,"lon":10.49049,"ele":429},{"name":"Hackeberg","lat":51.71519,"lon":9.74633,"ele":429},{"name":"Neue Gleichen","lat":51.47029,"lon":10.04001,"ele":428},{"name":"Fritzeberg","lat":51.42433,"lon":9.97215,"ele":427},{"name":"Großer Staufenberg","lat":51.3609,"lon":9.6381,"ele":427},{"name":"Mackenröder Spitze","lat":51.53698,"lon":10.0514,"ele":427},{"name":"Eickmühl","lat":51.87855,"lon":10.22247,"ele":427},{"name":"Staneberg","lat":51.52333,"lon":10.04264,"ele":426},{"name":"Kleine Krautliet","lat":51.92443,"lon":10.23258,"ele":425},{"name":"Hünstollen","lat":51.57906,"lon":10.04956,"ele":424},{"name":"Sösekopf","lat":51.73508,"lon":10.31494,"ele":423},{"name":"Buchholz","lat":51.81598,"lon":9.61028,"ele":422},{"name":"Steinbühel","lat":51.89623,"lon":10.22078,"ele":422},{"name":"Hengstrücken","lat":51.68738,"lon":9.71822,"ele":422},{"name":"Hausberg","lat":51.63101,"lon":10.46309,"ele":420},{"name":"Kleiner Staufenberg","lat":51.62306,"lon":10.62928,"ele":420},{"name":"Dransberg","lat":51.48999,"lon":9.74624,"ele":420},{"name":"Fast","lat":52.12808,"lon":9.6135,"ele":419},{"name":"Hühnerfeldberg","lat":51.37022,"lon":9.65238,"ele":418},{"name":"Steileliet","lat":51.9168,"lon":10.28135,"ele":418},{"name":"Hengstberg","lat":51.51512,"lon":10.06204,"ele":415},{"name":"Buchtskopf","lat":51.85874,"lon":10.21438,"ele":415},{"name":"Schottsberg","lat":51.48213,"lon":9.74546,"ele":415},{"name":"Rabenkopf","lat":51.89827,"lon":10.40367,"ele":414},{"name":"Sonnenköpfe","lat":51.82674,"lon":9.55414,"ele":413},{"name":"Steinköpfe","lat":51.37805,"lon":9.85397,"ele":413},{"name":"Brunier Berg","lat":51.70004,"lon":9.72238,"ele":413},{"name":"Bodohöhe/Zimmertalskopf","lat":51.94668,"lon":9.53232,"ele":412},{"name":"Hausschildberg","lat":51.87797,"lon":10.22994,"ele":412},{"name":"Warteberg","lat":51.59401,"lon":10.53628,"ele":412},{"name":"Salzleckerkopf","lat":51.32686,"lon":9.68642,"ele":412},{"name":"Sackberg","lat":51.7463,"lon":9.82001,"ele":411},{"name":"Hoher Stein","lat":51.38548,"lon":9.85797,"ele":410},{"name":"Kuckuck","lat":51.70588,"lon":9.74299,"ele":410},{"name":"Staufenbüttel","lat":51.58912,"lon":10.52679,"ele":408},{"name":"Steinberg","lat":51.42987,"lon":9.79963,"ele":408},{"name":"Papenberg","lat":51.87389,"lon":10.5521,"ele":408},{"name":"Totenberg","lat":51.52839,"lon":9.64871,"ele":408},{"name":"Kleeberg","lat":51.39188,"lon":9.6801,"ele":407},{"name":"Bröhn","lat":52.24729,"lon":9.50859,"ele":405},{"name":"Ahrensberg","lat":51.87736,"lon":9.70488,"ele":405},{"name":"Eschenberg","lat":51.45908,"lon":10.04899,"ele":404},{"name":"Ochsenberg","lat":51.81793,"lon":10.4922,"ele":403},{"name":"Brautstein","lat":51.8762,"lon":10.53413,"ele":402},{"name":"Heidelberg","lat":51.55425,"lon":9.68512,"ele":401},{"name":"Hennenköpfe","lat":51.6924,"lon":9.70518,"ele":401},{"name":"Frauenstein","lat":51.63039,"lon":10.41389,"ele":400},{"name":"Eikennacken","lat":51.81567,"lon":9.53603,"ele":400},{"name":"Hünenburg","lat":51.91173,"lon":9.82111,"ele":400},{"name":"Rothenstein","lat":51.95294,"lon":9.65841,"ele":399},{"name":"Till","lat":51.89936,"lon":9.65262,"ele":399},{"name":"Hirschköpfe","lat":52.24375,"lon":9.52419,"ele":399},{"name":"Großer Homburg","lat":51.90168,"lon":9.64254,"ele":398},{"name":"Kohlenberg","lat":51.9091,"lon":9.63624,"ele":397},{"name":"Buchenkopf","lat":51.66558,"lon":10.37029,"ele":396},{"name":"Heidelbeerkopf","lat":51.37664,"lon":9.72561,"ele":396},{"name":"Aschenhütte","lat":51.65842,"lon":9.78794,"ele":395},{"name":"Hohe Tafel","lat":52.03523,"lon":9.81718,"ele":395},{"name":"Höfeler","lat":52.25288,"lon":9.49248,"ele":395},{"name":"Sägemühlenberg","lat":51.87572,"lon":10.21053,"ele":395},{"name":"Hohe Egge","lat":51.90493,"lon":9.89123,"ele":395},{"name":"Ravensberg","lat":51.37915,"lon":9.7109,"ele":395},{"name":"Bollert","lat":51.65156,"lon":9.77424,"ele":394},{"name":"Schafskopf","lat":51.90448,"lon":10.38432,"ele":392},{"name":"Brandköpfe","lat":51.6345,"lon":10.40111,"ele":391},{"name":"Hoher Stuhl","lat":52.13399,"lon":9.63416,"ele":391},{"name":"Sauberg","lat":51.52917,"lon":10.00748,"ele":391},{"name":"Dröhneberg","lat":51.91016,"lon":10.34807,"ele":391},{"name":"Osterberg","lat":51.41659,"lon":9.75532,"ele":391},{"name":"Brakelsberg","lat":51.8522,"lon":10.20758,"ele":389},{"name":"Dittmarsberg","lat":51.91098,"lon":10.35718,"ele":389},{"name":"Hünenkopf","lat":51.51364,"lon":9.6168,"ele":389},{"name":"Hainberg","lat":51.43721,"lon":9.76104,"ele":389},{"name":"Großer Streitrodt","lat":51.67293,"lon":9.76027,"ele":389},{"name":"Büsteppe","lat":51.56497,"lon":10.04836,"ele":388},{"name":"Junge Schmacht","lat":51.70392,"lon":9.5372,"ele":388},{"name":"Kronenberg","lat":51.50738,"lon":10.06853,"ele":388},{"name":"Plesse","lat":51.43355,"lon":9.96105,"ele":388},{"name":"Liethberg","lat":51.8325,"lon":9.56221,"ele":388},{"name":"Ibenberg","lat":51.5935,"lon":9.97503,"ele":388},{"name":"Kaiserklippe","lat":51.63281,"lon":10.40263,"ele":387},{"name":"Heiligenberg","lat":51.64231,"lon":9.77359,"ele":387},{"name":"Knollen","lat":51.80262,"lon":10.22952,"ele":387},{"name":"Lüttjenberg","lat":51.90276,"lon":10.37068,"ele":387},{"name":"Großer Kopf","lat":51.41339,"lon":9.76148,"ele":386},{"name":"Wittenberg","lat":51.60003,"lon":9.97048,"ele":385},{"name":"Lengderburg","lat":51.5072,"lon":10.01001,"ele":383},{"name":"Breiter Lippberg","lat":51.58813,"lon":10.03989,"ele":383},{"name":"Reinekensiekskopf","lat":52.27061,"lon":9.45457,"ele":382},{"name":"Steimke","lat":51.65641,"lon":9.79313,"ele":382},{"name":"Wildhecker Kopf","lat":51.38145,"lon":9.69522,"ele":382},{"name":"Sandberg","lat":51.51654,"lon":9.65417,"ele":382},{"name":"Klagesberg","lat":51.45872,"lon":9.67327,"ele":381},{"name":"Vaaker Berg","lat":51.48316,"lon":9.63983,"ele":380},{"name":"Westerberg","lat":51.91547,"lon":10.34148,"ele":380},{"name":"Hohe Warte","lat":52.25696,"lon":9.48396,"ele":379},{"name":"Balos","lat":51.69025,"lon":9.81854,"ele":379},{"name":"Butterberg","lat":51.61357,"lon":10.45574,"ele":379},{"name":"Grasberg","lat":52.16487,"lon":9.56444,"ele":378},{"name":"Schevelsteiner Hochebene","lat":52.11031,"lon":9.15819,"ele":378},{"name":"Spitzer Lippberg","lat":51.5926,"lon":10.03828,"ele":377},{"name":"Hundeberg","lat":51.58675,"lon":10.45803,"ele":376},{"name":"Fahrenbrink","lat":52.22215,"lon":9.52529,"ele":376},{"name":"Mühlenberg","lat":51.95852,"lon":9.32122,"ele":376},{"name":"Hohenacken","lat":52.16989,"lon":9.37098,"ele":375},{"name":"Bückeberg","lat":52.26726,"lon":9.22974,"ele":375},{"name":"Bückeberg","lat":52.26073,"lon":9.21035,"ele":375},{"name":"Bakeder Berg","lat":52.19294,"lon":9.36083,"ele":373},{"name":"Steinkopf","lat":51.41582,"lon":9.95115,"ele":372},{"name":"Schierenbrink","lat":52.1675,"lon":9.55597,"ele":372},{"name":"Glase-Berg","lat":51.69422,"lon":9.63355,"ele":372},{"name":"Kleiner Staufenberg","lat":51.36791,"lon":9.62203,"ele":371},{"name":"Schönenberg","lat":51.64854,"lon":9.78327,"ele":371},{"name":"Ehrberg","lat":51.9346,"lon":9.52379,"ele":371},{"name":"Kahlberg","lat":51.81426,"lon":10.06114,"ele":371},{"name":"Ahrensberg","lat":51.9619,"lon":9.93968,"ele":371},{"name":"Volper","lat":51.64773,"lon":9.73541,"ele":370},{"name":"Waseberg","lat":51.86911,"lon":9.65721,"ele":370},{"name":"Hatop","lat":51.8274,"lon":9.67667,"ele":370},{"name":"Stadtberg","lat":51.91493,"lon":9.63585,"ele":370},{"name":"Tönniesberg","lat":51.72176,"lon":9.80324,"ele":369},{"name":"Drakenberg","lat":51.5538,"lon":10.01181,"ele":368},{"name":"Speerberg","lat":51.53966,"lon":9.67971,"ele":368},{"name":"Großer Schmalenberg","lat":51.82433,"lon":10.17408,"ele":367},{"name":"Streitberg","lat":51.92973,"lon":9.58086,"ele":366},{"name":"Thödingsberg","lat":51.92616,"lon":9.85417,"ele":366},{"name":"Wackelberg","lat":51.71515,"lon":9.8138,"ele":365},{"name":"Güldenberg","lat":51.64761,"lon":9.70848,"ele":365},{"name":"Hörzen","lat":52.04221,"lon":9.80727,"ele":365},{"name":"Ahrensberg","lat":52.12947,"lon":9.64917,"ele":365},{"name":"Schweinsrücken","lat":51.9176,"lon":10.21986,"ele":365},{"name":"Grefenberg","lat":51.82794,"lon":10.17087,"ele":365},{"name":"Idtberg","lat":51.93566,"lon":9.75237,"ele":364},{"name":"Lehmbrink","lat":51.96186,"lon":9.53282,"ele":364},{"name":"Knutberg","lat":51.52436,"lon":9.80775,"ele":363},{"name":"Nesselberg","lat":52.03224,"lon":9.81025,"ele":362},{"name":"Kleiner Teichtalskopf","lat":51.66794,"lon":10.35938,"ele":362},{"name":"Wiesenkopf","lat":51.86283,"lon":10.20974,"ele":362},{"name":"Hilmersberg","lat":51.67244,"lon":9.55873,"ele":362},{"name":"Kleiner Mittelberg","lat":51.63477,"lon":10.42604,"ele":361},{"name":"Großer Hals","lat":52.28343,"lon":9.4211,"ele":361},{"name":"Schierholzberg","lat":52.02942,"lon":9.29418,"ele":361},{"name":"Pyrmonter Berg","lat":52.01225,"lon":9.26468,"ele":360},{"name":"Sommerberg","lat":51.82763,"lon":9.53539,"ele":360},{"name":"Ostenberg","lat":52.02419,"lon":9.82254,"ele":360},{"name":"Hohenstein","lat":52.19867,"lon":9.31446,"ele":360},{"name":"Burgberg","lat":51.87741,"lon":9.52529,"ele":360},{"name":"Gladeberg","lat":51.63319,"lon":9.82034,"ele":360},{"name":"Hüttenberg","lat":51.52006,"lon":9.66973,"ele":360},{"name":"Langfast","lat":51.65058,"lon":10.04445,"ele":360},{"name":"Griesberg","lat":52.06339,"lon":9.96368,"ele":359},{"name":"Unterer Großer Buchberg","lat":51.84036,"lon":10.21928,"ele":359},{"name":"Rösteberg","lat":51.80644,"lon":10.21837,"ele":358},{"name":"Holenberg","lat":52.14254,"lon":9.62113,"ele":358},{"name":"Hollandsberg","lat":51.53029,"lon":10.01959,"ele":358},{"name":"Dünenberg","lat":51.73271,"lon":10.07149,"ele":358},{"name":"Schweineschraube","lat":51.7265,"lon":9.81092,"ele":357},{"name":"Gläsener","lat":51.92812,"lon":10.22297,"ele":357},{"name":"Birkenkopf","lat":51.85924,"lon":10.46344,"ele":357},{"name":"Eichfast","lat":51.76528,"lon":9.7934,"ele":356},{"name":"Sudmerberg","lat":51.915,"lon":10.46815,"ele":355},{"name":"Bussberg","lat":51.67456,"lon":9.79661,"ele":355},{"name":"Ebersberg","lat":52.21313,"lon":9.52864,"ele":355},{"name":"Menzelberg","lat":51.56148,"lon":10.00951,"ele":355},{"name":"Ritterkreuz","lat":52.13775,"lon":9.63871,"ele":355},{"name":"Egge","lat":52.28678,"lon":9.41515,"ele":355},{"name":"Lutterberger Höhe","lat":51.37838,"lon":9.62295,"ele":355},{"name":"Katzennase","lat":52.18041,"lon":9.35813,"ele":353},{"name":"Heimberg","lat":51.91189,"lon":10.32656,"ele":353},{"name":"Bützeberg","lat":51.90842,"lon":9.59714,"ele":353},{"name":"Kohlberg","lat":51.47445,"lon":9.65884,"ele":351},{"name":"Osterberg","lat":51.58329,"lon":9.95625,"ele":350},{"name":"Heukenberg","lat":51.82831,"lon":9.64712,"ele":350},{"name":"Lohberg","lat":51.47898,"lon":9.73278,"ele":350},{"name":"Kleiner Schmalenberg","lat":51.82875,"lon":10.17929,"ele":350},{"name":"Tellerbusch","lat":51.67002,"lon":9.48871,"ele":348},{"name":"Wenekopf","lat":51.51303,"lon":9.99473,"ele":347},{"name":"Fuchshöhlenberg","lat":51.84272,"lon":9.88675,"ele":347},{"name":"Hopfenberg","lat":51.57549,"lon":9.96926,"ele":346},{"name":"Wolfsköpfe","lat":52.1699,"lon":9.58109,"ele":346},{"name":"Römerstein","lat":51.57587,"lon":10.52493,"ele":345},{"name":"Großer Everstein","lat":51.87699,"lon":9.54419,"ele":345},{"name":"Rauschenhagen","lat":51.65719,"lon":9.57457,"ele":345},{"name":"Bielstein","lat":52.23653,"lon":9.5596,"ele":344},{"name":"Kalte Nase","lat":52.01195,"lon":9.2351,"ele":343},{"name":"Kellberg","lat":51.88634,"lon":9.64294,"ele":343},{"name":"Buchenberg","lat":51.63839,"lon":9.59872,"ele":343},{"name":"Staufenberg","lat":51.42883,"lon":9.69641,"ele":342},{"name":"Steinberg","lat":51.63931,"lon":10.38269,"ele":341},{"name":"Rumbecker Berg","lat":52.15067,"lon":9.15705,"ele":340},{"name":"Westerberg","lat":51.50777,"lon":9.99519,"ele":340},{"name":"Terkenberg","lat":51.43571,"lon":9.98784,"ele":340},{"name":"Großer Schweineberg","lat":51.91369,"lon":9.54128,"ele":340},{"name":"Heidkopf","lat":51.40491,"lon":9.99555,"ele":340},{"name":"Großer Knüll","lat":51.47763,"lon":10.00931,"ele":340},{"name":"Döhrberg","lat":51.96455,"lon":9.94567,"ele":340},{"name":"Wolfsberg","lat":51.91086,"lon":9.65133,"ele":340},{"name":"Langenberg","lat":51.57171,"lon":10.65949,"ele":339},{"name":"Bosenberg","lat":52.06894,"lon":9.97226,"ele":339},{"name":"Waldau","lat":52.02268,"lon":9.31844,"ele":339},{"name":"Ettberg","lat":51.53065,"lon":9.98713,"ele":337},{"name":"Klintkopf","lat":51.89078,"lon":10.51383,"ele":337},{"name":"Vogelberg","lat":51.83118,"lon":10.08518,"ele":336},{"name":"Lieseberg","lat":51.43064,"lon":9.77139,"ele":336},{"name":"Hohe Rodt","lat":51.69154,"lon":9.83414,"ele":335},{"name":"Krämerberg","lat":51.59114,"lon":10.40514,"ele":334},{"name":"Lauensberg","lat":52.01758,"lon":9.82287,"ele":333},{"name":"Kleiner Kopf","lat":51.41103,"lon":9.76734,"ele":333},{"name":"Schweineköpfchen","lat":51.6395,"lon":10.37539,"ele":332},{"name":"Rieschenberg","lat":51.43668,"lon":9.86074,"ele":332},{"name":"Kleiner Mühlenberg","lat":51.68967,"lon":9.68576,"ele":332},{"name":"Dörenberg","lat":52.17563,"lon":8.0534,"ele":331},{"name":"Babenstein","lat":52.00341,"lon":9.73437,"ele":331},{"name":"Amelungsberg","lat":52.19951,"lon":9.27019,"ele":330},{"name":"Buchenberg","lat":51.93795,"lon":10.19367,"ele":330},{"name":"Großer Kuhlenberg","lat":51.66291,"lon":9.4923,"ele":330},{"name":"Langenberg","lat":51.94117,"lon":10.21136,"ele":329},{"name":"Nonnenberg","lat":51.90039,"lon":10.41276,"ele":329},{"name":"Reuberg","lat":51.9655,"lon":9.78563,"ele":328},{"name":"Kesselberg","lat":51.66579,"lon":9.70202,"ele":328},{"name":"Kleperberg","lat":51.52657,"lon":9.97012,"ele":327},{"name":"Hohe Stolle","lat":51.99514,"lon":9.2955,"ele":326},{"name":"Möncheberg","lat":52.20296,"lon":9.2211,"ele":326},{"name":"Osterköpfe","lat":51.95694,"lon":10.20861,"ele":326},{"name":"Fuchsberg","lat":51.43395,"lon":9.70659,"ele":326},{"name":"Oberberg","lat":52.20816,"lon":9.19004,"ele":325},{"name":"Butterberg","lat":51.88814,"lon":10.57086,"ele":325},{"name":"Feldbornberg","lat":51.55677,"lon":9.9833,"ele":325},{"name":"Burgberg","lat":52.18068,"lon":9.56782,"ele":325},{"name":"Samkekopf","lat":52.23738,"lon":9.5395,"ele":325},{"name":"Bornberg","lat":51.58642,"lon":10.39292,"ele":324},{"name":"Lauseberg","lat":51.88175,"lon":10.19335,"ele":324},{"name":"Steinberg (Tosmar)","lat":52.08041,"lon":9.96095,"ele":323},{"name":"Eilumer Horn","lat":52.19603,"lon":10.74464,"ele":323},{"name":"Tischlerberg","lat":51.76368,"lon":10.06583,"ele":323},{"name":"Stollen","lat":51.57763,"lon":9.95122,"ele":322},{"name":"Vier Berge","lat":51.96239,"lon":10.45062,"ele":322},{"name":"Heidekopf","lat":51.38523,"lon":9.64035,"ele":322},{"name":"Kuxberg","lat":52.19645,"lon":10.74316,"ele":322},{"name":"Kleiner Bakenberg","lat":51.93956,"lon":10.23839,"ele":321},{"name":"Rolandskopf","lat":51.78146,"lon":10.15359,"ele":321},{"name":"Hüttenkopf","lat":51.90527,"lon":9.64929,"ele":321},{"name":"Bremerhöhe","lat":51.79554,"lon":10.23154,"ele":321},{"name":"Drakenberg","lat":52.16559,"lon":9.59414,"ele":321},{"name":"Dettberg","lat":51.42811,"lon":9.82352,"ele":321},{"name":"Hainholz","lat":52.2147,"lon":9.06899,"ele":320},{"name":"Tosmarberg (Tosmar)","lat":52.08226,"lon":9.94825,"ele":320},{"name":"Speerberg","lat":51.44745,"lon":9.99211,"ele":320},{"name":"Feldberg","lat":51.94868,"lon":9.48663,"ele":320},{"name":"Westerberg","lat":51.78979,"lon":10.00512,"ele":320},{"name":"Blümer Berg","lat":51.43612,"lon":9.67952,"ele":320},{"name":"Deutsches Haus","lat":51.68105,"lon":9.54697,"ele":320},{"name":"Steinkuhlenberg","lat":51.67862,"lon":9.54693,"ele":320},{"name":"Gnadtberg","lat":51.95608,"lon":10.1869,"ele":319},{"name":"Hasselburg","lat":51.88442,"lon":10.63663,"ele":318},{"name":"Hammersteins Höhe","lat":52.05725,"lon":10.04059,"ele":317},{"name":"Kühler","lat":51.83316,"lon":10.04198,"ele":317},{"name":"Springberg","lat":51.57296,"lon":9.95475,"ele":317},{"name":"Katzenstein","lat":51.86453,"lon":10.19888,"ele":317},{"name":"Heimberg","lat":52.01308,"lon":9.82765,"ele":316},{"name":"Speeler Kopf","lat":51.39379,"lon":9.59918,"ele":316},{"name":"Riesberg","lat":51.97907,"lon":10.00067,"ele":316},{"name":"Hainberg","lat":51.54062,"lon":9.9732,"ele":315},{"name":"Grafensundern","lat":52.18106,"lon":8.03556,"ele":315},{"name":"Mechtshäuser Berg","lat":51.90933,"lon":10.09837,"ele":315},{"name":"Barenberg","lat":51.93664,"lon":10.18593,"ele":315},{"name":"Hohe Dehne","lat":51.95977,"lon":10.04742,"ele":315},{"name":"Kikedal","lat":51.99482,"lon":9.74971,"ele":314},{"name":"Rothenberg","lat":51.58943,"lon":10.36307,"ele":314},{"name":"Krochen","lat":51.90886,"lon":10.08793,"ele":314},{"name":"Hirtenberg","lat":51.94756,"lon":9.5724,"ele":314},{"name":"Kahlenberg","lat":51.32158,"lon":9.65138,"ele":314},{"name":"Drachenberg","lat":52.217,"lon":10.77546,"ele":313},{"name":"Saalberg","lat":52.02684,"lon":9.81439,"ele":313},{"name":"Lukasberg","lat":51.56971,"lon":10.05666,"ele":313},{"name":"Osterberg","lat":52.19468,"lon":10.79919,"ele":313},{"name":"Klei","lat":51.87368,"lon":10.11463,"ele":313},{"name":"Schellenberg","lat":52.00271,"lon":9.27692,"ele":312},{"name":"Schiffberg","lat":51.90522,"lon":9.66418,"ele":312},{"name":"Alte Burg","lat":51.65314,"lon":9.99745,"ele":312},{"name":"Hünenburg","lat":51.44367,"lon":9.67561,"ele":312},{"name":"Kleiner Everstein","lat":51.88063,"lon":9.54699,"ele":311},{"name":"Großer Eichsberg","lat":51.94102,"lon":10.18969,"ele":311},{"name":"Fuchsküppel","lat":51.40561,"lon":9.68316,"ele":311},{"name":"Heinrichsberg","lat":51.56755,"lon":9.96581,"ele":310},{"name":"Hirschzunge","lat":51.88562,"lon":9.54568,"ele":310},{"name":"Hangberg","lat":51.91091,"lon":9.50259,"ele":310},{"name":"Wisselberg","lat":51.91177,"lon":9.48951,"ele":310},{"name":"Kalenberg","lat":52.234,"lon":9.59759,"ele":310},{"name":"Windenberg","lat":51.99947,"lon":10.31134,"ele":310},{"name":"Weinberg","lat":51.57528,"lon":10.60086,"ele":310},{"name":"Zimmerberg","lat":51.952,"lon":9.56431,"ele":309},{"name":"Fischerköpfe","lat":51.96893,"lon":10.43714,"ele":309},{"name":"Himmelberg","lat":52.00398,"lon":9.83429,"ele":308},{"name":"Barbiser Kopf","lat":51.59036,"lon":10.3714,"ele":308},{"name":"Schnacken-Berg","lat":51.87,"lon":9.39092,"ele":308},{"name":"Wilmeröder Berg","lat":51.87554,"lon":9.39149,"ele":308},{"name":"Bärenkopf","lat":52.01906,"lon":10.39714,"ele":307},{"name":"Hopfenberg","lat":51.61016,"lon":9.96036,"ele":307},{"name":"Hammberg (Tosmar)","lat":52.07769,"lon":9.97821,"ele":306},{"name":"Werderberg","lat":51.96975,"lon":9.53257,"ele":306},{"name":"Wahrberg","lat":51.65125,"lon":10.38002,"ele":306},{"name":"Burgberg","lat":51.78699,"lon":9.69983,"ele":306},{"name":"Hohe Steyer","lat":51.62575,"lon":9.97485,"ele":306},{"name":"Hottenberg","lat":51.83549,"lon":10.18086,"ele":305},{"name":"Gehrenroder Berg","lat":51.93958,"lon":10.0355,"ele":305},{"name":"Kleiner Kuhlenberg","lat":51.66084,"lon":9.50218,"ele":305},{"name":"Ickelsberg","lat":51.36182,"lon":9.58371,"ele":304},{"name":"Friedberg","lat":51.87367,"lon":9.5031,"ele":304},{"name":"Heinebuchen-Berg","lat":51.86575,"lon":9.39068,"ele":304},{"name":"Bauernhai","lat":51.83662,"lon":10.14328,"ele":304},{"name":"Kellerberg","lat":51.41992,"lon":9.82802,"ele":304},{"name":"Papenbrink","lat":52.22039,"lon":9.04897,"ele":303},{"name":"Papenberg","lat":51.6479,"lon":10.35965,"ele":303},{"name":"Steinberg","lat":51.95239,"lon":9.80787,"ele":303},{"name":"Lindenberg","lat":51.60027,"lon":9.80273,"ele":303},{"name":"West-Kandel","lat":51.86316,"lon":9.43284,"ele":303},{"name":"Tönneckenkopf","lat":51.89512,"lon":10.51093,"ele":303},{"name":"Schreckenberg","lat":51.96859,"lon":10.21666,"ele":303},{"name":"Querberg","lat":51.98219,"lon":10.43469,"ele":303},{"name":"Henneken-Berg","lat":51.68676,"lon":9.65721,"ele":303},{"name":"Großer Karl","lat":52.2849,"lon":9.26695,"ele":302},{"name":"Kleiner Tafelberg","lat":52.22653,"lon":10.73584,"ele":302},{"name":"Weinberg","lat":51.90891,"lon":9.56945,"ele":302},{"name":"Herkenberg","lat":52.14955,"lon":9.17046,"ele":301},{"name":"Kiefelhorn","lat":52.2118,"lon":10.7798,"ele":301},{"name":"Kirchberg","lat":51.91697,"lon":9.5492,"ele":301},{"name":"Heineberg","lat":51.42313,"lon":9.83593,"ele":301},{"name":"Grubenberg","lat":51.98145,"lon":10.196,"ele":301},{"name":"Luhdener Klippe","lat":52.21366,"lon":9.09353,"ele":300},{"name":"Taubenberg","lat":52.15501,"lon":9.13677,"ele":300},{"name":"Butterberg","lat":51.7325,"lon":10.26944,"ele":300},{"name":"Schulberg","lat":51.63166,"lon":10.38252,"ele":300},{"name":"Holenberg","lat":51.83145,"lon":10.15045,"ele":300},{"name":"Kolieberg","lat":51.55357,"lon":10.07466,"ele":300},{"name":"Blockholzer Berg","lat":51.66056,"lon":9.47325,"ele":300},{"name":"Ziegenberg","lat":51.83245,"lon":10.20437,"ele":299},{"name":"Krieberg","lat":51.78668,"lon":9.9609,"ele":299},{"name":"Menteberg","lat":51.989,"lon":9.85781,"ele":299},{"name":"Kalter Buschkopf","lat":52.03292,"lon":10.22183,"ele":299},{"name":"Birklasberg","lat":51.56564,"lon":10.63113,"ele":299},{"name":"Bockensberg","lat":51.87923,"lon":9.65081,"ele":298},{"name":"Wausterberg","lat":51.86438,"lon":10.11494,"ele":298},{"name":"Großer Sandberg","lat":51.66249,"lon":10.0179,"ele":298},{"name":"Langenberg","lat":51.53109,"lon":10.08188,"ele":297},{"name":"Böllenberg","lat":51.71697,"lon":9.90536,"ele":297},{"name":"Langenberg","lat":51.89927,"lon":10.52344,"ele":297},{"name":"Papierberg","lat":51.56218,"lon":10.08445,"ele":297},{"name":"Kuckucksberg","lat":51.9628,"lon":10.46077,"ele":297},{"name":"Wehberg","lat":51.62811,"lon":10.06792,"ele":297},{"name":"Großer Tafelberg","lat":52.22535,"lon":10.74681,"ele":296},{"name":"Westendorfer Egge","lat":52.21303,"lon":9.16286,"ele":296},{"name":"Stollen","lat":51.42696,"lon":9.83864,"ele":296},{"name":"Wahrenberg","lat":51.99606,"lon":10.30434,"ele":296},{"name":"Kreuzberg","lat":51.55958,"lon":10.56757,"ele":296},{"name":"Schlahköpfe","lat":52.02343,"lon":10.23081,"ele":295},{"name":"Brunshäuser Berg","lat":51.95652,"lon":10.04864,"ele":294},{"name":"Kleeblatt","lat":51.55036,"lon":10.33833,"ele":294},{"name":"Turmberg","lat":52.0756,"lon":10.06474,"ele":293},{"name":"Kneppelberg","lat":51.73802,"lon":10.12237,"ele":293},{"name":"Sommerberg","lat":51.54686,"lon":9.84459,"ele":293},{"name":"Königsberg","lat":51.97132,"lon":10.4615,"ele":293},{"name":"Kesselköpfe","lat":51.99378,"lon":10.31131,"ele":293},{"name":"Knickelberg","lat":51.64129,"lon":10.36873,"ele":292},{"name":"Sandkopf","lat":52.24853,"lon":9.53558,"ele":292},{"name":"Hohe Stolle","lat":52.00388,"lon":9.366,"ele":292},{"name":"Mittelberg","lat":52.19316,"lon":9.27578,"ele":291},{"name":"Volperberg","lat":51.65761,"lon":9.74344,"ele":291},{"name":"Meseburg","lat":51.96663,"lon":10.47217,"ele":291},{"name":"Pagenberg","lat":52.00726,"lon":10.29496,"ele":290},{"name":"Kleiner Knüll","lat":51.47526,"lon":9.99517,"ele":290},{"name":"Eulenberg","lat":51.65753,"lon":9.99955,"ele":290},{"name":"Hagenberg","lat":51.9731,"lon":9.41718,"ele":290},{"name":"Mattenberg","lat":51.33186,"lon":9.64465,"ele":290},{"name":"Störtelberg","lat":51.72625,"lon":9.7807,"ele":290},{"name":"Hengstberg","lat":52.14419,"lon":9.14986,"ele":289},{"name":"Hasseberg","lat":51.88474,"lon":10.18841,"ele":289},{"name":"Bohnenberg","lat":51.97041,"lon":10.45854,"ele":289},{"name":"Heber","lat":51.88212,"lon":10.1025,"ele":289},{"name":"Totenkopf","lat":51.8955,"lon":10.10036,"ele":289},{"name":"Frankenberg","lat":51.9925,"lon":10.41638,"ele":289},{"name":"Kreuzberg bei Branderode","lat":51.57137,"lon":10.59404,"ele":289},{"name":"Breitenberg","lat":51.98481,"lon":10.42444,"ele":289},{"name":"Hasselburg","lat":52.06234,"lon":9.47417,"ele":289},{"name":"Bocksberg","lat":51.95658,"lon":9.76634,"ele":288},{"name":"Kienenkopf","lat":51.90649,"lon":9.65681,"ele":288},{"name":"Kuhberg","lat":51.5706,"lon":9.8499,"ele":288},{"name":"Rodenberg","lat":51.838,"lon":10.13227,"ele":288},{"name":"Barley","lat":51.98267,"lon":10.42637,"ele":288},{"name":"Hasseln","lat":52.16932,"lon":9.36352,"ele":287},{"name":"Gladeberg","lat":51.6452,"lon":9.83583,"ele":287},{"name":"Ahrensberg","lat":51.9175,"lon":9.38193,"ele":287},{"name":"Langenberg","lat":51.98902,"lon":10.42088,"ele":287},{"name":"Haryberg","lat":51.98384,"lon":10.06547,"ele":287},{"name":"Escheberg","lat":51.61399,"lon":9.81487,"ele":286},{"name":"Euzenberg","lat":51.50502,"lon":10.21692,"ele":286},{"name":"Papenberg","lat":51.6859,"lon":9.49078,"ele":286},{"name":"Bohrberg","lat":52.1447,"lon":9.17847,"ele":286},{"name":"Clausberg","lat":51.94602,"lon":10.02635,"ele":286},{"name":"Obensburg","lat":52.08111,"lon":9.44357,"ele":286},{"name":"Langerkopf","lat":52.13983,"lon":9.83215,"ele":286},{"name":"Fuchsberg","lat":51.4033,"lon":9.77133,"ele":286},{"name":"Ecksberg","lat":51.43294,"lon":9.84157,"ele":286},{"name":"Thilekenberg","lat":51.65553,"lon":9.75525,"ele":285},{"name":"Hirtenbusch","lat":51.63609,"lon":9.80395,"ele":285},{"name":"Bauernberg","lat":51.71584,"lon":10.18169,"ele":285},{"name":"Ochsenberg","lat":51.6489,"lon":10.29336,"ele":285},{"name":"Raher Berg","lat":52.19245,"lon":9.54814,"ele":285},{"name":"Luenberg","lat":51.92178,"lon":10.07086,"ele":285},{"name":"Ortberg","lat":51.66025,"lon":9.69364,"ele":285},{"name":"Geroldsklippe","lat":52.015,"lon":10.21397,"ele":284},{"name":"Ascher Egge","lat":52.12695,"lon":8.23824,"ele":284},{"name":"Glockenberg","lat":51.97877,"lon":10.42999,"ele":284},{"name":"Riesberg","lat":51.98626,"lon":10.05602,"ele":284},{"name":"Spielberg","lat":51.91618,"lon":9.50126,"ele":283},{"name":"Haspelberg","lat":51.54682,"lon":10.06766,"ele":283},{"name":"Pfeffersberg","lat":51.91864,"lon":9.62879,"ele":283},{"name":"Thörenberg","lat":51.84422,"lon":10.15943,"ele":283},{"name":"Steinberg","lat":52.01612,"lon":10.21443,"ele":283},{"name":"Schneeberg","lat":51.98376,"lon":10.44533,"ele":283},{"name":"Mühlenberg","lat":51.52299,"lon":9.69734,"ele":283},{"name":"Welfenhöhe","lat":52.0658,"lon":9.99186,"ele":282},{"name":"Sonnenberg","lat":52.10586,"lon":9.89262,"ele":282},{"name":"Hopfenberg","lat":51.35616,"lon":9.57078,"ele":282},{"name":"Drammberg","lat":51.44695,"lon":9.88079,"ele":282},{"name":"Hoherodt","lat":51.94059,"lon":10.17508,"ele":282},{"name":"Tettelwarte","lat":51.53546,"lon":10.286,"ele":282},{"name":"Kranzberg","lat":51.97131,"lon":10.20412,"ele":282},{"name":"Weinberg","lat":51.65271,"lon":10.31962,"ele":281},{"name":"Glockenberg","lat":51.60515,"lon":10.02748,"ele":281},{"name":"Tastberg","lat":51.9755,"lon":10.45379,"ele":281},{"name":"Reesberg","lat":52.04394,"lon":10.06707,"ele":281},{"name":"Schweineberg","lat":52.13608,"lon":9.39886,"ele":280},{"name":"Mittelberg","lat":51.71911,"lon":10.12785,"ele":280},{"name":"Himckeburg","lat":51.92621,"lon":9.53096,"ele":280},{"name":"Herberberg","lat":51.95686,"lon":10.01899,"ele":280},{"name":"Kleiner Eichsberg","lat":51.94461,"lon":10.19245,"ele":280},{"name":"Fuchsberg","lat":51.51107,"lon":10.16252,"ele":280},{"name":"Breitenberg","lat":52.08098,"lon":10.06777,"ele":280},{"name":"Tremberg","lat":51.39529,"lon":9.79881,"ele":280},{"name":"Helleberg","lat":51.97322,"lon":9.77096,"ele":279},{"name":"Hopfenberg","lat":51.96867,"lon":10.00651,"ele":279},{"name":"Ahne-Berg","lat":51.66846,"lon":9.53283,"ele":279},{"name":"Pferdeberg","lat":51.48874,"lon":10.24338,"ele":279},{"name":"Försterberg","lat":51.95837,"lon":10.4467,"ele":279},{"name":"Eichenburg","lat":51.62558,"lon":9.95754,"ele":278},{"name":"Kampberg","lat":52.23967,"lon":10.7506,"ele":278},{"name":"Faßberg","lat":51.55963,"lon":9.96412,"ele":277},{"name":"Schmautberg","lat":51.94093,"lon":9.48622,"ele":277},{"name":"Schwalenberg","lat":51.85804,"lon":10.11432,"ele":277},{"name":"Ahornberg","lat":52.05355,"lon":9.20104,"ele":277},{"name":"Großer Schildberg","lat":51.90502,"lon":10.16676,"ele":276},{"name":"Hillenkopf","lat":51.94608,"lon":10.2026,"ele":276},{"name":"Wehdeberg","lat":52.14261,"lon":8.18223,"ele":275},{"name":"Birkholz","lat":51.95168,"lon":9.77635,"ele":275},{"name":"Hamberg","lat":52.06349,"lon":10.35744,"ele":275},{"name":"Schlossberg","lat":51.65571,"lon":10.33098,"ele":275},{"name":"Spielmannshöhe","lat":51.89629,"lon":10.1938,"ele":275},{"name":"Bünteberg","lat":51.97011,"lon":10.46515,"ele":275},{"name":"Hanneken","lat":51.77289,"lon":9.98193,"ele":275},{"name":"Radberg","lat":51.97281,"lon":10.28863,"ele":275},{"name":"Hennigsberg","lat":52.04012,"lon":10.21859,"ele":275},{"name":"Hinscheburg","lat":51.66172,"lon":9.82197,"ele":274},{"name":"Äbtissinberg","lat":51.84484,"lon":10.05606,"ele":274},{"name":"Kirchberg","lat":51.68441,"lon":9.47583,"ele":274},{"name":"Pferdeberg","lat":51.39514,"lon":9.96575,"ele":274},{"name":"Rodenberg","lat":51.88063,"lon":10.54945,"ele":274},{"name":"Kramberg","lat":51.41631,"lon":9.70432,"ele":274},{"name":"Bönneckerkopf","lat":52.02656,"lon":10.22614,"ele":274},{"name":"Steinberg","lat":52.24453,"lon":9.48542,"ele":273},{"name":"Horpke","lat":51.87997,"lon":10.18138,"ele":273},{"name":"Bodenknüll","lat":51.62953,"lon":9.83774,"ele":272},{"name":"Hottenberg","lat":51.63613,"lon":10.3569,"ele":272},{"name":"Kugelberg","lat":51.95372,"lon":9.45217,"ele":272},{"name":"Toter Mann","lat":51.96645,"lon":10.06081,"ele":272},{"name":"Spillenberg","lat":51.83605,"lon":9.92458,"ele":272},{"name":"Hohe Stolle","lat":52.09245,"lon":9.43672,"ele":272},{"name":"Moosberg","lat":51.66972,"lon":9.51223,"ele":272},{"name":"Graster Söhrberg","lat":51.96641,"lon":10.00414,"ele":271},{"name":"Harzhorn","lat":51.83272,"lon":10.10523,"ele":271},{"name":"Wieterberg","lat":51.70044,"lon":10.01539,"ele":271},{"name":"Eichhagen","lat":51.65148,"lon":9.64058,"ele":271},{"name":"Pagenberg","lat":51.76055,"lon":10.19909,"ele":270},{"name":"Grosser Kuhhirtsberg","lat":51.56149,"lon":10.26864,"ele":270},{"name":"Kleiner Schildberg","lat":51.90276,"lon":10.17213,"ele":270},{"name":"Bulk","lat":51.89677,"lon":10.19123,"ele":270},{"name":"Lünberg","lat":51.92446,"lon":10.0567,"ele":270},{"name":"Hachumer Berg","lat":51.97961,"lon":10.07662,"ele":270},{"name":"Edesheimer Berg","lat":51.75698,"lon":10.00171,"ele":270},{"name":"Großer Freeden","lat":52.15893,"lon":8.09066,"ele":269},{"name":"Steinberg","lat":51.73274,"lon":9.82152,"ele":269},{"name":"Kruckberg","lat":51.99417,"lon":9.53257,"ele":269},{"name":"Thomasberg","lat":51.49063,"lon":10.28781,"ele":269},{"name":"Osterberg","lat":51.58902,"lon":9.82015,"ele":268},{"name":"Kölkerberg","lat":51.96128,"lon":9.4314,"ele":268},{"name":"Horn","lat":51.89563,"lon":10.55505,"ele":268},{"name":"Weißenstein","lat":51.89198,"lon":10.53693,"ele":268},{"name":"Bierberg","lat":51.77533,"lon":10.03732,"ele":268},{"name":"Eichbühl","lat":51.40919,"lon":9.75184,"ele":268},{"name":"Osterodenberg","lat":51.94762,"lon":9.43587,"ele":267},{"name":"Schmiedeberg","lat":51.54258,"lon":10.1149,"ele":267},{"name":"Heiliger Berg","lat":51.9852,"lon":10.30056,"ele":267},{"name":"Steinegge","lat":52.1282,"lon":8.22304,"ele":266},{"name":"Galgenberg","lat":51.65071,"lon":9.84364,"ele":266},{"name":"Schanze","lat":51.87574,"lon":10.04967,"ele":266},{"name":"Feldberg","lat":52.0728,"lon":10.0757,"ele":266},{"name":"Hohe Hagen","lat":51.94808,"lon":10.06503,"ele":266},{"name":"Saalberg","lat":52.0206,"lon":9.20742,"ele":266},{"name":"Drögenberg","lat":51.96245,"lon":10.15486,"ele":266},{"name":"Südlicher Jägerturmskopf","lat":52.04543,"lon":10.2166,"ele":266},{"name":"Hax-Berg","lat":51.63986,"lon":10.3498,"ele":266},{"name":"Rosenberg","lat":51.99095,"lon":9.99565,"ele":266},{"name":"Ebersberg","lat":52.04721,"lon":10.06309,"ele":266},{"name":"Westerberg","lat":51.54097,"lon":10.12748,"ele":265},{"name":"Abtissinberg","lat":51.87388,"lon":10.05942,"ele":265},{"name":"Giersberg","lat":51.90416,"lon":9.38108,"ele":264},{"name":"Hochholz","lat":52.18037,"lon":8.06866,"ele":264},{"name":"Heuberg","lat":51.94339,"lon":10.16537,"ele":264},{"name":"Dahlenberg","lat":52.08316,"lon":10.34739,"ele":263},{"name":"Ölkampenberg","lat":51.95308,"lon":9.43664,"ele":263},{"name":"Altendorfer Berg","lat":51.8202,"lon":9.90925,"ele":263},{"name":"Knickeln Berg","lat":52.07935,"lon":10.34926,"ele":263},{"name":"Hohlenberg","lat":52.00842,"lon":10.22972,"ele":263},{"name":"Ritterkopf","lat":52.00651,"lon":10.31644,"ele":263},{"name":"Bockshornberg","lat":52.23676,"lon":10.79231,"ele":263},{"name":"Vogelsburg","lat":51.79112,"lon":9.94852,"ele":262},{"name":"Hohnangel","lat":52.14411,"lon":8.17521,"ele":262},{"name":"Der Berg","lat":51.57553,"lon":9.86542,"ele":262},{"name":"Lichtenstein","lat":51.72117,"lon":10.17605,"ele":261},{"name":"Ahls-Berg","lat":51.87,"lon":9.44663,"ele":261},{"name":"Schiffberg","lat":51.96647,"lon":9.47556,"ele":261},{"name":"Birkenberg","lat":51.96145,"lon":10.07351,"ele":261},{"name":"Scharenberg","lat":51.89468,"lon":10.53827,"ele":261},{"name":"Wildemeersberg","lat":51.96229,"lon":10.3007,"ele":261},{"name":"Osterberg","lat":52.17981,"lon":9.33862,"ele":260},{"name":"Eichelberg","lat":51.6698,"lon":9.82073,"ele":260},{"name":"Sonnenberg","lat":51.79121,"lon":9.98551,"ele":260},{"name":"Hainberg","lat":51.80996,"lon":9.97414,"ele":260},{"name":"Söhrberg","lat":51.96598,"lon":10.03189,"ele":260},{"name":"Kleiner Sandberg","lat":51.6688,"lon":10.017,"ele":260},{"name":"Maiberg","lat":51.61734,"lon":9.95194,"ele":260},{"name":"Schellenberg","lat":52.08616,"lon":10.35382,"ele":260},{"name":"Dahlumer Knick","lat":51.97689,"lon":10.09033,"ele":260},{"name":"Sofaklippe","lat":52.00911,"lon":10.21385,"ele":259},{"name":"Ziegenberg","lat":51.54731,"lon":10.36788,"ele":259},{"name":"Klüt","lat":52.09532,"lon":9.33802,"ele":258},{"name":"Netteberg","lat":51.86222,"lon":10.18648,"ele":258},{"name":"Großer Panshäuser Berg","lat":51.93923,"lon":10.07108,"ele":258},{"name":"Wohlenstein","lat":51.89537,"lon":10.11575,"ele":258},{"name":"Köppelmannsberg","lat":52.03035,"lon":10.39364,"ele":258},{"name":"Salzberg","lat":52.06211,"lon":10.02728,"ele":257},{"name":"Escherberg","lat":52.11607,"lon":9.87361,"ele":257},{"name":"Schmetzer-Berg","lat":51.87641,"lon":9.35414,"ele":257},{"name":"Echternberg","lat":51.94274,"lon":9.46323,"ele":257},{"name":"Ziegenberg","lat":52.05219,"lon":10.01897,"ele":257},{"name":"Spannbrink","lat":52.15821,"lon":8.12861,"ele":257},{"name":"Zauberberg","lat":51.89432,"lon":10.55123,"ele":257},{"name":"Vorkopf","lat":52.03161,"lon":9.3349,"ele":257},{"name":"Musenberg","lat":52.18109,"lon":8.09188,"ele":256},{"name":"Einzelberg","lat":51.4302,"lon":9.93349,"ele":256},{"name":"Buchberg","lat":52.06083,"lon":10.10801,"ele":256},{"name":"Rollshagen","lat":51.5373,"lon":10.29622,"ele":256},{"name":"Grotenberg","lat":51.98939,"lon":10.44039,"ele":256},{"name":"Weidenberg","lat":51.55746,"lon":10.09345,"ele":254},{"name":"Jägerberg","lat":51.46488,"lon":9.89981,"ele":254},{"name":"Timmer Egge","lat":52.1363,"lon":8.1876,"ele":254},{"name":"Kliebenkopf","lat":52.01388,"lon":10.23359,"ele":254},{"name":"Hellberg","lat":51.57383,"lon":10.247,"ele":253},{"name":"Mühlenkopf","lat":51.35761,"lon":9.56092,"ele":253},{"name":"Lotberg","lat":51.99964,"lon":9.98398,"ele":253},{"name":"Nußberg","lat":51.99755,"lon":9.98209,"ele":253},{"name":"Sömmerling","lat":51.64039,"lon":9.67164,"ele":252},{"name":"Schollegge","lat":52.12951,"lon":8.21219,"ele":252},{"name":"Wahrberg","lat":51.67733,"lon":9.93824,"ele":252},{"name":"Solhopberg","lat":51.91081,"lon":10.20528,"ele":252},{"name":"Laubberg","lat":52.00527,"lon":10.23735,"ele":252},{"name":"Hägerberg","lat":51.54874,"lon":10.31,"ele":252},{"name":"Rethoberg","lat":51.73373,"lon":10.03022,"ele":252},{"name":"Sülier","lat":51.67867,"lon":10.05535,"ele":251},{"name":"Harly","lat":51.96391,"lon":10.55331,"ele":251},{"name":"Hirschkuppe","lat":52.21434,"lon":9.10814,"ele":250},{"name":"Westerberg","lat":52.18391,"lon":9.32192,"ele":250},{"name":"Sohnrey-Höhe","lat":51.6535,"lon":9.45213,"ele":250},{"name":"Clusberg","lat":51.88063,"lon":10.00864,"ele":250},{"name":"Hasselberg","lat":52.2491,"lon":9.43558,"ele":250},{"name":"Sonnenberg","lat":51.68027,"lon":10.15474,"ele":250},{"name":"Ortberg","lat":51.807,"lon":9.99724,"ele":250},{"name":"Burgberg","lat":51.63439,"lon":9.95445,"ele":250},{"name":"Kalkröse","lat":51.90351,"lon":10.49805,"ele":250},{"name":"Klingsberg","lat":51.56378,"lon":10.10904,"ele":250},{"name":"Eckartsberg","lat":51.99096,"lon":10.03724,"ele":250},{"name":"Eichberg","lat":52.0446,"lon":9.32658,"ele":249},{"name":"Hopfenberg","lat":51.60645,"lon":9.79118,"ele":248},{"name":"Hopfenberg","lat":51.61114,"lon":9.79414,"ele":248},{"name":"Flutberg","lat":51.55146,"lon":10.26129,"ele":248},{"name":"Sprenkelberg","lat":52.24624,"lon":9.46987,"ele":248},{"name":"Hoop","lat":51.89094,"lon":9.61681,"ele":248},{"name":"Dutberg","lat":51.67575,"lon":10.14433,"ele":248},{"name":"Kleiner Scharfenberg","lat":52.01886,"lon":9.35858,"ele":248},{"name":"Piepenberg","lat":51.64107,"lon":9.97516,"ele":248},{"name":"Kleiner Panshäuser Berg","lat":51.93714,"lon":10.07858,"ele":247},{"name":"Büsseberg","lat":51.99463,"lon":9.31054,"ele":247},{"name":"Riepen","lat":52.08225,"lon":9.31637,"ele":246},{"name":"Papenberg","lat":51.57653,"lon":10.10887,"ele":246},{"name":"Hüttenberg","lat":51.90108,"lon":10.49486,"ele":246},{"name":"Heseberg","lat":51.64247,"lon":9.9849,"ele":246},{"name":"Kümmerbrink","lat":51.92331,"lon":10.39486,"ele":246},{"name":"Klusberg","lat":52.0525,"lon":9.98925,"ele":245},{"name":"Schweineberg","lat":51.59311,"lon":9.9491,"ele":245},{"name":"Baumannsknollen","lat":52.19405,"lon":8.01819,"ele":245},{"name":"Gretjenbrink","lat":52.05763,"lon":9.4704,"ele":245},{"name":"Asberg","lat":52.13811,"lon":8.1906,"ele":244},{"name":"Weißer Stein","lat":52.05338,"lon":10.03214,"ele":244},{"name":"Weinberg","lat":51.60634,"lon":9.8489,"ele":244},{"name":"Reißel","lat":51.97388,"lon":9.87647,"ele":244},{"name":"Hohe Leuchte","lat":51.67979,"lon":10.06705,"ele":244},{"name":"Sahlbrink","lat":52.13498,"lon":8.2224,"ele":244},{"name":"Steinbrink","lat":51.87238,"lon":10.07244,"ele":244},{"name":"Schlackenhalde","lat":51.91179,"lon":10.49116,"ele":244},{"name":"Nördlicher Jägerturmskopf","lat":52.05182,"lon":10.216,"ele":244},{"name":"Lerchenberg","lat":52.13292,"lon":9.90074,"ele":243},{"name":"Reremberg","lat":52.18945,"lon":8.05089,"ele":243},{"name":"Knebelberg","lat":52.1283,"lon":10.02864,"ele":243},{"name":"Großer Apenberg","lat":51.9081,"lon":9.54962,"ele":243},{"name":"Sieben Köpfe","lat":52.1048,"lon":10.31725,"ele":243},{"name":"Uchtelberg","lat":51.98662,"lon":9.35149,"ele":243},{"name":"Borgloher Egge","lat":52.15541,"lon":8.18536,"ele":242},{"name":"Höherberg","lat":51.60002,"lon":10.15488,"ele":242},{"name":"Knapp","lat":51.88723,"lon":9.47128,"ele":242},{"name":"Brunshagen","lat":51.91507,"lon":9.52073,"ele":242},{"name":"Hohnsberg","lat":52.1642,"lon":8.10134,"ele":242},{"name":"Heimberg","lat":51.95976,"lon":10.4692,"ele":242},{"name":"Birkenberg","lat":51.95031,"lon":10.17817,"ele":242},{"name":"Königsberg","lat":52.08106,"lon":10.36658,"ele":242},{"name":"Laubberg","lat":52.03012,"lon":10.39959,"ele":242},{"name":"Glaseberg","lat":51.66267,"lon":9.52208,"ele":242},{"name":"Büchenberg","lat":51.70747,"lon":10.11734,"ele":241},{"name":"Drachenberg","lat":51.5018,"lon":9.96828,"ele":241},{"name":"Pinnekenberg","lat":51.59165,"lon":10.24029,"ele":241},{"name":"Burgberg","lat":52.12163,"lon":10.28824,"ele":241},{"name":"Siebiegsberg","lat":51.49692,"lon":10.27904,"ele":241},{"name":"Holzberg","lat":51.86689,"lon":10.08645,"ele":241},{"name":"Adlershorst","lat":52.11199,"lon":10.32768,"ele":240},{"name":"Franzosenkopf","lat":52.13816,"lon":9.36332,"ele":240},{"name":"Sohlberg","lat":51.81705,"lon":9.97323,"ele":240},{"name":"Westerberg","lat":52.01479,"lon":10.27248,"ele":240},{"name":"Hannenberg","lat":51.64625,"lon":9.98522,"ele":240},{"name":"Treppenberg","lat":51.96269,"lon":10.16289,"ele":240},{"name":"Stadtberg","lat":51.51675,"lon":10.28488,"ele":240},{"name":"Großer Rodenberg","lat":51.95206,"lon":10.29624,"ele":240},{"name":"Hülsberg","lat":52.15523,"lon":8.17236,"ele":239},{"name":"Kleiner Idtberg","lat":51.93095,"lon":9.76879,"ele":239},{"name":"Meineberg","lat":51.97549,"lon":10.09667,"ele":239},{"name":"Äpeltern","lat":51.9023,"lon":9.48896,"ele":239},{"name":"Papenberg","lat":51.99861,"lon":10.42955,"ele":239},{"name":"Mühlenberg","lat":51.53296,"lon":10.10726,"ele":238},{"name":"Sonnenberg","lat":51.88734,"lon":10.15258,"ele":238},{"name":"Döhrenberg","lat":52.02532,"lon":10.40071,"ele":238},{"name":"Herzberg","lat":52.10638,"lon":10.33745,"ele":238},{"name":"Bornberg","lat":51.59077,"lon":10.31646,"ele":238},{"name":"Tappenberg","lat":52.04771,"lon":9.51049,"ele":238},{"name":"Klosterberg","lat":51.74513,"lon":9.99742,"ele":238},{"name":"Westberg","lat":51.60307,"lon":9.84048,"ele":237},{"name":"Roter Berg","lat":51.97376,"lon":10.30033,"ele":237},{"name":"Rohenberg","lat":52.02062,"lon":10.40522,"ele":237},{"name":"Evensbrink","lat":52.15327,"lon":8.16254,"ele":236},{"name":"Kapenberg","lat":51.88946,"lon":9.46174,"ele":236},{"name":"Ruhberg","lat":51.98424,"lon":9.426,"ele":236},{"name":"Radauberg","lat":51.89699,"lon":10.55003,"ele":236},{"name":"Ellbrink","lat":52.14736,"lon":8.16468,"ele":236},{"name":"Vorberg","lat":52.01405,"lon":10.29631,"ele":235},{"name":"Sothenberg","lat":52.06222,"lon":10.01473,"ele":235},{"name":"Osterklippe","lat":52.00186,"lon":10.21151,"ele":235},{"name":"Bauersberg","lat":52.08659,"lon":10.36054,"ele":235},{"name":"Hesterbrink","lat":52.25767,"lon":8.3369,"ele":234},{"name":"Windmühlenberg","lat":51.9382,"lon":10.45388,"ele":234},{"name":"Sauberg","lat":51.91767,"lon":9.53265,"ele":234},{"name":"Remlinger Herse","lat":52.1316,"lon":10.65586,"ele":234},{"name":"Laubberg","lat":52.06458,"lon":10.36325,"ele":234},{"name":"Großer Vorberg","lat":52.06297,"lon":10.34985,"ele":233},{"name":"Eilsberg","lat":51.90704,"lon":9.38895,"ele":233},{"name":"Totenberg","lat":52.0016,"lon":10.01824,"ele":233},{"name":"Baumgartenberg","lat":52.19744,"lon":9.25893,"ele":232},{"name":"Großer Eselsberg","lat":51.90348,"lon":9.37378,"ele":232},{"name":"Stobenberg","lat":52.01144,"lon":10.42503,"ele":232},{"name":"Festberg","lat":52.13566,"lon":10.67027,"ele":232},{"name":"Kappenberg","lat":51.93506,"lon":9.61878,"ele":232},{"name":"Osterberg","lat":51.51154,"lon":10.19487,"ele":232},{"name":"Rupenklint","lat":51.91059,"lon":10.50927,"ele":231},{"name":"Nesselberg","lat":52.20102,"lon":9.20178,"ele":230},{"name":"Katzberg","lat":52.18191,"lon":9.50079,"ele":230},{"name":"Diemardener Berg","lat":51.48829,"lon":9.96273,"ele":230},{"name":"Gustedter Berg","lat":52.10906,"lon":10.30206,"ele":230},{"name":"Eichenberg","lat":52.01815,"lon":10.18793,"ele":230},{"name":"Aßberg","lat":51.76812,"lon":10.01532,"ele":230},{"name":"Oberer Hellberg","lat":52.0479,"lon":9.44749,"ele":230},{"name":"Asseburgberg","lat":52.13909,"lon":10.6366,"ele":228},{"name":"Röseberg","lat":51.8498,"lon":10.16994,"ele":228},{"name":"Kleiner Vorberg","lat":52.06587,"lon":10.34534,"ele":228},{"name":"Barenberg","lat":52.11554,"lon":10.14614,"ele":227},{"name":"Hopfenberg","lat":51.96214,"lon":9.49762,"ele":227},{"name":"Lohberg","lat":51.5955,"lon":10.23205,"ele":227},{"name":"Lewer Berg","lat":52.02956,"lon":10.41561,"ele":227},{"name":"Großer Berg","lat":51.62529,"lon":10.13742,"ele":227},{"name":"Vorberg","lat":52.07651,"lon":10.3372,"ele":226},{"name":"Heidelbeerenberg","lat":52.13558,"lon":10.10803,"ele":226},{"name":"Stuckenberg","lat":52.08705,"lon":9.92807,"ele":226},{"name":"Rott","lat":51.79671,"lon":9.97563,"ele":226},{"name":"Hohe Warte","lat":52.11425,"lon":10.25742,"ele":226},{"name":"Schäferstuhl","lat":52.02732,"lon":10.37576,"ele":226},{"name":"Röhrberg","lat":52.1407,"lon":10.64681,"ele":225},{"name":"Elber Berg","lat":52.10399,"lon":10.2766,"ele":225},{"name":"Heberg","lat":51.95869,"lon":10.09009,"ele":225},{"name":"Kahlberg","lat":51.64131,"lon":9.53447,"ele":225},{"name":"Papenberg","lat":52.02954,"lon":10.18272,"ele":225},{"name":"Langenberg","lat":52.0505,"lon":10.15885,"ele":225},{"name":"Brunstedter Berg","lat":52.12076,"lon":10.27748,"ele":225},{"name":"Wienser Berg","lat":51.64054,"lon":9.62574,"ele":225},{"name":"Borgberg","lat":52.18275,"lon":7.96384,"ele":224},{"name":"Tönniesberg","lat":51.98187,"lon":9.55552,"ele":224},{"name":"Pfingstberg","lat":51.50189,"lon":10.20248,"ele":224},{"name":"Nauer Berg","lat":51.97905,"lon":10.22581,"ele":224},{"name":"Spitzer Hai","lat":52.06261,"lon":10.20765,"ele":224},{"name":"Hillenberg","lat":52.02412,"lon":10.18704,"ele":224},{"name":"Hirschberg","lat":51.99574,"lon":10.41232,"ele":224},{"name":"Mühlenberg","lat":51.56257,"lon":10.09555,"ele":224},{"name":"Finkenberg","lat":52.1436,"lon":9.8986,"ele":223},{"name":"Watzeberg","lat":52.13548,"lon":10.66213,"ele":223},{"name":"Rotenberg","lat":51.87341,"lon":10.17521,"ele":223},{"name":"Weinberg","lat":51.94867,"lon":10.44849,"ele":223},{"name":"Rohrberg","lat":51.95277,"lon":10.16455,"ele":223},{"name":"Lüningsberg","lat":52.0605,"lon":9.21509,"ele":223},{"name":"Troppberg","lat":52.08268,"lon":10.33464,"ele":223},{"name":"Kruxberg","lat":52.11998,"lon":10.28461,"ele":223},{"name":"Aschenburg","lat":51.59536,"lon":9.84285,"ele":222},{"name":"Oyershäuser Berg","lat":51.84169,"lon":10.00311,"ele":222},{"name":"Trockenberg","lat":51.93181,"lon":10.16919,"ele":222},{"name":"Feuerknäul","lat":52.14467,"lon":9.89684,"ele":222},{"name":"Heinemannshöhe","lat":52.05285,"lon":10.35128,"ele":222},{"name":"Sultmer Berg","lat":51.72839,"lon":9.99063,"ele":222},{"name":"Wenser Berg","lat":52.12319,"lon":10.07613,"ele":222},{"name":"Hüggel","lat":52.22026,"lon":7.97547,"ele":221},{"name":"Weinberg","lat":51.92949,"lon":9.52067,"ele":221},{"name":"Sandberg","lat":51.97332,"lon":10.04284,"ele":221},{"name":"Sauberg","lat":51.99587,"lon":10.01042,"ele":221},{"name":"Meller Berg","lat":52.23276,"lon":8.35223,"ele":220},{"name":"Rottsberg","lat":52.13854,"lon":9.9039,"ele":220},{"name":"Holzhauser Berg","lat":52.25313,"lon":8.3514,"ele":220},{"name":"Kalkrosenberg","lat":52.11976,"lon":10.29369,"ele":220},{"name":"Beutling","lat":52.14602,"lon":8.26698,"ele":220},{"name":"Questenberg","lat":51.4242,"lon":9.65099,"ele":220},{"name":"Graupenburg","lat":51.88681,"lon":9.48165,"ele":220},{"name":"Hinterer Eichberg","lat":52.14277,"lon":10.64116,"ele":220},{"name":"Rothenberg","lat":52.13862,"lon":10.6525,"ele":220},{"name":"Finkenberg","lat":52.00097,"lon":10.2934,"ele":220},{"name":"Bardinghaussundern","lat":52.19222,"lon":8.03401,"ele":219},{"name":"Hallermundskopf","lat":52.18378,"lon":9.57185,"ele":219},{"name":"Heimchenkamp","lat":51.93154,"lon":10.07959,"ele":219},{"name":"Knül","lat":51.85953,"lon":10.12774,"ele":219},{"name":"Lindenberg","lat":52.12553,"lon":10.26907,"ele":219},{"name":"Oldendorfer Berg","lat":52.24982,"lon":8.3173,"ele":219},{"name":"Ziegenberg","lat":52.0894,"lon":9.92271,"ele":218},{"name":"Weinberg","lat":52.04714,"lon":10.08555,"ele":218},{"name":"Tuchtberg","lat":51.9578,"lon":9.59076,"ele":218},{"name":"Hellenberg","lat":51.6108,"lon":10.14694,"ele":218},{"name":"Wohlenberg","lat":52.05838,"lon":10.15345,"ele":218},{"name":"Kreuzstein","lat":51.91535,"lon":10.49563,"ele":218},{"name":"Backenberg","lat":51.99886,"lon":10.40842,"ele":218},{"name":"Vorberg","lat":52.02098,"lon":9.37449,"ele":218},{"name":"Friesenberg","lat":52.07024,"lon":10.34385,"ele":217},{"name":"Birkenberg","lat":51.90618,"lon":9.40106,"ele":217},{"name":"Burgberg","lat":52.02542,"lon":10.41908,"ele":217},{"name":"Langer Berg","lat":52.12823,"lon":10.10451,"ele":216},{"name":"Steinberg","lat":51.65261,"lon":9.51297,"ele":216},{"name":"Mühlenberg","lat":51.94759,"lon":10.47135,"ele":215},{"name":"Galgenberg","lat":52.00812,"lon":10.40281,"ele":215},{"name":"Großer Finnenberg","lat":52.15085,"lon":9.32896,"ele":215},{"name":"Großer Hahnenberg","lat":52.13081,"lon":10.68121,"ele":215},{"name":"Papenberg","lat":51.64648,"lon":9.95979,"ele":215},{"name":"Hackelnberg","lat":52.09009,"lon":10.32859,"ele":215},{"name":"Meineberg","lat":52.04606,"lon":10.20398,"ele":215},{"name":"Katzenberg","lat":52.06386,"lon":9.45628,"ele":215},{"name":"Humberg","lat":51.9653,"lon":9.81757,"ele":214},{"name":"Idaturm","lat":52.24671,"lon":9.07787,"ele":213},{"name":"Flöteberg","lat":52.00955,"lon":10.40248,"ele":213},{"name":"Lohnberg","lat":52.15743,"lon":8.20133,"ele":213},{"name":"Großer Steinberg","lat":52.12044,"lon":10.14595,"ele":213},{"name":"Südlingsberg","lat":51.90325,"lon":10.58201,"ele":213},{"name":"Harrl","lat":52.24668,"lon":9.07791,"ele":213},{"name":"Urberg","lat":52.17021,"lon":8.02417,"ele":213},{"name":"Kleiner Rodenberg","lat":51.95636,"lon":10.28081,"ele":213},{"name":"Kapitalhai","lat":52.07013,"lon":10.20647,"ele":213},{"name":"Lohberg","lat":51.59174,"lon":9.93514,"ele":213},{"name":"Petersbrink","lat":52.13021,"lon":8.2019,"ele":212},{"name":"Güdeckenberg","lat":51.90821,"lon":10.53468,"ele":212},{"name":"Ohe","lat":52.0331,"lon":10.02871,"ele":212},{"name":"Großer Kellenberg","lat":52.26612,"lon":8.44894,"ele":211},{"name":"Schwarzer Brink","lat":52.29233,"lon":8.44482,"ele":211},{"name":"Grevenberg","lat":52.0242,"lon":10.40882,"ele":211},{"name":"Akesberg","lat":51.58525,"lon":10.28983,"ele":210},{"name":"Große Heide","lat":52.21134,"lon":8.20934,"ele":210},{"name":"Heyerstieg","lat":52.04371,"lon":9.50721,"ele":210},{"name":"Zainer Berg","lat":51.95158,"lon":10.15206,"ele":209},{"name":"Schafberg","lat":51.92313,"lon":10.18641,"ele":209},{"name":"Kollberg","lat":51.91102,"lon":9.47211,"ele":208},{"name":"Westberg","lat":52.0842,"lon":10.1287,"ele":208},{"name":"Kleiner Berg","lat":52.11453,"lon":8.12776,"ele":208},{"name":"Klingenberg","lat":52.1204,"lon":9.91008,"ele":207},{"name":"Spitzhut","lat":52.1366,"lon":9.99235,"ele":207},{"name":"Kanzelberg","lat":52.08722,"lon":10.09497,"ele":207},{"name":"Kalkofenberg","lat":51.98749,"lon":9.41345,"ele":207},{"name":"Werxhäuser Berg","lat":51.60343,"lon":10.16765,"ele":207},{"name":"Hützlah","lat":52.01483,"lon":10.2564,"ele":206},{"name":"Rechenberg","lat":52.14312,"lon":8.21094,"ele":206},{"name":"Helle","lat":52.23489,"lon":9.45273,"ele":206},{"name":"Ziegenkopf","lat":51.9167,"lon":9.41249,"ele":206},{"name":"Hungerberg","lat":52.10935,"lon":10.51501,"ele":205},{"name":"Kleiner Pagenrücken","lat":51.90144,"lon":9.52636,"ele":205},{"name":"Hahnenberg","lat":51.9101,"lon":10.18083,"ele":205},{"name":"Ottoshöhe","lat":52.22596,"lon":8.36451,"ele":205},{"name":"Hülsbrink","lat":52.15079,"lon":8.21576,"ele":204},{"name":"Kassebusch","lat":52.03804,"lon":10.40422,"ele":204},{"name":"Grevelberg","lat":52.00535,"lon":10.40405,"ele":204},{"name":"Hahnberg","lat":51.92774,"lon":10.09116,"ele":204},{"name":"Stuckenberg","lat":52.23668,"lon":8.38321,"ele":203},{"name":"Papenberg","lat":51.55432,"lon":9.95132,"ele":203},{"name":"Kappenberg","lat":52.25865,"lon":9.42013,"ele":203},{"name":"Burgberg","lat":51.96033,"lon":10.57124,"ele":203},{"name":"Lohberg","lat":52.1401,"lon":10.09166,"ele":203},{"name":"Emilienhöhe","lat":52.07024,"lon":10.00819,"ele":202},{"name":"Knollenberg","lat":51.84442,"lon":9.95796,"ele":202},{"name":"Sandkopf","lat":51.98183,"lon":10.21578,"ele":202},{"name":"Mittlerer Eichberg","lat":52.14534,"lon":10.63654,"ele":201},{"name":"Mastberg","lat":51.91833,"lon":10.16438,"ele":201},{"name":"Steinberg","lat":51.56982,"lon":10.14732,"ele":201},{"name":"Kleiner Freeden","lat":52.15718,"lon":8.07621,"ele":200},{"name":"Steinberg","lat":52.12432,"lon":10.16302,"ele":200},{"name":"Kippnäse","lat":51.94358,"lon":9.81961,"ele":200},{"name":"Ziesberg","lat":52.07041,"lon":10.37076,"ele":200},{"name":"Heeseberg","lat":52.08363,"lon":10.87087,"ele":200},{"name":"Grebenberg","lat":51.61218,"lon":9.94002,"ele":200},{"name":"Steinbrink","lat":52.1275,"lon":8.25281,"ele":200},{"name":"Osterberg","lat":51.97811,"lon":10.50442,"ele":200},{"name":"Lehmschöt","lat":52.15051,"lon":9.34547,"ele":200},{"name":"Kirchenbrink","lat":51.90983,"lon":10.51831,"ele":200},{"name":"Steinkuhlenberge","lat":52.1166,"lon":10.24163,"ele":200},{"name":"Brunkenberg","lat":52.00948,"lon":10.19199,"ele":200},{"name":"Glockenberg","lat":51.95199,"lon":10.36275,"ele":199},{"name":"Mädeberg","lat":52.00849,"lon":10.2748,"ele":199},{"name":"Schneidlersberg","lat":52.07171,"lon":10.38643,"ele":198},{"name":"Süllberg","lat":52.25272,"lon":9.65412,"ele":198},{"name":"Kreienser Berg","lat":51.86086,"lon":9.97018,"ele":198},{"name":"Hopfenberg","lat":51.84543,"lon":9.98979,"ele":198},{"name":"Scheideberg","lat":51.91732,"lon":10.52362,"ele":198},{"name":"Violinenkopf","lat":51.9836,"lon":9.40648,"ele":198},{"name":"Großer Osterberg","lat":51.87269,"lon":10.04612,"ele":198},{"name":"Mühlenberg","lat":51.43843,"lon":9.92306,"ele":198},{"name":"Mieckenberg","lat":52.13858,"lon":10.15889,"ele":197},{"name":"Wartberg","lat":51.49675,"lon":9.90006,"ele":197},{"name":"Hüneburg","lat":51.89315,"lon":9.54073,"ele":197},{"name":"Hainberg","lat":51.94804,"lon":9.60054,"ele":197},{"name":"Stübbeberg","lat":51.91972,"lon":10.50274,"ele":197},{"name":"Lemmshäuser Berg","lat":51.62038,"lon":10.17401,"ele":197},{"name":"Borberg","lat":51.87086,"lon":10.04981,"ele":197},{"name":"Schlehberg","lat":51.9731,"lon":9.82183,"ele":196},{"name":"Weinberg","lat":52.21129,"lon":8.20166,"ele":196},{"name":"Westerhauser Berg","lat":52.25043,"lon":8.30313,"ele":196},{"name":"Kastensiek","lat":52.07018,"lon":9.46646,"ele":196},{"name":"Uhlenberg","lat":52.13925,"lon":9.33836,"ele":195},{"name":"Rettberg","lat":51.97647,"lon":9.80003,"ele":195},{"name":"Burgberg","lat":52.09232,"lon":10.36069,"ele":195},{"name":"Schnettberg","lat":52.2181,"lon":8.14344,"ele":195},{"name":"Walterberg","lat":52.04949,"lon":9.46034,"ele":195},{"name":"Limberg","lat":52.16812,"lon":8.08591,"ele":194},{"name":"Steinberg","lat":52.07565,"lon":10.37069,"ele":194},{"name":"Westerberg","lat":52.30283,"lon":8.35852,"ele":193},{"name":"Piesberg","lat":52.31777,"lon":8.01927,"ele":193},{"name":"Hillenberg","lat":51.9251,"lon":10.55941,"ele":193},{"name":"Teilungskopf","lat":51.92566,"lon":10.17001,"ele":193},{"name":"Pöbbeckenberg","lat":51.96533,"lon":10.23561,"ele":193},{"name":"Oheberg","lat":51.98865,"lon":10.47224,"ele":193},{"name":"Friedeberg","lat":52.29394,"lon":8.37191,"ele":193},{"name":"Fuchsberg","lat":52.06429,"lon":10.38899,"ele":192},{"name":"Friedenshöhe","lat":52.23429,"lon":8.38869,"ele":192},{"name":"Junkerberg","lat":51.58331,"lon":9.93123,"ele":192},{"name":"Lammersbrink","lat":52.19823,"lon":8.03398,"ele":192},{"name":"Müllerberg","lat":52.00506,"lon":10.27518,"ele":192},{"name":"Eickener Egge","lat":52.2255,"lon":8.36591,"ele":191},{"name":"Steinbrink","lat":52.14584,"lon":8.20168,"ele":191},{"name":"Galgenberg","lat":51.92002,"lon":10.51096,"ele":191},{"name":"Gersberg","lat":52.18631,"lon":8.17563,"ele":191},{"name":"Born","lat":52.30868,"lon":8.34484,"ele":190},{"name":"Mühlenberg","lat":51.60313,"lon":9.94247,"ele":190},{"name":"Nordberg","lat":51.92546,"lon":10.15949,"ele":190},{"name":"Bockernberg","lat":52.11238,"lon":10.21312,"ele":190},{"name":"Lahberg","lat":51.86439,"lon":10.01297,"ele":189},{"name":"Röhsenberg","lat":52.03418,"lon":10.41133,"ele":189},{"name":"Linner Berg","lat":52.28234,"lon":8.39935,"ele":188},{"name":"Gallbühl","lat":51.54702,"lon":9.87619,"ele":188},{"name":"Rauscherberg","lat":51.6052,"lon":9.9001,"ele":188},{"name":"Egge","lat":52.08611,"lon":10.06631,"ele":187},{"name":"Strubberg","lat":52.19182,"lon":8.16427,"ele":187},{"name":"Kronsundern","lat":52.22003,"lon":8.15621,"ele":187},{"name":"Wölterberg","lat":51.9212,"lon":10.09756,"ele":187},{"name":"Katzenbusch","lat":51.88646,"lon":10.02534,"ele":186},{"name":"Holter Berg","lat":52.22059,"lon":8.20138,"ele":186},{"name":"Speckenberg","lat":52.03931,"lon":10.40034,"ele":185},{"name":"Roter Berg","lat":51.57595,"lon":9.93196,"ele":185},{"name":"Vorderer Eichberg","lat":52.14738,"lon":10.63192,"ele":185},{"name":"Bossel","lat":52.22463,"lon":8.13151,"ele":185},{"name":"Schwalbenklint","lat":51.92658,"lon":10.54805,"ele":184},{"name":"Komturberg","lat":51.97496,"lon":10.50336,"ele":184},{"name":"Holzhauser Berg","lat":52.20895,"lon":8.01628,"ele":183},{"name":"Hamberg","lat":51.51211,"lon":9.89837,"ele":183},{"name":"Flöteberg","lat":51.91926,"lon":10.15938,"ele":183},{"name":"Bornbrink","lat":52.17542,"lon":8.10929,"ele":183},{"name":"Hilkenberg","lat":51.6362,"lon":9.50871,"ele":183},{"name":"Grabings Köpfe","lat":52.07406,"lon":9.45159,"ele":183},{"name":"Hoffmannsberg","lat":52.0783,"lon":9.44031,"ele":183},{"name":"Limberg","lat":52.12969,"lon":9.69172,"ele":182},{"name":"Hasenberg","lat":51.92264,"lon":10.57385,"ele":182},{"name":"Großer Mühlenberg","lat":51.93565,"lon":10.56114,"ele":182},{"name":"Fuchsberg","lat":52.28051,"lon":10.87664,"ele":182},{"name":"Latferder Berg","lat":52.04299,"lon":9.43287,"ele":182},{"name":"Rasteberg","lat":52.09323,"lon":10.23911,"ele":181},{"name":"Osterberg","lat":52.17273,"lon":9.89482,"ele":181},{"name":"Mottenberg","lat":51.95725,"lon":10.50577,"ele":181},{"name":"Pfeifenberg","lat":51.95658,"lon":10.51617,"ele":181},{"name":"Krähenberg","lat":51.94938,"lon":10.51732,"ele":181},{"name":"Ohrberg","lat":52.13363,"lon":10.18429,"ele":181},{"name":"Grabings Köpfe","lat":52.07588,"lon":9.44405,"ele":181},{"name":"Osterberg","lat":52.28987,"lon":8.38137,"ele":180},{"name":"Silberberg","lat":52.20929,"lon":7.95186,"ele":180},{"name":"Heidhornberg","lat":52.22586,"lon":7.95758,"ele":180},{"name":"Darnekenberg","lat":52.21022,"lon":10.85055,"ele":178},{"name":"Siekhöhe","lat":51.52208,"lon":9.8842,"ele":178},{"name":"Westerberg","lat":51.92734,"lon":10.57895,"ele":178},{"name":"Kleiner Mühlenberg","lat":51.93905,"lon":10.56246,"ele":178},{"name":"Schlittenberg","lat":51.61695,"lon":9.94108,"ele":178},{"name":"Höheberg","lat":51.63073,"lon":9.8768,"ele":177},{"name":"Mittelberg","lat":52.1907,"lon":7.94032,"ele":177},{"name":"Meineberg","lat":52.02384,"lon":10.04874,"ele":177},{"name":"Kleiner Osterberg","lat":51.87503,"lon":10.04133,"ele":176},{"name":"Kaliberg Bokeloh","lat":52.41639,"lon":9.3618,"ele":176},{"name":"Jägerberg","lat":52.21549,"lon":7.96751,"ele":176},{"name":"Aschendorfer Berg","lat":52.11001,"lon":8.13481,"ele":176},{"name":"Osterberg","lat":52.23651,"lon":8.07276,"ele":175},{"name":"Liethberg","lat":51.94564,"lon":10.54668,"ele":175},{"name":"Sonnenbrink","lat":52.31448,"lon":8.32693,"ele":175},{"name":"Ledenburger Sundern","lat":52.21366,"lon":8.17878,"ele":175},{"name":"Butterberg","lat":51.96553,"lon":10.50307,"ele":175},{"name":"Thieberg","lat":52.11796,"lon":10.15539,"ele":175},{"name":"Raventberg","lat":52.08093,"lon":9.43634,"ele":175},{"name":"Schulenburger Berg","lat":52.17564,"lon":9.76221,"ele":174},{"name":"Sylbecker Berg","lat":51.80862,"lon":9.45602,"ele":174},{"name":"Benther Berg","lat":52.3386,"lon":9.61661,"ele":173},{"name":"Galgenberg","lat":52.14149,"lon":9.97698,"ele":173},{"name":"Hagenberg","lat":51.55505,"lon":9.91112,"ele":173},{"name":"Osterberg","lat":52.31636,"lon":8.32305,"ele":173},{"name":"Breyel","lat":52.2143,"lon":8.22649,"ele":172},{"name":"Strüggelheide","lat":52.22647,"lon":8.15322,"ele":172},{"name":"Schöneberg","lat":52.12124,"lon":10.03087,"ele":172},{"name":"Rotenberg","lat":52.00013,"lon":10.25886,"ele":172},{"name":"Grabings Köpfe","lat":52.07438,"lon":9.44683,"ele":172},{"name":"Kurzenbusch","lat":51.62838,"lon":9.86294,"ele":171},{"name":"Mönneckenberg","lat":51.94363,"lon":10.55029,"ele":171},{"name":"Graseberg","lat":51.94163,"lon":10.50453,"ele":171},{"name":"Schafberg","lat":52.08397,"lon":10.38017,"ele":171},{"name":"Ollaberg","lat":52.16749,"lon":10.73367,"ele":170},{"name":"Sehlberg","lat":52.22521,"lon":8.16896,"ele":170},{"name":"Wilseder Berg","lat":53.16762,"lon":9.93979,"ele":169},{"name":"Hopfenberg","lat":51.9404,"lon":10.58908,"ele":169},{"name":"Rochusberg","lat":52.23333,"lon":8.13323,"ele":169},{"name":"Baßberg","lat":52.04981,"lon":9.35108,"ele":168},{"name":"Egberg","lat":52.06928,"lon":10.32668,"ele":168},{"name":"Tenderling","lat":51.9034,"lon":9.39288,"ele":167},{"name":"Große Egge","lat":52.21468,"lon":8.09703,"ele":167},{"name":"Eichberg","lat":52.11201,"lon":9.44711,"ele":167},{"name":"Bückeberg","lat":52.05112,"lon":9.40801,"ele":166},{"name":"Hollenberg","lat":52.18609,"lon":8.18473,"ele":166},{"name":"Heidberg","lat":52.21747,"lon":7.95108,"ele":165},{"name":"Holtingbänken","lat":52.22429,"lon":8.21515,"ele":165},{"name":"Lohbrink","lat":52.16321,"lon":8.21232,"ele":164},{"name":"Schweckenberg","lat":51.61599,"lon":9.89177,"ele":164},{"name":"Schimmelberg","lat":51.93611,"lon":10.59539,"ele":163},{"name":"Eichsberg","lat":51.91296,"lon":10.13398,"ele":163},{"name":"Galberg","lat":52.04695,"lon":10.35599,"ele":162},{"name":"Rudolfshöhe","lat":52.22744,"lon":8.167,"ele":162},{"name":"Kleiner Kellenberg","lat":52.27499,"lon":8.42422,"ele":161},{"name":"Brunnenberg","lat":52.44281,"lon":9.21018,"ele":161},{"name":"Gankelsberg","lat":51.94374,"lon":10.60805,"ele":161},{"name":"Großer Zuschlag","lat":52.26934,"lon":8.26658,"ele":161},{"name":"Schottorfer Berg","lat":52.28064,"lon":10.89397,"ele":161},{"name":"Venner Egge","lat":52.35867,"lon":8.16471,"ele":161},{"name":"Hastenbecker Berg","lat":52.08932,"lon":9.4314,"ele":161},{"name":"Bolterberg","lat":53.16121,"lon":9.93582,"ele":160},{"name":"Langenbusch","lat":51.62255,"lon":9.88244,"ele":160},{"name":"Triftberg","lat":51.94456,"lon":10.58796,"ele":160},{"name":"Hillungsberg","lat":51.94442,"lon":10.60123,"ele":160},{"name":"Kleiberg","lat":51.96483,"lon":10.63885,"ele":160},{"name":"Mündruper Berg","lat":52.22172,"lon":8.12767,"ele":160},{"name":"Heineberg","lat":52.27111,"lon":10.87968,"ele":160},{"name":"Hasberg","lat":52.17175,"lon":8.18439,"ele":159},{"name":"Heiligenberg","lat":51.97557,"lon":10.49526,"ele":159},{"name":"Weinberg","lat":51.97749,"lon":10.48915,"ele":159},{"name":"Armelahberg","lat":51.98109,"lon":10.48914,"ele":159},{"name":"Dehne Berg","lat":52.08478,"lon":10.19407,"ele":159},{"name":"Essenerberg","lat":52.30796,"lon":8.32491,"ele":159},{"name":"Domprobst Sundern","lat":52.21583,"lon":7.99563,"ele":158},{"name":"Stellinge","lat":52.21014,"lon":8.22731,"ele":158},{"name":"Rieseberg","lat":52.28596,"lon":10.7634,"ele":158},{"name":"Venner Berg","lat":52.39076,"lon":8.13166,"ele":158},{"name":"Seilbahnberg","lat":52.21272,"lon":10.33197,"ele":157},{"name":"Schmittenhöhe","lat":52.39566,"lon":8.11789,"ele":157},{"name":"Ortsberg","lat":52.11343,"lon":10.12477,"ele":157},{"name":"Johannbrink","lat":52.27972,"lon":8.29376,"ele":157},{"name":"Thornsunders","lat":52.19746,"lon":8.14122,"ele":157},{"name":"Westerberg","lat":52.32496,"lon":8.29771,"ele":157},{"name":"Rosenberg","lat":52.0757,"lon":10.32037,"ele":157},{"name":"Ösel","lat":52.1285,"lon":10.5926,"ele":156},{"name":"Gallberg","lat":52.15151,"lon":9.90484,"ele":156},{"name":"Kiffenbrink","lat":52.1882,"lon":8.07296,"ele":156},{"name":"Mühlenbrink","lat":52.19244,"lon":8.06814,"ele":156},{"name":"Stirper Berg","lat":52.33019,"lon":8.28774,"ele":156},{"name":"Burgberg","lat":52.31457,"lon":9.58573,"ele":155},{"name":"Halsberg","lat":52.13489,"lon":9.86735,"ele":155},{"name":"Harderberg","lat":52.23491,"lon":8.05787,"ele":155},{"name":"Hülsenberg","lat":53.40883,"lon":9.86826,"ele":155},{"name":"Hohenhorst","lat":52.27586,"lon":8.36369,"ele":155},{"name":"Kleiner Zuschlag","lat":52.27317,"lon":8.25348,"ele":154},{"name":"Stemmerberg","lat":52.07249,"lon":10.1587,"ele":153},{"name":"Bükersberg","lat":52.20785,"lon":7.9625,"ele":153},{"name":"Hilmke","lat":52.27771,"lon":8.32185,"ele":153},{"name":"Dornsberg","lat":52.38407,"lon":8.09184,"ele":153},{"name":"Im Kassel","lat":52.26664,"lon":8.27533,"ele":153},{"name":"Unterer Hellberg","lat":52.04584,"lon":9.42668,"ele":153},{"name":"Sandberg","lat":52.13844,"lon":9.03683,"ele":152},{"name":"Adenser Berg","lat":52.17278,"lon":9.75336,"ele":151},{"name":"Mehrenzitter","lat":52.22484,"lon":8.12227,"ele":151},{"name":"Kleine Egge","lat":52.20985,"lon":8.10099,"ele":151},{"name":"Hoher Horst","lat":52.2569,"lon":10.72873,"ele":151},{"name":"Falkenberg","lat":52.84489,"lon":9.8665,"ele":150},{"name":"Gannaberg","lat":53.40052,"lon":9.86963,"ele":150},{"name":"Sültenberg","lat":51.94725,"lon":10.11476,"ele":150},{"name":"Triftberg","lat":52.01174,"lon":10.50246,"ele":150},{"name":"Galgenberg","lat":51.96654,"lon":10.57557,"ele":150},{"name":"Vogelhüttenberg","lat":53.40209,"lon":9.86358,"ele":150},{"name":"Kapellenberg","lat":52.34937,"lon":8.22275,"ele":150},{"name":"Ohrberg","lat":52.07418,"lon":9.35531,"ele":149},{"name":"Vörier Berg","lat":52.26217,"lon":9.65133,"ele":148},{"name":"Hasselberg","lat":52.12605,"lon":10.32292,"ele":148},{"name":"Signalberg","lat":52.55273,"lon":8.21545,"ele":146},{"name":"Lechtenbrink","lat":52.27875,"lon":8.16357,"ele":146},{"name":"Birkenesch","lat":52.21912,"lon":8.11434,"ele":146},{"name":"Ohe","lat":52.09809,"lon":10.1728,"ele":146},{"name":"Stattberg","lat":53.1591,"lon":9.93166,"ele":145},{"name":"Hagenberg","lat":52.0063,"lon":10.50377,"ele":145},{"name":"Osterberg","lat":52.21328,"lon":8.05298,"ele":145},{"name":"Icker Egge","lat":52.36002,"lon":8.13674,"ele":145},{"name":"Kaliberg Sehnde","lat":52.31124,"lon":9.95403,"ele":144},{"name":"Süerser Berg","lat":52.29942,"lon":9.59293,"ele":144},{"name":"Großer Klinsberg","lat":52.23522,"lon":10.69722,"ele":144},{"name":"Salzberg Giesen","lat":52.20424,"lon":9.88134,"ele":144},{"name":"Ahrberg","lat":53.23002,"lon":10.05144,"ele":143},{"name":"Steinbrink","lat":52.30175,"lon":8.43762,"ele":143},{"name":"Harkenberg","lat":52.87069,"lon":9.86957,"ele":143},{"name":"Schleptruper Egge","lat":52.37518,"lon":8.02773,"ele":142},{"name":"Hoher Mechtin","lat":53.04427,"lon":10.90961,"ele":142},{"name":"Trillenberg","lat":52.50386,"lon":7.84119,"ele":142},{"name":"Boberg","lat":52.22323,"lon":8.0014,"ele":142},{"name":"Mordkuhlenberg","lat":52.54984,"lon":8.21681,"ele":142},{"name":"Dingelrott","lat":52.31043,"lon":8.21274,"ele":141},{"name":"Hunnenkuhle","lat":52.20931,"lon":8.12427,"ele":141},{"name":"Dahlumer Berg","lat":51.98659,"lon":10.11972,"ele":141},{"name":"Steinberg","lat":52.36904,"lon":8.07803,"ele":140},{"name":"Steinberg","lat":52.12304,"lon":9.93589,"ele":140},{"name":"Klotzberg","lat":52.08334,"lon":10.62936,"ele":140},{"name":"Sandforter Berg","lat":52.24994,"lon":8.12393,"ele":139},{"name":"Hagenberg","lat":52.15755,"lon":8.0514,"ele":139},{"name":"Marienberg","lat":52.17241,"lon":9.76581,"ele":137},{"name":"Lappenberg","lat":52.12527,"lon":10.63132,"ele":137},{"name":"Anhöhe im Dülloh","lat":52.83167,"lon":10.46757,"ele":137},{"name":"Himmelreichsberg","lat":52.11572,"lon":10.34513,"ele":137},{"name":"Buchberg","lat":52.2594,"lon":10.77246,"ele":137},{"name":"Halter Berg","lat":52.29544,"lon":8.15984,"ele":137},{"name":"Hoher Berg","lat":52.86819,"lon":10.63264,"ele":136},{"name":"Wölpinghauser Berg","lat":52.42896,"lon":9.22121,"ele":136},{"name":"Werscher Berg","lat":52.24484,"lon":8.19795,"ele":136},{"name":"Turmberg","lat":53.14677,"lon":9.92718,"ele":135},{"name":"Wellinger Berg","lat":52.28802,"lon":8.19601,"ele":135},{"name":"Laubbrink","lat":52.20508,"lon":8.12464,"ele":135},{"name":"Thieberg","lat":52.09416,"lon":10.18917,"ele":135},{"name":"Warberg","lat":51.99216,"lon":10.56733,"ele":134},{"name":"Galberg","lat":52.09906,"lon":10.17638,"ele":134},{"name":"Wrackelberg","lat":52.23703,"lon":10.68684,"ele":133},{"name":"Schillerberg","lat":52.51033,"lon":7.82908,"ele":133},{"name":"Gehenberg","lat":52.06564,"lon":10.14173,"ele":133},{"name":"Holzberg","lat":53.15631,"lon":9.97937,"ele":132},{"name":"Düingberg","lat":52.21715,"lon":8.42115,"ele":131},{"name":"Stockumer Berg","lat":52.24962,"lon":8.17606,"ele":131},{"name":"Eistruper Berg","lat":52.24545,"lon":8.14036,"ele":131},{"name":"Sutarb","lat":52.18585,"lon":8.11891,"ele":131},{"name":"Lehrberg","lat":52.28608,"lon":10.88599,"ele":131},{"name":"Brunsberg","lat":53.30032,"lon":9.83201,"ele":130},{"name":"Lüßberg","lat":52.83416,"lon":10.3409,"ele":130},{"name":"Lohbrink","lat":52.2961,"lon":8.27942,"ele":130},{"name":"Kleiberg","lat":52.26013,"lon":10.79119,"ele":130},{"name":"Hamberg","lat":52.50466,"lon":7.81943,"ele":130},{"name":"Düttberg","lat":52.10702,"lon":9.41417,"ele":130},{"name":"Goldbockenberg","lat":52.83754,"lon":9.80376,"ele":129},{"name":"Haugenberg","lat":52.54532,"lon":8.21967,"ele":129},{"name":"Langer Stein","lat":53.43334,"lon":9.89417,"ele":129},{"name":"Gattberg","lat":52.32512,"lon":8.13054,"ele":129},{"name":"Sonnenberg","lat":52.08444,"lon":10.17069,"ele":129},{"name":"Blauer Berg","lat":52.87865,"lon":10.48562,"ele":128},{"name":"Schölerberg","lat":52.2511,"lon":8.07563,"ele":127},{"name":"Kiekeberg","lat":53.43631,"lon":9.89824,"ele":127},{"name":"Renzelsberg","lat":52.26473,"lon":10.78797,"ele":127},{"name":"Feldbrink","lat":52.45277,"lon":8.43256,"ele":126},{"name":"Hingstberg","lat":53.20688,"lon":9.95192,"ele":126},{"name":"Staffelberg","lat":52.83042,"lon":9.80345,"ele":126},{"name":"Kattenberg","lat":52.51466,"lon":8.1318,"ele":126},{"name":"Todtenberg","lat":52.05998,"lon":9.30155,"ele":126},{"name":"Lüstringer Berg","lat":52.27591,"lon":8.13949,"ele":126},{"name":"Spatelsberg","lat":52.53089,"lon":7.77633,"ele":126},{"name":"Gramling","lat":52.31233,"lon":8.17677,"ele":126},{"name":"Teutberg","lat":52.10508,"lon":9.41051,"ele":126},{"name":"Rote Schanze","lat":52.15763,"lon":10.5683,"ele":125},{"name":"Krähen Berg","lat":53.20204,"lon":10.07296,"ele":125},{"name":"Martiniberg","lat":52.20435,"lon":7.95393,"ele":125},{"name":"Alt-Schledehauser Berg","lat":52.29296,"lon":8.23042,"ele":125},{"name":"Krippenfeldberg","lat":52.52314,"lon":7.78694,"ele":125},{"name":"Besterberg","lat":52.53378,"lon":7.75934,"ele":124},{"name":"Stemmer Berg","lat":52.3442,"lon":9.53469,"ele":123},{"name":"Nordberg","lat":52.41438,"lon":9.86672,"ele":122},{"name":"Lindenberg","lat":52.19224,"lon":10.49398,"ele":122},{"name":"Gesmoldsberg","lat":52.24028,"lon":7.99415,"ele":122},{"name":"Düdinghäuser Berg","lat":52.4099,"lon":9.2824,"ele":121},{"name":"Haster Berg","lat":52.31858,"lon":8.05862,"ele":121},{"name":"Pettberg","lat":53.42231,"lon":9.85791,"ele":121},{"name":"Hoher Berg","lat":52.52341,"lon":10.77121,"ele":120},{"name":"Katzberg","lat":52.14492,"lon":9.9263,"ele":120},{"name":"Habenberg","lat":53.36926,"lon":9.86648,"ele":120},{"name":"Harmshöhe","lat":52.14674,"lon":9.86496,"ele":120},{"name":"Kleiner Brunsberg","lat":53.30181,"lon":9.82873,"ele":120},{"name":"Lindenberg","lat":52.16417,"lon":10.58518,"ele":120},{"name":"Ortenbrink","lat":52.23049,"lon":7.96353,"ele":120},{"name":"Wulfter Berg","lat":52.29795,"lon":8.2208,"ele":120},{"name":"Kolkenberg","lat":52.52004,"lon":7.79721,"ele":120},{"name":"Kuhberg","lat":52.51331,"lon":7.78423,"ele":120},{"name":"Wohldberg","lat":52.7625,"lon":10.55926,"ele":119},{"name":"Zungenberg","lat":52.34745,"lon":9.52899,"ele":119},{"name":"Dangerser Berg","lat":53.36463,"lon":9.8623,"ele":119},{"name":"Haidberge","lat":53.42918,"lon":9.88015,"ele":119},{"name":"Kronsberg - Nordhügel","lat":52.33603,"lon":9.8436,"ele":118},{"name":"Breitehorn","lat":52.82772,"lon":10.26246,"ele":118},{"name":"Limberg","lat":52.30792,"lon":8.09429,"ele":118},{"name":"Steinberge","lat":52.01479,"lon":9.39297,"ele":118},{"name":"Steinbrink","lat":52.22984,"lon":7.96985,"ele":118},{"name":"Steinberg","lat":52.51563,"lon":7.77801,"ele":118},{"name":"Tütsberg","lat":53.11806,"lon":9.90755,"ele":117},{"name":"Kreuzberg","lat":52.50793,"lon":8.12373,"ele":117},{"name":"Lohe","lat":52.2055,"lon":8.2754,"ele":117},{"name":"Boberg","lat":52.50876,"lon":7.80355,"ele":117},{"name":"Herzogsberge","lat":52.24329,"lon":10.63165,"ele":117},{"name":"Heseper Berg","lat":52.42133,"lon":7.94913,"ele":117},{"name":"Betzendorfer Berg","lat":53.13716,"lon":10.29757,"ele":117},{"name":"Hasselbrack","lat":53.43026,"lon":9.8639,"ele":116},{"name":"Tutenberg","lat":52.82179,"lon":9.80647,"ele":116},{"name":"Wellenberg","lat":52.50907,"lon":8.14067,"ele":116},{"name":"Worthberg","lat":53.12759,"lon":10.0612,"ele":116},{"name":"Buchberg","lat":52.26404,"lon":10.85488,"ele":116},{"name":"Haidberg","lat":52.26902,"lon":10.77552,"ele":116},{"name":"Glinsberg","lat":52.47978,"lon":7.84205,"ele":116},{"name":"Glüsinger Berg","lat":53.11843,"lon":10.33132,"ele":116},{"name":"Hausselberg","lat":52.85774,"lon":10.18479,"ele":115},{"name":"Timpenberg","lat":53.12134,"lon":10.26911,"ele":115},{"name":"Ascher Berg","lat":52.17112,"lon":8.48552,"ele":115},{"name":"Kreuzberg","lat":53.04147,"lon":9.91602,"ele":114},{"name":"Fillerberg","lat":52.72535,"lon":10.58235,"ele":114},{"name":"Nuppenberg","lat":53.35949,"lon":9.86027,"ele":114},{"name":"Güneitberg","lat":52.94617,"lon":10.90807,"ele":114},{"name":"Seefeldberg","lat":52.50354,"lon":7.80874,"ele":114},{"name":"Tellmer Berg","lat":53.09881,"lon":10.31547,"ele":113},{"name":"Weddeler Berg","lat":52.25498,"lon":10.625,"ele":113},{"name":"Lange Höhe","lat":53.21601,"lon":9.97207,"ele":113},{"name":"Fistelberge","lat":53.43114,"lon":9.87975,"ele":113},{"name":"Penningsberg","lat":52.53621,"lon":7.79281,"ele":113},{"name":"Bullenberg","lat":53.40049,"lon":9.88592,"ele":112},{"name":"Nollmanns Berg","lat":52.21468,"lon":7.91799,"ele":112},{"name":"Hützeler Berg","lat":53.08255,"lon":10.06384,"ele":111},{"name":"Juchterberg","lat":52.87411,"lon":10.82777,"ele":111},{"name":"Geitelder Berg","lat":52.21737,"lon":10.46592,"ele":111},{"name":"Bornsbrink","lat":52.20042,"lon":8.28603,"ele":111},{"name":"Haller Berg","lat":52.24022,"lon":8.23237,"ele":111},{"name":"Weserberg","lat":52.50296,"lon":7.82432,"ele":111},{"name":"Lahberg","lat":52.26514,"lon":10.25976,"ele":110},{"name":"Klieversberg","lat":52.41563,"lon":10.77101,"ele":110},{"name":"Drei-Ahnen-Berg","lat":53.23882,"lon":10.04945,"ele":110},{"name":"Hasenberg","lat":53.16741,"lon":10.11401,"ele":110},{"name":"Kaliberg Ronnenberg","lat":52.31271,"lon":9.64756,"ele":110},{"name":"Hahnenberg","lat":53.03832,"lon":9.91521,"ele":110},{"name":"Kaliberg","lat":52.52571,"lon":10.12629,"ele":110},{"name":"Tiesen Berg","lat":53.2269,"lon":10.03381,"ele":110},{"name":"Mühlenberg","lat":52.25932,"lon":10.88698,"ele":110},{"name":"Kettelsberg","lat":52.44027,"lon":7.90419,"ele":109},{"name":"Wolfsberg","lat":52.27972,"lon":10.81489,"ele":109},{"name":"Gehnberg","lat":52.43071,"lon":7.89224,"ele":109},{"name":"Flidderberg","lat":53.27094,"lon":9.82222,"ele":108},{"name":"Suhorn","lat":53.14214,"lon":9.8976,"ele":108},{"name":"Boten Berg","lat":53.21037,"lon":10.04902,"ele":108},{"name":"Roter Berg","lat":52.22915,"lon":7.94129,"ele":108},{"name":"Achelrieder Berg","lat":52.24163,"lon":8.18351,"ele":108},{"name":"Heiliger Berg","lat":52.27537,"lon":10.79055,"ele":108},{"name":"Rocksberg","lat":52.49561,"lon":7.81333,"ele":108},{"name":"Südhügel","lat":52.31739,"lon":9.82968,"ele":107},{"name":"Schwarzerberg","lat":52.7109,"lon":10.58477,"ele":107},{"name":"Steinberg","lat":52.22769,"lon":10.47327,"ele":107},{"name":"Ziegenberg","lat":52.2644,"lon":10.83687,"ele":107},{"name":"Kirchberg","lat":53.21851,"lon":10.80776,"ele":106},{"name":"Hummelsberg","lat":53.26235,"lon":9.95911,"ele":106},{"name":"Milleniumberg","lat":52.25747,"lon":10.485,"ele":106},{"name":"Auberg","lat":53.18656,"lon":10.0461,"ele":106},{"name":"Buchenberg","lat":52.36877,"lon":10.70894,"ele":106},{"name":"Krähenberg","lat":53.11359,"lon":10.31029,"ele":106},{"name":"Frettberg","lat":52.42543,"lon":7.92963,"ele":106},{"name":"Hundhügel","lat":52.35128,"lon":8.06467,"ele":106},{"name":"Stadtberg","lat":53.21603,"lon":10.80622,"ele":105},{"name":"Steinberg","lat":52.24486,"lon":9.8697,"ele":105},{"name":"Brandenberge","lat":53.43244,"lon":9.84447,"ele":105},{"name":"Kippendahl","lat":53.36862,"lon":9.84508,"ele":105},{"name":"Hohlortsberg","lat":53.10988,"lon":10.05003,"ele":105},{"name":"Olmberg","lat":52.73696,"lon":10.60638,"ele":104},{"name":"Wümmeberg","lat":53.14136,"lon":9.88693,"ele":104},{"name":"Hengstberg","lat":53.11836,"lon":9.94276,"ele":104},{"name":"Heiligenberg","lat":52.50251,"lon":7.90819,"ele":104},{"name":"Fuhrberg","lat":52.8254,"lon":9.85658,"ele":104},{"name":"Bokelsberg","lat":52.69118,"lon":10.58647,"ele":103},{"name":"Schieferberg","lat":52.19142,"lon":10.52708,"ele":103},{"name":"Schiffberg","lat":53.09418,"lon":10.22568,"ele":103},{"name":"Piusberg","lat":52.35081,"lon":8.05451,"ele":103},{"name":"Wulfsberg","lat":53.12252,"lon":9.90389,"ele":103},{"name":"Rothberg","lat":53.19446,"lon":10.04586,"ele":103},{"name":"Schäferberg","lat":52.28992,"lon":10.67361,"ele":103},{"name":"Wietzer Berg","lat":52.87272,"lon":10.08299,"ele":102},{"name":"Stucksberg","lat":53.35996,"lon":9.87888,"ele":102},{"name":"Maßberg","lat":52.17387,"lon":9.77223,"ele":102},{"name":"Hausberg","lat":53.11116,"lon":10.02399,"ele":102},{"name":"Westerberg","lat":52.28188,"lon":8.01655,"ele":102},{"name":"Delmberg","lat":52.2569,"lon":9.88946,"ele":102},{"name":"Geitzenberg","lat":53.16077,"lon":9.99215,"ele":102},{"name":"Klinkenberg","lat":53.19187,"lon":10.04331,"ele":102},{"name":"Sonnenbrink","lat":52.24071,"lon":8.13189,"ele":102},{"name":"Krüsberg","lat":53.10027,"lon":10.0607,"ele":102},{"name":"Otterberg","lat":53.24274,"lon":9.71759,"ele":101},{"name":"Truersberg","lat":52.65938,"lon":10.72774,"ele":101},{"name":"Esbarg","lat":53.07829,"lon":9.78216,"ele":101},{"name":"Atgeberg","lat":52.41777,"lon":9.29317,"ele":101},{"name":"Höllenberg","lat":53.30126,"lon":9.84937,"ele":101},{"name":"Seeberge","lat":53.43387,"lon":9.84186,"ele":100},{"name":"Rahl-Berg","lat":53.20762,"lon":9.98659,"ele":100},{"name":"Tempelberg","lat":53.43502,"lon":9.84878,"ele":100},