[{"name":"Langenberg","lat":51.27629,"lon":8.5584,"ele":844},{"name":"Kahler Asten","lat":51.17934,"lon":8.48934,"ele":841},{"name":"Neuer Clemensberg","lat":51.25458,"lon":8.56716,"ele":836},{"name":"Hopperkopf","lat":51.24723,"lon":8.5991,"ele":832},{"name":"Hunau","lat":51.21053,"lon":8.39493,"ele":818},{"name":"Ziegenhelle","lat":51.12582,"lon":8.52953,"ele":815},{"name":"Wallershöhe","lat":51.11835,"lon":8.53306,"ele":812},{"name":"Bremberg","lat":51.19059,"lon":8.49541,"ele":809},{"name":"Hoher Eimberg","lat":51.31203,"lon":8.60071,"ele":806},{"name":"Hoppernkopf","lat":51.29545,"lon":8.57407,"ele":804},{"name":"Hillekopf","lat":51.2398,"lon":8.59863,"ele":804},{"name":"Glindfeld","lat":51.23847,"lon":8.60798,"ele":803},{"name":"Nordhelle","lat":51.23455,"lon":8.50311,"ele":792},{"name":"Öhrenstein","lat":51.27805,"lon":8.53446,"ele":792},{"name":"Heikers Köpfchen","lat":51.20511,"lon":8.36122,"ele":792},{"name":"Reetsberg","lat":51.20643,"lon":8.61159,"ele":791},{"name":"Schloßberg","lat":51.22081,"lon":8.61856,"ele":791},{"name":"Lüttekefeld","lat":51.26107,"lon":8.58789,"ele":791},{"name":"Gerkenstein","lat":51.16678,"lon":8.48109,"ele":790},{"name":"Auf dem Sternrodt","lat":51.27511,"lon":8.54128,"ele":789},{"name":"Sange","lat":51.23081,"lon":8.4334,"ele":789},{"name":"Junge Grimme","lat":51.20471,"lon":8.61597,"ele":782},{"name":"Rösberg","lat":51.20533,"lon":8.59634,"ele":781},{"name":"Dreiskopf","lat":51.32556,"lon":8.60869,"ele":780},{"name":"Kappe","lat":51.1816,"lon":8.509,"ele":776},{"name":"Wetzstein","lat":51.17165,"lon":8.50497,"ele":772},{"name":"Vorderster Hoher Knochen","lat":51.16644,"lon":8.45684,"ele":768},{"name":"Albrechtsberg","lat":51.13316,"lon":8.41316,"ele":768},{"name":"Kahlenberg","lat":51.23195,"lon":8.42003,"ele":767},{"name":"Rimberg","lat":51.24663,"lon":8.5373,"ele":762},{"name":"Großer Kluskopf","lat":51.31272,"lon":8.57435,"ele":761},{"name":"Großer Höcherkopf","lat":51.21138,"lon":8.61099,"ele":761},{"name":"Hardt","lat":51.23929,"lon":8.44179,"ele":761},{"name":"Jürgensköpken","lat":51.23553,"lon":8.621,"ele":758},{"name":"Bollerberg","lat":51.1589,"lon":8.61105,"ele":757},{"name":"Feldstein","lat":51.32097,"lon":8.54323,"ele":756},{"name":"Härdler","lat":51.10395,"lon":8.23579,"ele":756},{"name":"Hohe Seite","lat":51.17583,"lon":8.58979,"ele":753},{"name":"Kahle Bauke","lat":51.23041,"lon":8.4071,"ele":753},{"name":"Singerberg","lat":51.19408,"lon":8.45141,"ele":752},{"name":"Gaulskopf","lat":51.11956,"lon":8.54567,"ele":752},{"name":"Alte Grimme","lat":51.20007,"lon":8.58557,"ele":751},{"name":"Teukelberg","lat":51.16351,"lon":8.6115,"ele":749},{"name":"Großer Bromberg","lat":51.17412,"lon":8.5915,"ele":748},{"name":"Silberberg","lat":51.23226,"lon":8.49367,"ele":748},{"name":"Radenstein","lat":51.1238,"lon":8.54073,"ele":747},{"name":"Zwistberg","lat":51.14453,"lon":8.48454,"ele":747},{"name":"Poppenberg","lat":51.19259,"lon":8.50899,"ele":746},{"name":"Ka-Lied","lat":51.26251,"lon":8.66999,"ele":745},{"name":"Bastenberg","lat":51.30123,"lon":8.38406,"ele":745},{"name":"Bärenberg","lat":51.17073,"lon":8.5165,"ele":744},{"name":"Kuhlenberg","lat":51.22286,"lon":8.49751,"ele":744},{"name":"Hohe Hessel","lat":51.0821,"lon":8.22147,"ele":743},{"name":"Radenstein","lat":51.13377,"lon":8.54777,"ele":743},{"name":"Auf der Höhe","lat":51.15082,"lon":8.45607,"ele":741},{"name":"Zwoellenberg","lat":51.22634,"lon":8.37942,"ele":741},{"name":"Herrenberg","lat":51.10309,"lon":8.50492,"ele":741},{"name":"Großer Kopf","lat":51.09527,"lon":8.35082,"ele":740},{"name":"Sürenberg","lat":51.19763,"lon":8.50234,"ele":740},{"name":"Moselkopf","lat":51.11596,"lon":8.5094,"ele":740},{"name":"Jüberg","lat":51.197,"lon":8.35734,"ele":739},{"name":"Zwergberg","lat":51.1985,"lon":8.37101,"ele":737},{"name":"Lützelskopf","lat":51.1093,"lon":8.49174,"ele":737},{"name":"Schiershagen","lat":51.23357,"lon":8.38231,"ele":736},{"name":"Vorderer Kuhlenberg","lat":51.2186,"lon":8.51209,"ele":735},{"name":"Langenberg","lat":51.2036,"lon":8.48617,"ele":735},{"name":"Zwellenberg","lat":51.22975,"lon":8.38348,"ele":734},{"name":"Sperrenberg","lat":51.26972,"lon":8.49572,"ele":734},{"name":"Herrloh","lat":51.19512,"lon":8.51814,"ele":733},{"name":"Lagerstein","lat":51.1722,"lon":8.57121,"ele":732},{"name":"Stüppel","lat":51.31464,"lon":8.43052,"ele":732},{"name":"Wiedegge","lat":51.32518,"lon":8.46635,"ele":732},{"name":"Bracht","lat":51.23445,"lon":8.34344,"ele":732},{"name":"Klappersberg","lat":51.20449,"lon":8.43018,"ele":731},{"name":"Hömberg","lat":51.3075,"lon":8.55461,"ele":730},{"name":"Ohlenberg","lat":51.32629,"lon":8.46016,"ele":729},{"name":"Hoher Hagen","lat":51.24808,"lon":8.50466,"ele":729},{"name":"Baukopf","lat":51.13725,"lon":8.4781,"ele":729},{"name":"Steinberg","lat":51.21901,"lon":8.47118,"ele":728},{"name":"Heiskopf","lat":51.10283,"lon":8.54213,"ele":728},{"name":"Heidberg","lat":51.1884,"lon":8.40558,"ele":727},{"name":"Eschenberg","lat":51.24238,"lon":8.51671,"ele":726},{"name":"Waldemei","lat":51.18151,"lon":8.38317,"ele":725},{"name":"Dörnberg","lat":51.30906,"lon":8.42325,"ele":725},{"name":"Bremberg","lat":51.13959,"lon":8.40957,"ele":724},{"name":"Großer Hastenberg","lat":51.21896,"lon":8.39693,"ele":723},{"name":"Rimberg","lat":51.21901,"lon":8.33959,"ele":723},{"name":"Steinmarkskopf","lat":51.26859,"lon":8.42645,"ele":723},{"name":"Richterskopf","lat":51.23806,"lon":8.42043,"ele":722},{"name":"Istenberg","lat":51.3197,"lon":8.55132,"ele":721},{"name":"Böhl","lat":51.21688,"lon":8.57592,"ele":721},{"name":"Molbecke","lat":51.18149,"lon":8.53278,"ele":721},{"name":"Homburg","lat":51.09772,"lon":8.46455,"ele":721},{"name":"Milsenberg","lat":51.21504,"lon":8.37447,"ele":721},{"name":"Ruhberg","lat":51.16281,"lon":8.50395,"ele":718},{"name":"Hillekopf","lat":51.22897,"lon":8.47295,"ele":717},{"name":"Osterkopf","lat":51.13503,"lon":8.49955,"ele":715},{"name":"Heidkopf","lat":51.33141,"lon":8.50868,"ele":715},{"name":"Saukopf","lat":51.11404,"lon":8.38003,"ele":715},{"name":"Hömberg","lat":51.23654,"lon":8.45518,"ele":715},{"name":"Auf der Hütte","lat":51.23438,"lon":8.53721,"ele":715},{"name":"Rimbergkopf","lat":51.24048,"lon":8.53927,"ele":715},{"name":"Schmalenberg","lat":51.33076,"lon":8.47064,"ele":714},{"name":"Herhagen","lat":51.18183,"lon":8.42481,"ele":714},{"name":"Goldstein","lat":51.32296,"lon":8.5466,"ele":712},{"name":"Kahlenberg","lat":51.20641,"lon":8.33073,"ele":712},{"name":"Kahleberg","lat":51.10531,"lon":8.19683,"ele":711},{"name":"Heckekopf","lat":51.11719,"lon":8.39556,"ele":711},{"name":"Nonnenberg","lat":51.22722,"lon":8.36533,"ele":711},{"name":"Kreuzberg","lat":51.24005,"lon":8.40709,"ele":710},{"name":"Bürenberg","lat":51.16652,"lon":8.52785,"ele":709},{"name":"Kreuzberg","lat":51.18965,"lon":8.53795,"ele":709},{"name":"Streitegge","lat":51.21265,"lon":8.60049,"ele":707},{"name":"Fohrenkopf","lat":51.3336,"lon":8.59982,"ele":707},{"name":"Somborn","lat":51.09731,"lon":8.24231,"ele":706},{"name":"Stengenberg","lat":51.07864,"lon":8.20245,"ele":706},{"name":"Wesenberg","lat":51.1697,"lon":8.41503,"ele":705},{"name":"Siegelskopf","lat":51.13483,"lon":8.39164,"ele":705},{"name":"Der Platzrücken","lat":51.09796,"lon":8.48866,"ele":705},{"name":"Heidkopf","lat":51.11602,"lon":8.59038,"ele":704},{"name":"Wimpert","lat":51.18011,"lon":8.54621,"ele":704},{"name":"Olsberg","lat":51.3428,"lon":8.503,"ele":704},{"name":"Iberg","lat":51.246,"lon":8.49528,"ele":704},{"name":"Eberg","lat":51.21433,"lon":8.43534,"ele":702},{"name":"Ravenstein","lat":51.32259,"lon":8.54159,"ele":701},{"name":"Bornstein","lat":51.32402,"lon":8.54596,"ele":700},{"name":"Dannenberg","lat":51.16109,"lon":8.53101,"ele":700},{"name":"Dillenscheid","lat":51.17381,"lon":8.60338,"ele":698},{"name":"Hundsrücken","lat":51.11816,"lon":8.57664,"ele":698},{"name":"Ruhrkopf","lat":51.21132,"lon":8.55375,"ele":696},{"name":"Hömberg","lat":51.15479,"lon":8.4423,"ele":696},{"name":"Steinert","lat":51.12654,"lon":8.44469,"ele":695},{"name":"Beieck","lat":51.28695,"lon":8.52783,"ele":695},{"name":"Kompass","lat":50.88554,"lon":8.28927,"ele":694},{"name":"Holzplatz","lat":51.14008,"lon":8.39087,"ele":694},{"name":"Höhe","lat":51.13432,"lon":8.34622,"ele":694},{"name":"Auf der Helle","lat":51.1896,"lon":8.42728,"ele":693},{"name":"Hockenstein","lat":51.2852,"lon":8.3584,"ele":693},{"name":"Weißer Stein","lat":50.40848,"lon":6.36981,"ele":693},{"name":"Hallohr","lat":51.114,"lon":8.48179,"ele":693},{"name":"Sternberg","lat":51.29033,"lon":8.35275,"ele":692},{"name":"Peterskopf","lat":51.09557,"lon":8.49709,"ele":692},{"name":"Großer Saukopf","lat":51.13863,"lon":8.44598,"ele":691},{"name":"Katerkopf","lat":51.17699,"lon":8.56644,"ele":691},{"name":"Bächenkopf","lat":51.1361,"lon":8.55807,"ele":691},{"name":"Kreuz Habuche","lat":51.33907,"lon":8.59399,"ele":691},{"name":"Ennest","lat":51.14955,"lon":8.42313,"ele":691},{"name":"Hackelberg","lat":51.14497,"lon":8.56416,"ele":690},{"name":"Hüttenkopf","lat":51.33549,"lon":8.59247,"ele":690},{"name":"Hemberg","lat":51.35146,"lon":8.6413,"ele":689},{"name":"Himberg","lat":51.13818,"lon":8.16745,"ele":689},{"name":"Kleine Hohscheid","lat":51.0943,"lon":8.3693,"ele":689},{"name":"Alter Weg","lat":51.22949,"lon":8.52357,"ele":688},{"name":"Ebschloh","lat":50.97025,"lon":8.27165,"ele":686},{"name":"Holzbrush","lat":50.39701,"lon":6.3569,"ele":685},{"name":"Auergang","lat":51.14815,"lon":8.18469,"ele":684},{"name":"Schwabenberg","lat":51.27491,"lon":8.42912,"ele":684},{"name":"Großer Niggenberg","lat":51.16717,"lon":8.57964,"ele":683},{"name":"Rothekopf","lat":51.33639,"lon":8.6209,"ele":682},{"name":"Kernebrockskopf","lat":51.28219,"lon":8.378,"ele":682},{"name":"Zwistkopf","lat":51.15597,"lon":8.48208,"ele":682},{"name":"Egge","lat":51.22369,"lon":8.57466,"ele":681},{"name":"Ohlberg","lat":51.18842,"lon":8.35791,"ele":681},{"name":"Hohenstein","lat":51.29023,"lon":8.42422,"ele":681},{"name":"Kleiner Bromberg","lat":51.16518,"lon":8.59726,"ele":680},{"name":"Ahrenkopf","lat":51.13336,"lon":8.5235,"ele":680},{"name":"Ochsenscheid","lat":51.2649,"lon":8.42803,"ele":680},{"name":"Ösenberg","lat":51.14815,"lon":8.19898,"ele":679},{"name":"Emmekopf","lat":51.12394,"lon":8.41888,"ele":678},{"name":"Riemen","lat":51.01796,"lon":8.18252,"ele":677},{"name":"Bachekopf","lat":51.14326,"lon":8.52064,"ele":677},{"name":"Jagdberg","lat":50.8839,"lon":8.27239,"ele":676},{"name":"Oberste Henn","lat":50.9439,"lon":8.21249,"ele":676},{"name":"Remberg","lat":51.21172,"lon":8.47396,"ele":676},{"name":"Große Helle","lat":51.0687,"lon":8.48929,"ele":676},{"name":"Giebel","lat":51.1976,"lon":8.60674,"ele":675},{"name":"Hoher Dienberg","lat":51.19913,"lon":8.63008,"ele":675},{"name":"Loh","lat":51.07739,"lon":8.34374,"ele":675},{"name":"Braberg","lat":51.28195,"lon":8.46073,"ele":675},{"name":"Rehkopf","lat":51.32571,"lon":8.57584,"ele":674},{"name":"Henkmannskopf","lat":51.22515,"lon":8.62805,"ele":674},{"name":"Wolfsberg","lat":50.42766,"lon":6.37224,"ele":674},{"name":"Dreiherrnstein","lat":51.01996,"lon":8.18852,"ele":673},{"name":"Narenberg","lat":51.24038,"lon":8.37134,"ele":673},{"name":"Hemmer","lat":51.21976,"lon":8.3272,"ele":672},{"name":"Sellerberg","lat":51.14137,"lon":8.59555,"ele":671},{"name":"Himmelskrone","lat":51.2246,"lon":8.47074,"ele":671},{"name":"Rohrbachskopf","lat":51.14918,"lon":8.47071,"ele":671},{"name":"Auf'm Riese","lat":51.28347,"lon":8.42789,"ele":671},{"name":"Milsenberg","lat":51.05693,"lon":8.16155,"ele":670},{"name":"Borberg","lat":51.35681,"lon":8.54166,"ele":670},{"name":"Hömberg","lat":51.22938,"lon":8.31503,"ele":670},{"name":"Kleiner Hoher Stein","lat":51.09964,"lon":8.58639,"ele":669},{"name":"Twerenberg","lat":51.3419,"lon":8.63373,"ele":669},{"name":"Hengstkopf","lat":51.21515,"lon":8.54015,"ele":668},{"name":"Hoher Lehnberg","lat":51.13625,"lon":8.15725,"ele":667},{"name":"Burg","lat":51.08251,"lon":8.46225,"ele":667},{"name":"Scheidskopf","lat":51.12283,"lon":8.46882,"ele":667},{"name":"Heidkopf","lat":51.1102,"lon":8.27864,"ele":666},{"name":"Pferdschuss","lat":51.08244,"lon":8.35797,"ele":665},{"name":"Klockliet","lat":51.33553,"lon":8.56679,"ele":665},{"name":"Schneisberg","lat":51.11437,"lon":8.27168,"ele":664},{"name":"Nordhelle","lat":51.14831,"lon":7.75973,"ele":663},{"name":"Voßmeskopf","lat":51.23764,"lon":8.52364,"ele":663},{"name":"Bärbelkreuz","lat":50.4196,"lon":6.47398,"ele":663},{"name":"Rentmeisterskopf","lat":51.06294,"lon":8.44394,"ele":663},{"name":"Winterkasten","lat":51.18711,"lon":8.63599,"ele":663},{"name":"Schling","lat":51.15658,"lon":8.59506,"ele":662},{"name":"Schmitzkopf","lat":51.07167,"lon":8.4817,"ele":662},{"name":"Neujagen","lat":51.06473,"lon":8.4611,"ele":662},{"name":"Halfersürenberg","lat":51.217,"lon":8.53234,"ele":661},{"name":"Hülsberg","lat":51.1467,"lon":8.17733,"ele":661},{"name":"Elstrauch","lat":51.09647,"lon":8.41638,"ele":661},{"name":"Birkenhecke","lat":50.94964,"lon":8.26236,"ele":661},{"name":"Bergstey","lat":51.21336,"lon":8.31339,"ele":661},{"name":"Schellhorn","lat":51.1737,"lon":8.37507,"ele":660},{"name":"Kleine Bamicke","lat":51.10068,"lon":8.30522,"ele":660},{"name":"Hundschütt","lat":51.34511,"lon":8.61993,"ele":660},{"name":"Kreuzsteinchen","lat":51.25813,"lon":8.54168,"ele":659},{"name":"Hardt","lat":51.16592,"lon":8.37065,"ele":659},{"name":"Bergelchen","lat":51.1989,"lon":8.3834,"ele":659},{"name":"Steling","lat":50.57861,"lon":6.21191,"ele":658},{"name":"Pfaffenhain","lat":50.9735,"lon":8.16648,"ele":658},{"name":"Wilzenberg","lat":51.15365,"lon":8.33088,"ele":658},{"name":"Kippesberg","lat":51.11303,"lon":8.23056,"ele":658},{"name":"Burgkopf","lat":51.05463,"lon":8.24451,"ele":658},{"name":"Ginsterkopf","lat":51.34347,"lon":8.56466,"ele":657},{"name":"Homert","lat":51.26351,"lon":8.10594,"ele":656},{"name":"Große Hohscheid","lat":51.08688,"lon":8.37271,"ele":656},{"name":"Hoher Wald","lat":51.02287,"lon":8.02096,"ele":656},{"name":"Klarstein","lat":50.99287,"lon":8.17548,"ele":655},{"name":"Fahlenholz","lat":51.17928,"lon":8.39399,"ele":655},{"name":"Trinsberg","lat":51.17759,"lon":8.38688,"ele":655},{"name":"Goldener Strauch","lat":51.27896,"lon":8.30517,"ele":654},{"name":"Drommberg","lat":51.10806,"lon":8.25261,"ele":653},{"name":"Großer Prenzenbergerkopf","lat":51.0424,"lon":8.43226,"ele":653},{"name":"Overlackersberg","lat":51.30741,"lon":8.46986,"ele":653},{"name":"Habberg","lat":51.34712,"lon":8.56094,"ele":652},{"name":"Sellenstücke","lat":51.2346,"lon":8.03349,"ele":651},{"name":"Hirschberg","lat":51.16368,"lon":8.39025,"ele":651},{"name":"Baumberg","lat":51.24324,"lon":8.34209,"ele":651},{"name":"Ederkopf","lat":50.94027,"lon":8.21504,"ele":649},{"name":"Buchenhain","lat":50.99973,"lon":8.15668,"ele":649},{"name":"Brückenkopf","lat":50.89562,"lon":8.27438,"ele":649},{"name":"Schomberg","lat":51.23944,"lon":8.00569,"ele":647},{"name":"Rehberg","lat":51.1457,"lon":7.79009,"ele":646},{"name":"Steinschab","lat":51.13108,"lon":8.59471,"ele":646},{"name":"Schurenstein","lat":51.2943,"lon":8.52079,"ele":645},{"name":"Aukopf","lat":50.92452,"lon":8.23334,"ele":645},{"name":"Hohe Warte","lat":51.05445,"lon":8.53055,"ele":645},{"name":"Teufelskopf","lat":51.2125,"lon":8.3206,"ele":645},{"name":"Rothloh","lat":51.24582,"lon":8.03822,"ele":644},{"name":"Kleiner Bubenbracht","lat":51.0558,"lon":8.46814,"ele":644},{"name":"Stein","lat":50.96684,"lon":8.45226,"ele":644},{"name":"Wacht","lat":51.15193,"lon":8.58953,"ele":643},{"name":"Hoher Stein","lat":51.28797,"lon":8.34235,"ele":643},{"name":"Habichtscheid","lat":51.25746,"lon":8.42195,"ele":643},{"name":"Strang","lat":51.2045,"lon":8.46271,"ele":642},{"name":"Frettloh","lat":51.20982,"lon":8.44884,"ele":642},{"name":"Hoher Hagen","lat":51.15269,"lon":8.20765,"ele":642},{"name":"Wolfshorn","lat":51.04389,"lon":8.02501,"ele":642},{"name":"Örenstein","lat":51.36559,"lon":8.65208,"ele":642},{"name":"Leimschlade","lat":51.1846,"lon":8.36295,"ele":642},{"name":"Vogelsberg","lat":51.03999,"lon":8.1792,"ele":642},{"name":"Kleiner Hastenberg","lat":51.22493,"lon":8.39645,"ele":642},{"name":"Goldener Zapfen","lat":51.01338,"lon":8.15687,"ele":641},{"name":"Langenberg","lat":51.13317,"lon":8.57391,"ele":641},{"name":"Großer Bubenbracht","lat":51.05343,"lon":8.46622,"ele":640},{"name":"Darre","lat":51.04815,"lon":8.24051,"ele":639},{"name":"Hesseberg","lat":51.06863,"lon":8.43619,"ele":639},{"name":"Auf dem Höchsten","lat":51.03348,"lon":8.10148,"ele":637},{"name":"Schneidersberg","lat":51.09616,"lon":8.28679,"ele":636},{"name":"Rüenhardt","lat":51.14885,"lon":7.80294,"ele":636},{"name":"Meisterstein","lat":51.24148,"lon":8.47741,"ele":636},{"name":"Teufelskopf","lat":51.21408,"lon":8.3271,"ele":636},{"name":"Hömberg","lat":51.19322,"lon":8.32379,"ele":635},{"name":"Schmale Seite","lat":51.04364,"lon":8.45674,"ele":635},{"name":"Balsenberg","lat":51.29259,"lon":8.46005,"ele":635},{"name":"Birkenstein","lat":51.15754,"lon":8.51094,"ele":635},{"name":"Sorpeberg","lat":51.2479,"lon":8.00097,"ele":634},{"name":"Hilmesberg","lat":51.1497,"lon":8.61167,"ele":634},{"name":"Bocksberg","lat":50.93484,"lon":8.20107,"ele":634},{"name":"Alte Burg","lat":50.93504,"lon":8.15472,"ele":633},{"name":"Juden","lat":51.35721,"lon":8.55795,"ele":633},{"name":"Gelsterhagen","lat":51.20894,"lon":8.28956,"ele":633},{"name":"Juden","lat":51.35964,"lon":8.56324,"ele":632},{"name":"Waldberg","lat":51.14738,"lon":7.77302,"ele":632},{"name":"Birkegge","lat":51.31035,"lon":8.46248,"ele":632},{"name":"Großer Buttenberg","lat":51.36745,"lon":8.66413,"ele":631},{"name":"Soel","lat":51.26135,"lon":8.40004,"ele":631},{"name":"Wahlkopf","lat":51.22006,"lon":8.64781,"ele":630},{"name":"Stiegelburg","lat":50.8898,"lon":8.23711,"ele":630},{"name":"Boden","lat":51.06087,"lon":8.47129,"ele":630},{"name":"Breiter Berg","lat":50.93708,"lon":8.17442,"ele":629},{"name":"Drei Buchen","lat":51.01516,"lon":8.14125,"ele":629},{"name":"Homberg","lat":51.08447,"lon":8.275,"ele":629},{"name":"Schweizerkopf","lat":51.05891,"lon":8.46315,"ele":629},{"name":"Kleiner Niggenberg","lat":51.16131,"lon":8.58687,"ele":628},{"name":"Burgberg","lat":51.17837,"lon":8.36115,"ele":628},{"name":"Räderkopf","lat":51.06311,"lon":8.50514,"ele":628},{"name":"Spreitzkopf","lat":50.89024,"lon":8.3801,"ele":627},{"name":"Lohkopf","lat":51.25083,"lon":8.35291,"ele":627},{"name":"Herrenberg","lat":50.87584,"lon":8.26139,"ele":627},{"name":"Waldeshöhe","lat":51.26209,"lon":8.00608,"ele":626},{"name":"Wolfhardt","lat":51.05587,"lon":7.9868,"ele":626},{"name":"Strauchelberg","lat":51.0409,"lon":8.13282,"ele":626},{"name":"Hüttenberg","lat":50.98,"lon":8.15328,"ele":625},{"name":"Roth","lat":51.19364,"lon":8.59153,"ele":625},{"name":"Haberg","lat":51.03972,"lon":8.1979,"ele":625},{"name":"Jürgensberg","lat":51.14069,"lon":8.1327,"ele":625},{"name":"Großer Steinberg","lat":51.21679,"lon":8.6477,"ele":624},{"name":"Steinberg","lat":51.10857,"lon":8.18325,"ele":624},{"name":"Lümke","lat":51.02467,"lon":8.12554,"ele":624},{"name":"Bärenköpfchen","lat":51.09452,"lon":8.38127,"ele":624},{"name":"Bauernkopf","lat":51.18853,"lon":8.62559,"ele":624},{"name":"Burg","lat":51.32368,"lon":8.38517,"ele":624},{"name":"Lahnkopf","lat":50.89584,"lon":8.24584,"ele":624},{"name":"Stolzenberg","lat":51.15965,"lon":8.62667,"ele":623},{"name":"Kähling","lat":51.1231,"lon":8.21795,"ele":622},{"name":"Heisterberg","lat":51.09604,"lon":8.17493,"ele":622},{"name":"Bilstein","lat":51.38256,"lon":8.62745,"ele":622},{"name":"Auf dem Alten Holz","lat":51.17101,"lon":8.58028,"ele":621},{"name":"Kehlenberg","lat":51.24194,"lon":8.38763,"ele":621},{"name":"Helle","lat":51.15475,"lon":8.16888,"ele":621},{"name":"Ilberg","lat":51.10676,"lon":8.14725,"ele":621},{"name":"Ehrenberg","lat":51.25584,"lon":8.31885,"ele":621},{"name":"Wolkenberg","lat":51.28902,"lon":8.46912,"ele":620},{"name":"Bilsburg","lat":51.04134,"lon":8.27536,"ele":619},{"name":"Puderburg","lat":50.9522,"lon":8.45941,"ele":619},{"name":"Kindelsberg","lat":50.98987,"lon":8.00377,"ele":618},{"name":"Buchhelle","lat":50.98959,"lon":8.15834,"ele":618},{"name":"Baukloh","lat":51.25351,"lon":8.05309,"ele":618},{"name":"Windhain","lat":51.06996,"lon":8.31864,"ele":618},{"name":"Burg","lat":51.19541,"lon":8.57209,"ele":617},{"name":"Schusterknapp","lat":51.35151,"lon":8.55641,"ele":616},{"name":"Stüvelhagen","lat":51.05725,"lon":8.09795,"ele":616},{"name":"Somberg","lat":51.22612,"lon":8.28101,"ele":616},{"name":"Wellberg","lat":51.22196,"lon":8.30347,"ele":616},{"name":"Heide","lat":51.13741,"lon":8.12576,"ele":615},{"name":"Lauberg","lat":51.08879,"lon":8.38352,"ele":615},{"name":"Haingraben","lat":51.04248,"lon":8.46366,"ele":615},{"name":"Helle Pine","lat":51.26383,"lon":8.32236,"ele":615},{"name":"Sähling","lat":51.06401,"lon":8.41825,"ele":615},{"name":"Beerenberg","lat":51.14642,"lon":8.25047,"ele":614},{"name":"Steinhelle","lat":51.33608,"lon":8.4797,"ele":612},{"name":"Rinnekopf","lat":51.06432,"lon":8.34138,"ele":612},{"name":"Hüttenböhl","lat":51.04906,"lon":8.47574,"ele":612},{"name":"Haferhagen","lat":51.13247,"lon":8.10697,"ele":611},{"name":"Schroersberg","lat":51.04793,"lon":8.13359,"ele":611},{"name":"Estenberg","lat":51.27377,"lon":8.11919,"ele":610},{"name":"Köpfchen","lat":51.3724,"lon":8.67527,"ele":610},{"name":"Große Bamicke","lat":51.10321,"lon":8.31898,"ele":610},{"name":"Martinshardt","lat":50.98725,"lon":8.02109,"ele":609},{"name":"Hohenstift","lat":50.98506,"lon":8.47051,"ele":609},{"name":"Bubenberg","lat":51.01078,"lon":8.54139,"ele":609},{"name":"Eichwäldchen","lat":50.86142,"lon":8.31929,"ele":608},{"name":"Sanktkopf","lat":50.92294,"lon":8.17426,"ele":607},{"name":"Herrscheid","lat":51.12808,"lon":8.14961,"ele":607},{"name":"Lichtenhardt","lat":51.06048,"lon":8.14278,"ele":607},{"name":"Adlerkopf","lat":50.86315,"lon":8.24289,"ele":607},{"name":"Poppenberg","lat":51.37727,"lon":8.56716,"ele":606},{"name":"Hermannstein","lat":51.04691,"lon":8.49105,"ele":606},{"name":"Haincher Höhe - Südwestkuppe","lat":50.83789,"lon":8.21034,"ele":606},{"name":"Birkhahn","lat":50.99305,"lon":8.01036,"ele":605},{"name":"Kuhhelle","lat":51.12432,"lon":8.08975,"ele":603},{"name":"Pankoppe","lat":51.25038,"lon":8.03518,"ele":602},{"name":"Pahenberg","lat":51.26878,"lon":8.3282,"ele":602},{"name":"Hahnkopf","lat":50.98172,"lon":8.1727,"ele":601},{"name":"Reifelscheid","lat":51.07686,"lon":8.40103,"ele":601},{"name":"Eichain","lat":50.96252,"lon":8.17863,"ele":601},{"name":"Hoppecke Berg","lat":51.36783,"lon":8.64124,"ele":600},{"name":"Schüllarsberg","lat":51.0856,"lon":8.39921,"ele":600},{"name":"Bracht","lat":51.15717,"lon":8.15212,"ele":599},{"name":"Burg","lat":51.04086,"lon":8.30224,"ele":599},{"name":"Windbrachekopf","lat":51.07371,"lon":8.38219,"ele":598},{"name":"Menzeberg","lat":51.06826,"lon":8.34285,"ele":598},{"name":"Buchholz","lat":51.06735,"lon":8.30184,"ele":598},{"name":"Die Höh","lat":50.73944,"lon":8.10863,"ele":598},{"name":"Rothenstein","lat":51.1206,"lon":7.67609,"ele":597},{"name":"Großes Hillscheid","lat":51.05164,"lon":8.40637,"ele":597},{"name":"Iberg","lat":51.30586,"lon":8.5188,"ele":596},{"name":"Ellenborn Brachthauser-Klippen","lat":51.0403,"lon":8.09527,"ele":596},{"name":"Hesseberg","lat":51.20842,"lon":8.66064,"ele":596},{"name":"Gramberg","lat":51.08205,"lon":8.32611,"ele":596},{"name":"Rinseberg","lat":51.07751,"lon":8.16694,"ele":596},{"name":"Eisenberg","lat":51.36818,"lon":8.51915,"ele":595},{"name":"Eisenberg","lat":51.37681,"lon":8.73437,"ele":595},{"name":"Winterscheid","lat":51.05297,"lon":8.3397,"ele":595},{"name":"Bauskert","lat":51.26826,"lon":8.12962,"ele":595},{"name":"Vogelsang","lat":51.33255,"lon":8.31742,"ele":595},{"name":"Die Burg","lat":50.73841,"lon":8.0662,"ele":595},{"name":"Hardt","lat":51.22746,"lon":8.7007,"ele":594},{"name":"Heidenkopf III","lat":50.38386,"lon":6.58643,"ele":594},{"name":"Ewigeberg","lat":51.08576,"lon":8.29751,"ele":594},{"name":"Giersberg","lat":51.14707,"lon":8.3656,"ele":594},{"name":"Hamberg","lat":51.13832,"lon":8.11531,"ele":594},{"name":"Forstenberg","lat":51.36876,"lon":8.5444,"ele":593},{"name":"Steinbrink","lat":51.0539,"lon":7.95324,"ele":593},{"name":"Hoher Ransen","lat":51.31062,"lon":8.20291,"ele":593},{"name":"Urbachskopf","lat":51.06101,"lon":8.43187,"ele":593},{"name":"Bremscheid","lat":51.28444,"lon":8.29754,"ele":593},{"name":"Rempel","lat":51.24087,"lon":8.67073,"ele":592},{"name":"Buchhagen","lat":51.25533,"lon":8.39918,"ele":592},{"name":"Markshöhe","lat":51.30337,"lon":8.1954,"ele":591},{"name":"Kappler Bracht","lat":51.05662,"lon":8.26583,"ele":591},{"name":"Heidenkopf I","lat":50.39534,"lon":6.57248,"ele":591},{"name":"Homberg","lat":51.0214,"lon":8.48891,"ele":590},{"name":"Didold","lat":50.96966,"lon":8.47338,"ele":590},{"name":"Engelsberg","lat":51.03112,"lon":7.93598,"ele":589},{"name":"Zimenskopf","lat":51.30687,"lon":8.19491,"ele":589},{"name":"Hohe Bracht","lat":51.08327,"lon":8.04024,"ele":587},{"name":"Böhlen","lat":51.22376,"lon":8.6735,"ele":587},{"name":"Schlossberg","lat":50.97408,"lon":8.1455,"ele":587},{"name":"Großes Sonnenstück","lat":51.30281,"lon":8.09682,"ele":587},{"name":"Michelsberg","lat":50.51258,"lon":6.82425,"ele":586},{"name":"Zwöllberg","lat":51.37275,"lon":8.51659,"ele":586},{"name":"Alberstein","lat":51.07879,"lon":8.04465,"ele":586},{"name":"Bauernschütt","lat":51.35855,"lon":8.60801,"ele":586},{"name":"Feldebel-Berg","lat":51.22708,"lon":8.67203,"ele":585},{"name":"Nümmert","lat":51.16041,"lon":7.72724,"ele":585},{"name":"Burgfeld","lat":51.06076,"lon":8.3773,"ele":585},{"name":"Windsberg","lat":51.40028,"lon":8.50958,"ele":585},{"name":"Buchhagen","lat":51.20123,"lon":8.10806,"ele":585},{"name":"Heidenkopf II","lat":50.38167,"lon":6.56253,"ele":585},{"name":"Astenberg","lat":51.28972,"lon":8.31688,"ele":585},{"name":"Sellberg","lat":51.21645,"lon":8.3033,"ele":585},{"name":"Steinwäldchen","lat":50.91995,"lon":8.19918,"ele":584},{"name":"Heiligenstuhl","lat":51.20523,"lon":7.92957,"ele":584},{"name":"Hüstenberg","lat":51.04841,"lon":8.15558,"ele":584},{"name":"Österhöh","lat":51.1182,"lon":7.68884,"ele":583},{"name":"Lingelscheid","lat":51.15254,"lon":8.38758,"ele":583},{"name":"Rother Stein","lat":51.05812,"lon":7.92521,"ele":582},{"name":"Weidebachs-Kopf","lat":50.92378,"lon":8.187,"ele":582},{"name":"Auf der Istert","lat":51.24653,"lon":8.30464,"ele":582},{"name":"Plackweghöhe","lat":51.39557,"lon":8.34617,"ele":582},{"name":"Limberg","lat":51.34897,"lon":8.66411,"ele":582},{"name":"Noltenköpfchen","lat":51.21536,"lon":8.59433,"ele":581},{"name":"Heidberg","lat":50.45406,"lon":6.54401,"ele":581},{"name":"Hebberg","lat":51.14453,"lon":8.14499,"ele":581},{"name":"Rossnacken","lat":51.11836,"lon":8.18677,"ele":581},{"name":"Allersberg","lat":51.25076,"lon":8.01888,"ele":580},{"name":"Griebelberg","lat":51.07112,"lon":8.35785,"ele":580},{"name":"Trüttenberg","lat":51.22863,"lon":8.04151,"ele":580},{"name":"Lütkenstein","lat":51.32519,"lon":8.55281,"ele":580},{"name":"Auf dem Kopfe","lat":51.26288,"lon":8.30437,"ele":580},{"name":"Stöppelkopf","lat":51.12529,"lon":8.13296,"ele":580},{"name":"Kalteiche","lat":50.80005,"lon":8.1355,"ele":579},{"name":"Hömberg","lat":51.3163,"lon":8.21066,"ele":579},{"name":"Spie-Berg","lat":51.23201,"lon":8.69929,"ele":578},{"name":"Sommerhagen","lat":51.26024,"lon":8.01731,"ele":578},{"name":"Auf dem Sohl","lat":51.06059,"lon":8.30454,"ele":578},{"name":"Klettenberg","lat":51.25503,"lon":8.07258,"ele":578},{"name":"Freier Stein","lat":51.13466,"lon":8.60207,"ele":576},{"name":"Dümberg","lat":51.30127,"lon":8.06044,"ele":576},{"name":"Hasselt","lat":51.15006,"lon":8.134,"ele":576},{"name":"Hasselt","lat":51.15377,"lon":8.13722,"ele":576},{"name":"Engelbertstein","lat":51.07026,"lon":8.15061,"ele":575},{"name":"Kophelle","lat":51.03727,"lon":8.06905,"ele":575},{"name":"Braberg","lat":51.30928,"lon":8.17115,"ele":575},{"name":"Berlarberg","lat":51.31181,"lon":8.38532,"ele":575},{"name":"Hardt","lat":51.33433,"lon":8.33002,"ele":575},{"name":"Hohe Molmert","lat":51.21448,"lon":7.82485,"ele":574},{"name":"Hansbeul","lat":51.24187,"lon":8.26828,"ele":574},{"name":"Hermannsberg","lat":50.94208,"lon":8.45102,"ele":574},{"name":"Auf dem Brande","lat":51.20201,"lon":8.0988,"ele":574},{"name":"Steimel","lat":51.19056,"lon":8.58433,"ele":573},{"name":"Breitenberg","lat":51.04039,"lon":8.24989,"ele":573},{"name":"Dümpelberg","lat":51.26906,"lon":8.14108,"ele":573},{"name":"Juberg","lat":51.1388,"lon":8.14999,"ele":573},{"name":"Hülsenberg","lat":51.20813,"lon":8.12466,"ele":573},{"name":"Hülsemberg","lat":51.20595,"lon":8.11878,"ele":573},{"name":"Hohe","lat":50.5894,"lon":6.2612,"ele":572},{"name":"Schmallenberg","lat":51.05836,"lon":8.3297,"ele":572},{"name":"Eicherte","lat":51.06944,"lon":8.36823,"ele":572},{"name":"Heimberg","lat":51.32245,"lon":8.37233,"ele":572},{"name":"Kaßhömberg","lat":51.22968,"lon":8.05927,"ele":572},{"name":"Schnabel","lat":51.0769,"lon":8.25897,"ele":571},{"name":"Himmenbeul","lat":51.23566,"lon":8.30801,"ele":571},{"name":"Kathenberg","lat":51.22677,"lon":8.06487,"ele":571},{"name":"Gottelsberg","lat":50.94403,"lon":8.34806,"ele":570},{"name":"Hasenknick","lat":51.24337,"lon":8.11256,"ele":569},{"name":"Kaltenscheid","lat":51.17923,"lon":8.61566,"ele":568},{"name":"Görzberg","lat":50.89408,"lon":8.39621,"ele":567},{"name":"Linsenberg","lat":51.15436,"lon":8.66735,"ele":566},{"name":"Essenberg","lat":51.26416,"lon":8.09103,"ele":566},{"name":"Ostenberg","lat":51.34672,"lon":8.39279,"ele":566},{"name":"Ramberg","lat":51.29325,"lon":8.08754,"ele":565},{"name":"Bollenberg","lat":51.17638,"lon":8.64292,"ele":565},{"name":"Kahlenberg","lat":51.15998,"lon":8.17871,"ele":565},{"name":"Rehhecke","lat":51.06995,"lon":8.01693,"ele":565},{"name":"Ermberg","lat":50.37262,"lon":6.51151,"ele":565},{"name":"Markberg","lat":51.19647,"lon":7.93637,"ele":564},{"name":"Rammelsberg","lat":51.09296,"lon":8.39704,"ele":564},{"name":"Rosekopf","lat":51.0568,"lon":8.34548,"ele":564},{"name":"Gischkopf","lat":50.36315,"lon":6.4867,"ele":564},{"name":"Albaumer Höhe","lat":51.01944,"lon":8.11157,"ele":563},{"name":"Hohe Liete","lat":51.28803,"lon":8.06493,"ele":563},{"name":"Burgberg","lat":50.88531,"lon":8.33867,"ele":563},{"name":"Sternberg","lat":51.05184,"lon":7.96509,"ele":563},{"name":"Käppelchen","lat":51.25088,"lon":8.46171,"ele":563},{"name":"Herscheid","lat":51.17528,"lon":8.15415,"ele":563},{"name":"Herckerhagen","lat":51.12124,"lon":8.25825,"ele":563},{"name":"Weiße Frau","lat":51.40685,"lon":8.7031,"ele":562},{"name":"Haunscheid","lat":51.27441,"lon":8.00191,"ele":562},{"name":"Hommerichskopf","lat":50.87776,"lon":8.39407,"ele":562},{"name":"Mittelsberg","lat":51.38148,"lon":8.6984,"ele":561},{"name":"Kohlhölzchen","lat":51.24889,"lon":8.07123,"ele":561},{"name":"Am Knapp","lat":51.24059,"lon":7.98685,"ele":561},{"name":"Buchholz","lat":50.97533,"lon":8.48987,"ele":561},{"name":"Kleines Hillscheid","lat":51.04762,"lon":8.4054,"ele":561},{"name":"Leissmer","lat":51.19853,"lon":8.28684,"ele":561},{"name":"Serkenroder Homert","lat":51.21937,"lon":8.05402,"ele":561},{"name":"Hansenberg","lat":51.38597,"lon":8.67894,"ele":560},{"name":"Denstenberg","lat":51.27227,"lon":7.97445,"ele":560},{"name":"Vogelsang","lat":51.04265,"lon":7.95745,"ele":560},{"name":"Krähenberg","lat":51.26471,"lon":8.06882,"ele":560},{"name":"Gudenhagener Poppenberg","lat":51.37191,"lon":8.57691,"ele":560},{"name":"Addebach","lat":51.00764,"lon":8.07054,"ele":560},{"name":"Butzeberg","lat":50.94333,"lon":8.40632,"ele":560},{"name":"Lumberg","lat":51.24296,"lon":8.23449,"ele":560},{"name":"Brandhagen","lat":51.28803,"lon":8.11236,"ele":559},{"name":"Henneberg","lat":51.27115,"lon":8.15247,"ele":559},{"name":"Stromberg","lat":50.39412,"lon":6.63642,"ele":559},{"name":"Blackshahns Kopf","lat":51.2599,"lon":7.98906,"ele":558},{"name":"Birke","lat":51.03757,"lon":8.47661,"ele":558},{"name":"Bromberg","lat":51.21244,"lon":8.6773,"ele":557},{"name":"Eggenberg","lat":51.24511,"lon":7.93502,"ele":557},{"name":"Warsteiner Kopf","lat":51.38817,"lon":8.35404,"ele":557},{"name":"Schneiderkopf","lat":51.18766,"lon":8.13909,"ele":557},{"name":"Am Aufgange","lat":51.37838,"lon":8.70801,"ele":557},{"name":"Eschenberg","lat":51.37319,"lon":8.61177,"ele":557},{"name":"Waare","lat":51.06317,"lon":8.00234,"ele":556},{"name":"Feldberg","lat":51.07406,"lon":7.90998,"ele":556},{"name":"Aufm Hohenrodt","lat":51.30451,"lon":8.10913,"ele":555},{"name":"Koppe","lat":51.29926,"lon":8.19506,"ele":555},{"name":"Hangelsche Berg","lat":51.23867,"lon":8.30356,"ele":555},{"name":"Ostenberg","lat":51.28277,"lon":8.13159,"ele":555},{"name":"Eifelkreuz","lat":50.61773,"lon":6.28725,"ele":554},{"name":"Sümberg","lat":51.16323,"lon":7.78674,"ele":554},{"name":"Sterlberg","lat":51.21807,"lon":8.0234,"ele":554},{"name":"Sonder","lat":51.41662,"lon":8.52959,"ele":553},{"name":"Justenberg","lat":51.26595,"lon":7.97061,"ele":553},{"name":"Ringelskopf","lat":51.25221,"lon":8.28166,"ele":553},{"name":"Asberg","lat":50.36289,"lon":6.52049,"ele":553},{"name":"Töte","lat":51.09652,"lon":8.08528,"ele":553},{"name":"Wiesenberg","lat":51.24617,"lon":8.26293,"ele":553},{"name":"Gemeinheitskopf","lat":51.39096,"lon":8.37619,"ele":552},{"name":"Hängeärs","lat":51.24107,"lon":7.96286,"ele":552},{"name":"Wolfskammer","lat":50.90663,"lon":8.39812,"ele":552},{"name":"Bünte","lat":51.12288,"lon":8.1089,"ele":552},{"name":"Scheidt","lat":51.30246,"lon":8.41198,"ele":552},{"name":"Kirchberg","lat":51.1042,"lon":8.12022,"ele":552},{"name":"Wiedebahn","lat":51.24122,"lon":8.6823,"ele":551},{"name":"Langer Berg","lat":51.37023,"lon":8.48458,"ele":551},{"name":"Tiefenrother Höhe","lat":50.81722,"lon":8.17329,"ele":551},{"name":"Niekopf","lat":51.39941,"lon":8.32839,"ele":551},{"name":"Kreuzberg","lat":51.107,"lon":8.60885,"ele":551},{"name":"Böse Burg","lat":51.25554,"lon":8.08161,"ele":551},{"name":"Höhlenberg","lat":50.35399,"lon":6.50745,"ele":551},{"name":"Goldstein","lat":51.13435,"lon":8.19502,"ele":550},{"name":"Großer Kohlhagen","lat":51.31463,"lon":8.20279,"ele":550},{"name":"Ruthenberg","lat":51.34224,"lon":8.52753,"ele":550},{"name":"Immenstein","lat":51.18863,"lon":8.61247,"ele":548},{"name":"Steinfelder Berg","lat":50.45607,"lon":6.52311,"ele":548},{"name":"Plattberg","lat":51.19249,"lon":7.90097,"ele":548},{"name":"Herveler Kopf","lat":51.15256,"lon":7.73445,"ele":548},{"name":"Sunger","lat":51.23665,"lon":8.25948,"ele":548},{"name":"Steimel","lat":51.25202,"lon":8.68155,"ele":547},{"name":"Rauher Berg","lat":51.00687,"lon":8.12966,"ele":547},{"name":"Mühlenberg","lat":50.48394,"lon":6.57357,"ele":547},{"name":"Almberg","lat":51.18675,"lon":7.90294,"ele":547},{"name":"Scheltenberg","lat":51.33626,"lon":8.45881,"ele":547},{"name":"Homerich","lat":50.94889,"lon":8.11786,"ele":546},{"name":"Balver Wald","lat":51.35503,"lon":7.82881,"ele":546},{"name":"Sülsberg","lat":51.31501,"lon":8.17152,"ele":546},{"name":"Heideberg (Altenberg)","lat":51.39921,"lon":8.72777,"ele":546},{"name":"Eilsoffer Bracht","lat":51.03564,"lon":8.48698,"ele":546},{"name":"Höllenstein","lat":50.93763,"lon":8.46163,"ele":546},{"name":"Hesenberg","lat":51.22241,"lon":8.10316,"ele":546},{"name":"Hängeberg","lat":51.37677,"lon":8.59575,"ele":545},{"name":"Auf der Höhe","lat":51.06426,"lon":8.06052,"ele":545},{"name":"Dürrenberg","lat":51.0327,"lon":8.11614,"ele":544},{"name":"Hammerkopf","lat":51.3555,"lon":8.58562,"ele":544},{"name":"Heiligenberg","lat":51.02166,"lon":8.52178,"ele":544},{"name":"Buttenberg","lat":51.37796,"lon":8.68539,"ele":544},{"name":"Leckenberg","lat":51.18628,"lon":8.1336,"ele":544},{"name":"Holzholzer Kopf","lat":50.77514,"lon":8.11851,"ele":543},{"name":"Junkerberg","lat":50.43879,"lon":6.70612,"ele":543},{"name":"Bracht","lat":51.31646,"lon":8.31491,"ele":543},{"name":"Nuttlarer Höhe","lat":51.39988,"lon":8.40133,"ele":542},{"name":"Mattenhagen","lat":51.24254,"lon":7.92006,"ele":542},{"name":"Ruthenberg","lat":51.2341,"lon":7.93781,"ele":542},{"name":"Buttenberg","lat":51.37633,"lon":8.68971,"ele":542},{"name":"Essenberg","lat":51.38699,"lon":8.6938,"ele":542},{"name":"Winnberge","lat":51.30271,"lon":8.17694,"ele":542},{"name":"Ensterknick","lat":51.39039,"lon":8.25435,"ele":542},{"name":"Bracht","lat":51.24196,"lon":8.24602,"ele":542},{"name":"Dühlenberg","lat":51.26773,"lon":8.02185,"ele":542},{"name":"Kleiner Eisenberg","lat":51.37669,"lon":8.5199,"ele":541},{"name":"Steltenberg","lat":51.16694,"lon":7.89428,"ele":541},{"name":"Gängesberg","lat":51.27934,"lon":8.14343,"ele":541},{"name":"Stimmstamm","lat":51.39281,"lon":8.30586,"ele":541},{"name":"Rührberg","lat":51.24038,"lon":8.09106,"ele":541},{"name":"Kahlenberg","lat":51.23117,"lon":8.09458,"ele":541},{"name":"Sehlerberg","lat":51.26345,"lon":8.70529,"ele":540},{"name":"Bleielsnück","lat":50.51846,"lon":6.81982,"ele":540},{"name":"Kahler Kopf","lat":51.1263,"lon":7.71874,"ele":540},{"name":"Buschhagen","lat":51.21519,"lon":7.79169,"ele":540},{"name":"Heilbachsköpfchen","lat":51.0456,"lon":8.28167,"ele":539},{"name":"Sahlenberg","lat":51.26565,"lon":8.0539,"ele":538},{"name":"Sehlberg","lat":51.05336,"lon":8.29757,"ele":538},{"name":"Homert","lat":51.17826,"lon":7.64478,"ele":538},{"name":"Rettenberg","lat":51.24581,"lon":7.96775,"ele":538},{"name":"Kohlhagen","lat":51.15021,"lon":8.60402,"ele":538},{"name":"Gilberg","lat":51.23966,"lon":8.08323,"ele":538},{"name":"Sehler-Berg","lat":51.26194,"lon":8.71114,"ele":537},{"name":"Knippberg","lat":50.54038,"lon":6.82645,"ele":537},{"name":"Breitenberg","lat":51.05174,"lon":8.30593,"ele":537},{"name":"Dasseberg","lat":51.16292,"lon":8.63861,"ele":537},{"name":"Heimberg","lat":51.40028,"lon":8.62775,"ele":536},{"name":"Lange Hardt","lat":51.26412,"lon":8.0242,"ele":536},{"name":"Eben","lat":51.13893,"lon":8.20666,"ele":536},{"name":"Weisgesberg","lat":50.87431,"lon":8.37174,"ele":536},{"name":"Hemberg","lat":51.2453,"lon":7.85352,"ele":535},{"name":"Kupferberg","lat":51.27157,"lon":8.09108,"ele":535},{"name":"Dümmelberg","lat":51.11184,"lon":8.20533,"ele":535},{"name":"Entenberg","lat":50.91803,"lon":8.43388,"ele":535},{"name":"Ilsenberg","lat":51.236,"lon":8.05285,"ele":535},{"name":"Askey","lat":51.10154,"lon":8.04397,"ele":535},{"name":"Hinterm Stöppel","lat":51.04542,"lon":8.37204,"ele":534},{"name":"Dohfert","lat":51.24539,"lon":7.97768,"ele":534},{"name":"Breitenberg","lat":51.00464,"lon":8.06059,"ele":533},{"name":"Battenberg","lat":51.41626,"lon":8.68037,"ele":533},{"name":"Beerenberg","lat":51.28734,"lon":8.14934,"ele":533},{"name":"Faule Seite","lat":50.93252,"lon":8.45083,"ele":533},{"name":"Burg","lat":50.95415,"lon":8.36365,"ele":533},{"name":"Moosberg","lat":51.38198,"lon":8.29068,"ele":533},{"name":"Bornstein","lat":51.28646,"lon":8.49326,"ele":533},{"name":"Heim-Berg","lat":51.23537,"lon":8.72542,"ele":532},{"name":"Menscheid","lat":51.22129,"lon":8.01737,"ele":532},{"name":"Struthberg","lat":50.90482,"lon":8.4103,"ele":532},{"name":"Auf den Köppen","lat":51.2325,"lon":8.26233,"ele":532},{"name":"Saltemberg","lat":51.22432,"lon":8.1195,"ele":532},{"name":"Brandenberg","lat":51.40461,"lon":8.28623,"ele":532},{"name":"Steimel","lat":50.99202,"lon":8.13747,"ele":531},{"name":"Kleiner Buttenberg","lat":51.37411,"lon":8.66292,"ele":531},{"name":"Schwarze Haupt","lat":51.39481,"lon":8.6507,"ele":531},{"name":"Buchhahn","lat":51.18429,"lon":7.91122,"ele":531},{"name":"Twilkenberg","lat":51.07683,"lon":7.92038,"ele":531},{"name":"Birkenhahn","lat":51.23004,"lon":8.0779,"ele":531},{"name":"Hülsenberg","lat":51.24738,"lon":8.24496,"ele":531},{"name":"Galgenberg","lat":51.13709,"lon":8.64651,"ele":530},{"name":"Auf'm Stein","lat":51.25384,"lon":7.97633,"ele":530},{"name":"Auf der Heide","lat":51.29307,"lon":8.10468,"ele":530},{"name":"Hengstenberge","lat":51.1824,"lon":8.14076,"ele":530},{"name":"Robecker Berg","lat":51.17233,"lon":8.30582,"ele":530},{"name":"Brammberg","lat":51.19624,"lon":8.12984,"ele":530},{"name":"Sengenberg","lat":51.37547,"lon":8.40334,"ele":529},{"name":"Brachter Höhe","lat":51.23482,"lon":8.10128,"ele":528},{"name":"Pferdekopf","lat":50.51966,"lon":6.53968,"ele":527},{"name":"Hardt","lat":51.0678,"lon":8.02908,"ele":527},{"name":"Sommerberg","lat":50.43527,"lon":6.71432,"ele":527},{"name":"An der Höhe","lat":51.1575,"lon":7.64284,"ele":527},{"name":"Hohe Rhonard","lat":51.02829,"lon":7.88004,"ele":526},{"name":"Hellberg","lat":50.60656,"lon":6.45875,"ele":526},{"name":"Köpfchen","lat":50.95014,"lon":8.10732,"ele":526},{"name":"Walkersdorfer Berg","lat":50.78386,"lon":8.09589,"ele":526},{"name":"Romberg","lat":51.38958,"lon":8.62616,"ele":525},{"name":"Stühlhahn","lat":51.24951,"lon":7.95756,"ele":525},{"name":"Wildbretshügel","lat":50.61662,"lon":6.42095,"ele":525},{"name":"Jungholz","lat":50.95587,"lon":8.47048,"ele":525},{"name":"Weh-Berg","lat":51.40982,"lon":8.40864,"ele":525},{"name":"Langer Kopf","lat":50.53782,"lon":6.80444,"ele":524},{"name":"Rothenberg","lat":51.0137,"lon":8.08523,"ele":524},{"name":"Mürenberg","lat":51.27012,"lon":8.2783,"ele":524},{"name":"Kohlhagen","lat":51.19651,"lon":8.23966,"ele":524},{"name":"Winterkopf","lat":51.22003,"lon":8.70765,"ele":523},{"name":"Kalvarienberg","lat":50.3673,"lon":6.64125,"ele":523},{"name":"Kromberg","lat":50.97784,"lon":8.13292,"ele":523},{"name":"Hetvert","lat":51.28041,"lon":8.00328,"ele":523},{"name":"Sundhelle","lat":51.17021,"lon":7.79799,"ele":523},{"name":"Rammskopf","lat":51.0918,"lon":7.70253,"ele":523},{"name":"Steinradeberg","lat":51.35378,"lon":7.84276,"ele":523},{"name":"Liverhagen","lat":51.38791,"lon":8.32775,"ele":522},{"name":"Hude","lat":50.76641,"lon":8.10368,"ele":522},{"name":"Berghagener Kopf","lat":51.18799,"lon":7.74071,"ele":522},{"name":"Welsberg","lat":51.32074,"lon":8.23209,"ele":522},{"name":"Böllenberg","lat":51.17232,"lon":7.72854,"ele":522},{"name":"Schieberg","lat":51.26007,"lon":8.33591,"ele":522},{"name":"Christenberg","lat":51.26739,"lon":7.99596,"ele":521},{"name":"Hahnberg","lat":51.11971,"lon":7.71077,"ele":521},{"name":"Ziegenberg","lat":51.00258,"lon":8.02049,"ele":521},{"name":"Herselberg","lat":51.20016,"lon":8.13761,"ele":521},{"name":"Buchhorst","lat":51.34528,"lon":8.47856,"ele":521},{"name":"Schneeberg","lat":51.38776,"lon":8.24093,"ele":520},{"name":"Große Eschenseite","lat":51.36158,"lon":8.69087,"ele":520},{"name":"Berkey","lat":51.2085,"lon":7.76393,"ele":520},{"name":"Schörenberg","lat":51.33081,"lon":8.54862,"ele":520},{"name":"Großer Buchhagen","lat":51.20724,"lon":8.26455,"ele":520},{"name":"Homert","lat":51.07791,"lon":7.69346,"ele":519},{"name":"Losenberg","lat":51.35679,"lon":8.44008,"ele":519},{"name":"Lichteloh","lat":51.28038,"lon":8.04587,"ele":519},{"name":"Raumberg","lat":51.39449,"lon":8.72822,"ele":519},{"name":"Koppel","lat":51.09328,"lon":7.67422,"ele":519},{"name":"Almert","lat":51.21627,"lon":7.97626,"ele":519},{"name":"Primenekes Kopf","lat":51.18391,"lon":8.06974,"ele":519},{"name":"Kuhlenberg","lat":51.04751,"lon":8.03968,"ele":518},{"name":"Lausnück","lat":50.5022,"lon":6.85505,"ele":517},{"name":"Homert","lat":51.25154,"lon":7.87382,"ele":517},{"name":"Am Löh","lat":51.33256,"lon":8.43184,"ele":517},{"name":"Padberg","lat":51.39996,"lon":8.76804,"ele":517},{"name":"Ruine Alte Burg","lat":51.40003,"lon":8.76806,"ele":516},{"name":"Östenberg","lat":51.41309,"lon":8.54518,"ele":516},{"name":"Gebrannte Kopf","lat":50.91695,"lon":8.42019,"ele":516},{"name":"Weibersberg","lat":50.93793,"lon":8.40844,"ele":516},{"name":"Stertberg","lat":51.20484,"lon":8.14475,"ele":516},{"name":"Wahlsnück","lat":50.51574,"lon":6.83759,"ele":515},{"name":"Horst","lat":51.10718,"lon":7.75172,"ele":515},{"name":"Silberkuhle","lat":50.97699,"lon":7.75387,"ele":515},{"name":"Quinhagen","lat":51.08857,"lon":7.96177,"ele":515},{"name":"Stolleshagen","lat":51.21267,"lon":8.05602,"ele":515},{"name":"Kop Nück","lat":50.50099,"lon":6.79694,"ele":514},{"name":"Kohlberg","lat":51.29424,"lon":7.76718,"ele":514},{"name":"Greverhagen","lat":51.38427,"lon":8.30881,"ele":514},{"name":"Gretenberg","lat":51.40819,"lon":8.53178,"ele":514},{"name":"Stemmel","lat":51.42926,"lon":8.70428,"ele":514},{"name":"Eichhahn","lat":51.17389,"lon":7.90475,"ele":514},{"name":"Neuer Berg","lat":51.40699,"lon":8.22991,"ele":513},{"name":"Der kleine Romberg","lat":51.38878,"lon":8.62245,"ele":513},{"name":"Heidkopf","lat":51.42771,"lon":8.67743,"ele":513},{"name":"Mark","lat":51.05818,"lon":7.71221,"ele":513},{"name":"Elberscheid","lat":50.99751,"lon":7.87909,"ele":513},{"name":"Baudenberg","lat":50.79324,"lon":8.08185,"ele":513},{"name":"Hardt","lat":50.92885,"lon":8.45587,"ele":513},{"name":"Sandhelle","lat":50.9159,"lon":8.16174,"ele":512},{"name":"Leyberg","lat":50.92838,"lon":8.15244,"ele":512},{"name":"Großer Attig","lat":51.2889,"lon":7.76073,"ele":512},{"name":"Rabenkopf","lat":51.20934,"lon":7.91944,"ele":512},{"name":"Kleff","lat":51.21363,"lon":7.93168,"ele":512},{"name":"Auf der Sange","lat":51.2318,"lon":8.19022,"ele":512},{"name":"Stotenberg","lat":51.21514,"lon":8.25821,"ele":512},{"name":"Brenscheid","lat":51.27495,"lon":8.06754,"ele":512},{"name":"Klimberg","lat":51.3408,"lon":8.37209,"ele":512},{"name":"Kahler Kopf","lat":51.34426,"lon":8.37079,"ele":512},{"name":"Löllingser Berg","lat":51.3023,"lon":8.33332,"ele":512},{"name":"Hohe Sondern","lat":51.30901,"lon":7.78223,"ele":511},{"name":"Griesling","lat":51.16386,"lon":7.66974,"ele":511},{"name":"Bauckhahn","lat":51.18685,"lon":7.83341,"ele":511},{"name":"Stürweken","lat":51.18205,"lon":7.82192,"ele":511},{"name":"Buchhagen","lat":51.19814,"lon":8.14334,"ele":511},{"name":"Rühlborn","lat":51.32558,"lon":8.41821,"ele":511},{"name":"Muttenberg","lat":51.19805,"lon":8.16773,"ele":510},{"name":"Am Sterz","lat":51.32041,"lon":8.28242,"ele":510},{"name":"Auf den Bördeln","lat":51.28636,"lon":8.10238,"ele":509},{"name":"Fanisberg","lat":50.53969,"lon":6.79266,"ele":508},{"name":"Dörrhöhe","lat":50.99611,"lon":8.08156,"ele":508},{"name":"Hemberg","lat":51.17057,"lon":8.06002,"ele":508},{"name":"Knochen","lat":51.1462,"lon":8.15916,"ele":508},{"name":"Funkenkopf","lat":51.23034,"lon":8.01918,"ele":508},{"name":"Remberg","lat":51.18487,"lon":8.2999,"ele":508},{"name":"Ehrensteinsley","lat":50.54998,"lon":6.22335,"ele":507},{"name":"Sticklenberg","lat":51.39484,"lon":8.66792,"ele":507},{"name":"Hüttenberg","lat":51.28535,"lon":8.05022,"ele":507},{"name":"Bocksnacken","lat":51.25739,"lon":8.28376,"ele":507},{"name":"Fehrenberg","lat":51.27812,"lon":8.04657,"ele":507},{"name":"Kalvarienberg","lat":51.38808,"lon":8.56514,"ele":507},{"name":"Döring","lat":51.32329,"lon":8.34803,"ele":507},{"name":"Erzebach","lat":50.99264,"lon":8.09039,"ele":506},{"name":"Im Hagen","lat":51.35406,"lon":8.42785,"ele":506},{"name":"Auf dem Höchsten","lat":51.17358,"lon":7.93366,"ele":506},{"name":"Buhlert","lat":50.6578,"lon":6.35635,"ele":505},{"name":"Kalberstert","lat":51.39201,"lon":8.60777,"ele":505},{"name":"Heimberg","lat":51.36809,"lon":8.37429,"ele":505},{"name":"Dritte Hardt","lat":51.07982,"lon":7.97771,"ele":505},{"name":"Uchtenberg","lat":51.30498,"lon":8.1412,"ele":505},{"name":"Hohe Lohe","lat":51.0711,"lon":8.07718,"ele":505},{"name":"Kleiner Hoggenberg","lat":51.41804,"lon":8.46818,"ele":505},{"name":"Sonnenknapp","lat":51.40534,"lon":8.4969,"ele":505},{"name":"Jäckel","lat":51.24435,"lon":8.29299,"ele":505},{"name":"Unnenberg","lat":51.06424,"lon":7.61042,"ele":505},{"name":"Hardt","lat":51.13737,"lon":8.07494,"ele":505},{"name":"Köpperkopf","lat":51.32625,"lon":8.27806,"ele":504},{"name":"Mettenberg","lat":51.25706,"lon":8.11061,"ele":504},{"name":"Schillertsberg","lat":50.42695,"lon":6.65696,"ele":504},{"name":"Haferhain","lat":50.87294,"lon":8.13971,"ele":504},{"name":"Woltenberg","lat":51.41242,"lon":8.50973,"ele":503},{"name":"Hellefelder Höhe","lat":51.34371,"lon":8.08473,"ele":503},{"name":"Hardt","lat":51.17999,"lon":7.8846,"ele":503},{"name":"Wennemer Höhe","lat":51.38272,"lon":8.22154,"ele":503},{"name":"Volksloh","lat":51.41234,"lon":8.47251,"ele":503},{"name":"Totenkopf","lat":51.45444,"lon":8.78472,"ele":503},{"name":"Grüneberg","lat":51.1688,"lon":8.20034,"ele":503},{"name":"Osenberg","lat":51.30778,"lon":8.237,"ele":503},{"name":"Krähenberg","lat":51.28019,"lon":8.02701,"ele":502},{"name":"Hohe Hardt","lat":51.20585,"lon":7.98402,"ele":502},{"name":"Söhler","lat":50.89921,"lon":8.09848,"ele":501},{"name":"Scharn","lat":50.9279,"lon":8.13954,"ele":501},{"name":"Ostenberg","lat":51.36681,"lon":7.82667,"ele":501},{"name":"Engelmanns Kopf","lat":51.20968,"lon":8.64967,"ele":501},{"name":"Bornberg","lat":51.27372,"lon":8.04936,"ele":501},{"name":"Stübelhagen","lat":51.01719,"lon":7.9237,"ele":501},{"name":"Wahlert","lat":51.05236,"lon":7.73851,"ele":501},{"name":"Leihberg","lat":51.13826,"lon":7.66831,"ele":501},{"name":"Anspel","lat":51.24424,"lon":8.67995,"ele":500},{"name":"Hochthürmen","lat":50.52793,"lon":6.90784,"ele":500},{"name":"Rimberg","lat":51.31459,"lon":7.72306,"ele":500},{"name":"Frischgenberg","lat":51.4139,"lon":8.51598,"ele":500},{"name":"Krähenberg","lat":51.08154,"lon":7.93754,"ele":500},{"name":"Schäferberg","lat":50.34432,"lon":6.63774,"ele":500},{"name":"Tannenberg","lat":51.32021,"lon":8.32971,"ele":500},{"name":"Hömberg","lat":51.22405,"lon":8.17726,"ele":500},{"name":"Pfannenberg","lat":50.81554,"lon":8.002,"ele":499},{"name":"Hahnberg","lat":50.76521,"lon":8.11854,"ele":499},{"name":"Hildeshahn","lat":51.31666,"lon":8.13784,"ele":499},{"name":"Küntroper Berg","lat":51.30438,"lon":7.7935,"ele":499},{"name":"Sillberge","lat":51.23345,"lon":7.98912,"ele":499},{"name":"Weddel-Berg","lat":51.2115,"lon":8.70349,"ele":498},{"name":"Ratmerstein","lat":51.40293,"lon":8.55691,"ele":498},{"name":"Attenberg","lat":51.28041,"lon":7.97797,"ele":498},{"name":"Blumenkopf","lat":51.40789,"lon":8.31498,"ele":498},{"name":"Hesselberg","lat":50.87444,"lon":8.38314,"ele":498},{"name":"Homberg","lat":51.40001,"lon":8.74592,"ele":498},{"name":"Suhrenberg","lat":51.3835,"lon":8.43801,"ele":497},{"name":"Eulenberg","lat":51.08084,"lon":7.70895,"ele":497},{"name":"Köterberg","lat":51.85539,"lon":9.32396,"ele":496},{"name":"Leyberg","lat":50.92349,"lon":8.13139,"ele":496},{"name":"Kleiner Hemberg","lat":51.27157,"lon":7.89107,"ele":496},{"name":"Mehlenberg","lat":50.51849,"lon":6.75285,"ele":496},{"name":"Preist","lat":51.00926,"lon":8.10051,"ele":496},{"name":"Hummerzheimer Höhe","lat":50.49732,"lon":6.87554,"ele":495},{"name":"Gühberg","lat":51.03269,"lon":7.99324,"ele":495},{"name":"Honigberg","lat":50.61484,"lon":6.40404,"ele":495},{"name":"Daumberg","lat":51.20555,"lon":7.7645,"ele":495},{"name":"Triebel","lat":51.30386,"lon":8.21716,"ele":495},{"name":"Enkenberg","lat":51.41417,"lon":8.7317,"ele":495},{"name":"Heideberg","lat":50.93843,"lon":8.44681,"ele":495},{"name":"Korstenberg","lat":51.21196,"lon":8.15147,"ele":495},{"name":"Buchholz","lat":51.19987,"lon":8.20443,"ele":495},{"name":"Rehberg","lat":50.98263,"lon":8.11489,"ele":494},{"name":"Lichtenhardt","lat":50.96335,"lon":8.06382,"ele":494},{"name":"Rüssenberg","lat":51.31405,"lon":7.71264,"ele":494},{"name":"Warenberg","lat":51.38332,"lon":8.51201,"ele":494},{"name":"Varmerskopf","lat":51.14587,"lon":7.85114,"ele":494},{"name":"Vellberg","lat":51.25392,"lon":8.09487,"ele":494},{"name":"Tannenkopf","lat":50.94304,"lon":8.12592,"ele":493},{"name":"Krusenberg","lat":51.26382,"lon":7.94333,"ele":493},{"name":"Tettler","lat":51.38434,"lon":8.59986,"ele":493},{"name":"Auf der Höhe","lat":51.16267,"lon":7.68586,"ele":493},{"name":"Hastenberg","lat":51.13916,"lon":8.09166,"ele":493},{"name":"Rüberg","lat":51.09389,"lon":8.04485,"ele":493},{"name":"Rahlenberg","lat":51.18473,"lon":7.74383,"ele":493},{"name":"Steinkopf","lat":51.23015,"lon":8.00966,"ele":493},{"name":"Peterberg","lat":50.67023,"lon":6.31873,"ele":492},{"name":"Lohkopf","lat":50.99278,"lon":7.80811,"ele":492},{"name":"Ehsenberg","lat":51.22878,"lon":8.23344,"ele":492},{"name":"Berrenberg","lat":51.20231,"lon":8.1862,"ele":492},{"name":"Hirtenberg","lat":51.18689,"lon":8.09337,"ele":492},{"name":"Berrenberg","lat":51.19909,"lon":8.18632,"ele":492},{"name":"Großer Scheffelberg","lat":51.39937,"lon":8.60731,"ele":491},{"name":"Krabben","lat":51.11571,"lon":7.74932,"ele":491},{"name":"Köpfchen","lat":51.08694,"lon":8.07007,"ele":491},{"name":"Kopf","lat":51.3777,"lon":8.34751,"ele":491},{"name":"Hägge","lat":51.2757,"lon":8.07887,"ele":491},{"name":"Egge","lat":51.16517,"lon":8.24754,"ele":490},{"name":"Liebelberg","lat":50.99046,"lon":7.91488,"ele":490},{"name":"Homberg","lat":51.09813,"lon":8.67852,"ele":490},{"name":"Limberg","lat":51.15546,"lon":8.10547,"ele":490},{"name":"Kahlenberg Süd","lat":51.4294,"lon":8.30811,"ele":489},{"name":"Großer Hoggenberg","lat":51.42018,"lon":8.46197,"ele":489},{"name":"Kälberberg","lat":51.17586,"lon":7.62511,"ele":489},{"name":"Pastenberg","lat":51.22172,"lon":8.0086,"ele":489},{"name":"Kramel","lat":51.24902,"lon":8.6889,"ele":488},{"name":"Gremberg","lat":51.33458,"lon":7.81245,"ele":488},{"name":"Müniker Knapp","lat":51.41807,"lon":8.54778,"ele":488},{"name":"Hohberg","lat":51.06635,"lon":7.70147,"ele":488},{"name":"Saley","lat":51.22272,"lon":7.8823,"ele":488},{"name":"Lechtenhardt","lat":51.22076,"lon":7.83992,"ele":488},{"name":"Wallenstein","lat":51.32323,"lon":8.17541,"ele":488},{"name":"Kleiner Buchhagen","lat":51.21044,"lon":8.26309,"ele":488},{"name":"Markschlade","lat":51.20609,"lon":7.80907,"ele":487},{"name":"Drübel","lat":51.39079,"lon":8.5774,"ele":487},{"name":"Kuhler","lat":51.31619,"lon":7.69608,"ele":487},{"name":"Vestenberg","lat":51.11043,"lon":7.73593,"ele":487},{"name":"Dove Hardt","lat":51.16983,"lon":7.78998,"ele":487},{"name":"Langeneier Kopf","lat":51.12023,"lon":8.12684,"ele":487},{"name":"Hohhardt","lat":51.0872,"lon":7.7213,"ele":486},{"name":"Großer Schneppenberg","lat":51.30697,"lon":8.14997,"ele":486},{"name":"Steinberg","lat":51.1305,"lon":7.81048,"ele":486},{"name":"Ellenberg","lat":51.18065,"lon":8.26537,"ele":486},{"name":"Ochsenkopf","lat":50.66315,"lon":6.33724,"ele":485},{"name":"Schoneberg","lat":51.29388,"lon":8.13071,"ele":485},{"name":"Eimberg","lat":51.30059,"lon":8.14797,"ele":485},{"name":"Ausspann","lat":51.25002,"lon":7.86578,"ele":485},{"name":"Schüttelhanchen","lat":51.01421,"lon":7.94503,"ele":485},{"name":"Modenhübel","lat":50.57279,"lon":6.45248,"ele":485},{"name":"Barrberg","lat":51.17602,"lon":8.11217,"ele":485},{"name":"Halberg","lat":51.34703,"lon":8.36029,"ele":485},{"name":"Krautkopf","lat":51.45609,"lon":8.72558,"ele":484},{"name":"Hofkühl","lat":51.08385,"lon":7.97465,"ele":484},{"name":"Biberberg","lat":51.43714,"lon":8.50936,"ele":484},{"name":"Gresenberg","lat":51.16154,"lon":8.20925,"ele":484},{"name":"Bockenberg","lat":51.14559,"lon":8.09201,"ele":484},{"name":"Rosenberg","lat":51.10283,"lon":8.02196,"ele":483},{"name":"Birkhagen","lat":51.19063,"lon":7.91769,"ele":483},{"name":"Lüchtenberg","lat":51.39122,"lon":8.76975,"ele":483},{"name":"Eisernhardt","lat":50.83945,"lon":8.02973,"ele":482},{"name":"Gaus","lat":51.3962,"lon":8.60745,"ele":482},{"name":"Silmke","lat":51.17991,"lon":7.87605,"ele":482},{"name":"Hohenhagen","lat":51.02902,"lon":7.89959,"ele":482},{"name":"Hochgiebel","lat":51.35264,"lon":7.80256,"ele":482},{"name":"Hülsenberg","lat":51.19128,"lon":8.15032,"ele":482},{"name":"Ödenberg","lat":51.27609,"lon":7.91249,"ele":481},{"name":"Steupingen","lat":51.01149,"lon":7.75969,"ele":481},{"name":"Weilenscheid","lat":51.14304,"lon":8.04756,"ele":481},{"name":"Huggenberg","lat":51.3937,"lon":8.40631,"ele":481},{"name":"Hogesknapp","lat":51.43951,"lon":8.70155,"ele":480},{"name":"Hardt","lat":51.32232,"lon":8.0782,"ele":480},{"name":"Beulberg","lat":51.0418,"lon":7.66856,"ele":480},{"name":"Hohhardt","lat":51.09365,"lon":7.66417,"ele":480},{"name":"Hasenberg","lat":51.22763,"lon":7.80006,"ele":480},{"name":"Pöggelshagen","lat":51.24864,"lon":7.94627,"ele":480},{"name":"Papenberg","lat":51.37769,"lon":8.26256,"ele":480},{"name":"Wilder Stein","lat":50.9799,"lon":8.01128,"ele":479},{"name":"Prinzknapp","lat":51.44679,"lon":8.71914,"ele":479},{"name":"Wienhagen","lat":51.12775,"lon":7.55636,"ele":479},{"name":"Uchtenberg","lat":51.25526,"lon":7.88749,"ele":479},{"name":"Almenscheid","lat":51.31443,"lon":8.12874,"ele":479},{"name":"Müllenberg","lat":51.39065,"lon":8.77864,"ele":479},{"name":"Muttenberg","lat":51.21846,"lon":8.16861,"ele":479},{"name":"Wartersberg","lat":51.3891,"lon":8.79709,"ele":479},{"name":"Nollenkopf","lat":50.90553,"lon":8.16154,"ele":478},{"name":"Kehlberg","lat":51.32865,"lon":8.09773,"ele":478},{"name":"Twern","lat":51.252,"lon":7.89267,"ele":478},{"name":"Die Kahle","lat":51.1214,"lon":8.07634,"ele":478},{"name":"Kemerling","lat":50.90859,"lon":8.14996,"ele":477},{"name":"Mühlenley","lat":50.55803,"lon":6.24092,"ele":477},{"name":"Felsberg","lat":51.39426,"lon":8.60137,"ele":477},{"name":"Rote Hardt","lat":50.93895,"lon":8.42684,"ele":477},{"name":"Der Brand","lat":51.3905,"lon":8.73093,"ele":477},{"name":"Frettholz","lat":51.39522,"lon":8.59081,"ele":476},{"name":"Schmallenberg","lat":51.14011,"lon":8.21995,"ele":476},{"name":"Großer Berg","lat":51.40333,"lon":8.20675,"ele":476},{"name":"Ziegennacken","lat":50.99278,"lon":7.82107,"ele":476},{"name":"Nieringser Höhe","lat":51.34861,"lon":7.81082,"ele":476},{"name":"Dupp","lat":51.20571,"lon":8.02534,"ele":476},{"name":"Henneberg","lat":50.83764,"lon":8.18335,"ele":476},{"name":"Hülsberg","lat":51.22088,"lon":7.75824,"ele":475},{"name":"Längelscheidt","lat":51.0744,"lon":7.93676,"ele":475},{"name":"Schneppenberg","lat":51.17683,"lon":8.08623,"ele":475},{"name":"Salmenberg","lat":51.29739,"lon":8.31713,"ele":475},{"name":"Bollscheider Kopf","lat":50.55049,"lon":6.81015,"ele":474},{"name":"Die Burg","lat":51.32033,"lon":8.15322,"ele":474},{"name":"Lohberg","lat":51.34381,"lon":7.76624,"ele":473},{"name":"Estenberg","lat":51.27531,"lon":8.17892,"ele":473},{"name":"Rachenberg","lat":51.28389,"lon":8.04049,"ele":473},{"name":"Meidenberg","lat":51.41663,"lon":8.29737,"ele":472},{"name":"Kahlenberg","lat":51.31249,"lon":8.04447,"ele":472},{"name":"Petersberg","lat":51.03463,"lon":7.71639,"ele":472},{"name":"Dünenberg","lat":51.25912,"lon":7.89529,"ele":472},{"name":"Paschelstelle","lat":51.27176,"lon":7.65316,"ele":472},{"name":"Sommerberg","lat":51.31776,"lon":8.2574,"ele":472},{"name":"Kautenberg","lat":51.18868,"lon":8.06473,"ele":472},{"name":"Kleiner Sundern","lat":51.28277,"lon":7.8978,"ele":471},{"name":"Feldberg","lat":51.4153,"lon":8.62822,"ele":471},{"name":"Seifen","lat":51.04781,"lon":7.76677,"ele":471},{"name":"Werhahn","lat":51.16804,"lon":7.60941,"ele":471},{"name":"Hohe Schlade","lat":51.10969,"lon":8.04826,"ele":471},{"name":"Haitenberg","lat":51.18517,"lon":8.28612,"ele":471},{"name":"Krähenhagen","lat":51.22846,"lon":8.14698,"ele":471},{"name":"Die Höhe","lat":51.24256,"lon":8.15103,"ele":471},{"name":"Nusshagen","lat":51.26866,"lon":7.90173,"ele":470},{"name":"Siegelsberg","lat":51.11849,"lon":8.62996,"ele":470},{"name":"Mannsberg","lat":50.94877,"lon":8.09178,"ele":470},{"name":"Schietloh","lat":51.43733,"lon":8.67571,"ele":470},{"name":"Wintrop","lat":51.28872,"lon":7.99562,"ele":470},{"name":"Römelskopf","lat":50.81538,"lon":7.98105,"ele":470},{"name":"Langebachs Köpfe","lat":51.01975,"lon":7.96184,"ele":470},{"name":"Schatenberg","lat":51.32696,"lon":8.24868,"ele":470},{"name":"Sommerberg","lat":51.31413,"lon":8.25297,"ele":470},{"name":"Wirrberg","lat":51.17208,"lon":8.07819,"ele":470},{"name":"Kahlenbergskopf Mitte","lat":51.43471,"lon":8.31013,"ele":469},{"name":"Klarenberg","lat":51.28935,"lon":8.00846,"ele":469},{"name":"Berghahn","lat":51.18565,"lon":7.67145,"ele":469},{"name":"Ostert","lat":51.05836,"lon":7.79192,"ele":469},{"name":"Hoher Hahn","lat":50.98961,"lon":7.79366,"ele":469},{"name":"Grottenberg","lat":51.40414,"lon":8.71706,"ele":469},{"name":"Lüchtenberg","lat":51.39085,"lon":8.77283,"ele":469},{"name":"Biersnück","lat":50.49025,"lon":6.88666,"ele":468},{"name":"Imberg","lat":51.26238,"lon":7.85022,"ele":468},{"name":"Bremicke","lat":51.00489,"lon":7.74614,"ele":468},{"name":"Hepper","lat":51.01183,"lon":7.73216,"ele":468},{"name":"Dörnberg","lat":51.21248,"lon":7.8439,"ele":468},{"name":"Hestenberg","lat":51.28963,"lon":7.89992,"ele":467},{"name":"Brocken","lat":51.29037,"lon":8.20137,"ele":467},{"name":"Buerhahn","lat":51.17445,"lon":7.87664,"ele":467},{"name":"Wiehrloh","lat":51.08102,"lon":7.98852,"ele":467},{"name":"Großer Äsberg","lat":51.43808,"lon":8.46705,"ele":467},{"name":"Windhagen","lat":51.02128,"lon":7.74544,"ele":467},{"name":"Krähenberg","lat":51.22395,"lon":8.25135,"ele":467},{"name":"Füllschet","lat":51.23547,"lon":8.179,"ele":467},{"name":"Der Weberstein","lat":51.38715,"lon":8.54149,"ele":466},{"name":"Auf'm Kuckaus","lat":51.43578,"lon":8.68427,"ele":466},{"name":"Ringelsberg","lat":51.13376,"lon":7.84363,"ele":466},{"name":"Nockelberg","lat":51.09376,"lon":7.80263,"ele":465},{"name":"Arney","lat":51.12007,"lon":7.60262,"ele":465},{"name":"Markenhagen","lat":51.24624,"lon":7.89773,"ele":465},{"name":"Beul","lat":51.08441,"lon":8.14116,"ele":465},{"name":"Quere","lat":51.08752,"lon":8.15385,"ele":465},{"name":"Rehenberg","lat":51.21821,"lon":8.17929,"ele":465},{"name":"Preußische Velmerstot","lat":51.83336,"lon":8.95423,"ele":464},{"name":"Windhain","lat":50.92364,"lon":8.1446,"ele":464},{"name":"Hubertushöhe","lat":51.35319,"lon":8.04749,"ele":464},{"name":"Ringelberg","lat":51.24625,"lon":7.90623,"ele":464},{"name":"Kleiner Fahrenberg","lat":51.44512,"lon":8.52547,"ele":464},{"name":"Breberg","lat":51.35602,"lon":8.41237,"ele":464},{"name":"Süllberg","lat":51.2726,"lon":7.91825,"ele":464},{"name":"Gösberg","lat":50.90603,"lon":8.14086,"ele":463},{"name":"Hoher Schoß","lat":51.01415,"lon":7.87571,"ele":463},{"name":"Battenberg","lat":51.21327,"lon":8.18275,"ele":463},{"name":"Hillerk","lat":51.32433,"lon":8.48953,"ele":462},{"name":"Hardt","lat":51.34318,"lon":8.14,"ele":462},{"name":"Benzel","lat":51.09079,"lon":7.7596,"ele":462},{"name":"Hagen","lat":51.43516,"lon":8.53629,"ele":462},{"name":"Heimberg","lat":51.2135,"lon":8.19986,"ele":462},{"name":"In der Eie","lat":51.02504,"lon":7.71264,"ele":462},{"name":"Jauberg","lat":51.22348,"lon":7.82625,"ele":462},{"name":"Hardt","lat":51.35844,"lon":8.30585,"ele":462},{"name":"Kuhhagen","lat":51.09464,"lon":8.11752,"ele":462},{"name":"Elme","lat":50.96591,"lon":8.11649,"ele":461},{"name":"Musenberg","lat":51.27369,"lon":7.92839,"ele":461},{"name":"Mark","lat":51.0042,"lon":7.82561,"ele":461},{"name":"Herrnscheid","lat":51.02756,"lon":7.75895,"ele":461},{"name":"Borg","lat":51.11378,"lon":7.61635,"ele":461},{"name":"Lütgenberg","lat":51.13287,"lon":7.64176,"ele":461},{"name":"Herdstein","lat":51.34864,"lon":7.72004,"ele":461},{"name":"Kahlenberg","lat":51.27707,"lon":7.88798,"ele":461},{"name":"Frettholz","lat":51.19553,"lon":8.16221,"ele":461},{"name":"Tüppel","lat":51.42306,"lon":8.36555,"ele":461},{"name":"Großer Ölberg","lat":50.68207,"lon":7.24817,"ele":460},{"name":"Eisenhelle","lat":50.97615,"lon":8.09828,"ele":460},{"name":"Hoppenberg","lat":51.42383,"lon":8.56113,"ele":460},{"name":"Kesberg","lat":50.99312,"lon":7.88629,"ele":460},{"name":"Striesberg","lat":51.2807,"lon":8.05825,"ele":460},{"name":"Sonnenberg","lat":51.12179,"lon":7.94196,"ele":459},{"name":"Rundegge","lat":51.18879,"lon":7.94007,"ele":459},{"name":"Eiserkaulen","lat":51.36013,"lon":8.31932,"ele":459},{"name":"Buchhagen","lat":51.09659,"lon":7.89087,"ele":458},{"name":"Blumenstein","lat":51.4079,"lon":8.56163,"ele":458},{"name":"Auf der Höh","lat":51.16146,"lon":7.84167,"ele":458},{"name":"Humerskopf","lat":51.18401,"lon":7.8664,"ele":458},{"name":"Hardt","lat":51.07304,"lon":7.60477,"ele":458},{"name":"Bauckhahn","lat":51.1816,"lon":7.77314,"ele":458},{"name":"Höchsten","lat":51.01099,"lon":7.89075,"ele":458},{"name":"Schlammborn","lat":51.01261,"lon":7.85865,"ele":458},{"name":"Bueberg","lat":51.31903,"lon":7.684,"ele":457},{"name":"Hömberg","lat":51.26671,"lon":8.20814,"ele":457},{"name":"Steinbüchel","lat":50.53537,"lon":6.73001,"ele":456},{"name":"Hirnberg","lat":50.55847,"lon":6.73494,"ele":456},{"name":"Windhagen","lat":51.12239,"lon":7.8289,"ele":456},{"name":"Falkenlei","lat":51.26589,"lon":7.81023,"ele":456},{"name":"Reckenberg","lat":51.25896,"lon":7.82525,"ele":456},{"name":"Im Lohe","lat":51.23062,"lon":8.15312,"ele":456},{"name":"Stühlhahn","lat":51.31674,"lon":8.2458,"ele":456},{"name":"Löwenburg","lat":50.66406,"lon":7.25028,"ele":455},{"name":"Kleiner Schneppenberg","lat":51.31056,"lon":8.14849,"ele":455},{"name":"Langer Berg","lat":51.05732,"lon":7.60462,"ele":455},{"name":"Gelsterhagen","lat":51.09396,"lon":8.10007,"ele":455},{"name":"Speisert","lat":51.21966,"lon":8.19643,"ele":455},{"name":"Emmert","lat":51.18617,"lon":8.05575,"ele":455},{"name":"Haven","lat":51.31875,"lon":8.49262,"ele":455},{"name":"Spitzer Kahlenberg","lat":51.29381,"lon":8.00048,"ele":454},{"name":"Löwe","lat":51.03665,"lon":7.74304,"ele":454},{"name":"Humberg","lat":50.94095,"lon":8.11045,"ele":453},{"name":"Großer Fahrenberg","lat":51.45054,"lon":8.51581,"ele":453},{"name":"Schwimmberg","lat":51.20781,"lon":8.23556,"ele":453},{"name":"Bellerstein","lat":51.41213,"lon":8.77073,"ele":453},{"name":"Schloßberg","lat":51.36175,"lon":8.33414,"ele":453},{"name":"Steinberg","lat":51.35881,"lon":8.42416,"ele":452},{"name":"Haddert","lat":50.51561,"lon":6.80052,"ele":452},{"name":"Am Kroppe","lat":51.21433,"lon":7.90068,"ele":452},{"name":"Wessels Kopf","lat":51.45176,"lon":8.58338,"ele":452},{"name":"Schellhagen","lat":51.21551,"lon":7.8559,"ele":452},{"name":"Tittenberg","lat":51.13452,"lon":8.26824,"ele":452},{"name":"Suberg","lat":51.30768,"lon":8.28929,"ele":452},{"name":"Hardt","lat":51.21709,"lon":8.24687,"ele":452},{"name":"Katzenberg","lat":51.36152,"lon":8.10881,"ele":452},{"name":"Haarscheid","lat":50.55398,"lon":6.79187,"ele":451},{"name":"Hahnenberg","lat":51.26563,"lon":7.88034,"ele":451},{"name":"Eikenberg","lat":51.46079,"lon":8.70264,"ele":451},{"name":"Hilborn","lat":51.35945,"lon":7.72845,"ele":451},{"name":"Knollen","lat":51.03912,"lon":7.65706,"ele":451},{"name":"Stockhagen","lat":51.02978,"lon":7.75042,"ele":451},{"name":"Elsterhardt","lat":50.49567,"lon":6.91104,"ele":451},{"name":"Langscheider Berg","lat":50.50397,"lon":6.76688,"ele":450},{"name":"Flanenberg","lat":51.36037,"lon":8.0269,"ele":450},{"name":"Haunert","lat":51.28755,"lon":7.70723,"ele":450},{"name":"Heedberg","lat":51.11818,"lon":7.59309,"ele":450},{"name":"Hoheloh","lat":51.49468,"lon":8.85589,"ele":450},{"name":"Gesenberg","lat":51.27755,"lon":8.2031,"ele":448},{"name":"Kleiner Gesenberg","lat":51.28155,"lon":8.19622,"ele":448},{"name":"Klosterberg","lat":51.27047,"lon":7.76532,"ele":448},{"name":"Löh","lat":51.10759,"lon":7.60606,"ele":448},{"name":"Herlinghauser Berg","lat":51.15089,"lon":7.59336,"ele":448},{"name":"Nördlicher Kahlenbergskopf","lat":51.43934,"lon":8.30735,"ele":447},{"name":"Jungwald","lat":50.97377,"lon":8.01813,"ele":446},{"name":"Barnacken","lat":51.85524,"lon":8.90119,"ele":446},{"name":"Feldromer Berg","lat":51.82244,"lon":8.95216,"ele":446},{"name":"Eichenberg","lat":51.28961,"lon":7.92773,"ele":446},{"name":"Allenberg","lat":51.45752,"lon":8.53577,"ele":446},{"name":"Großer Pulskopf","lat":51.89537,"lon":9.22679,"ele":446},{"name":"Das Mörth","lat":51.89631,"lon":9.22454,"ele":446},{"name":"Halmberg","lat":50.84596,"lon":8.18197,"ele":446},{"name":"Ostenberg","lat":51.1866,"lon":8.15622,"ele":446},{"name":"Kriesenberg","lat":51.4071,"lon":8.77256,"ele":446},{"name":"Attenberg","lat":51.02339,"lon":7.86506,"ele":445},{"name":"Horst","lat":51.24874,"lon":7.58355,"ele":445},{"name":"Up der Platte","lat":51.11356,"lon":7.58597,"ele":445},{"name":"Hardt","lat":51.22695,"lon":7.78106,"ele":445},{"name":"Fossel","lat":51.18806,"lon":8.1979,"ele":445},{"name":"Adamsberg","lat":50.61315,"lon":6.50713,"ele":444},{"name":"Hüttenberg","lat":51.0601,"lon":7.67954,"ele":444},{"name":"Hardt","lat":51.23999,"lon":8.2117,"ele":444},{"name":"Kolbenberg","lat":50.9915,"lon":8.05853,"ele":443},{"name":"Mühlenberg","lat":51.10615,"lon":7.72985,"ele":443},{"name":"Lattenberg","lat":51.40972,"lon":8.19802,"ele":443},{"name":"Listringhauser Berg","lat":51.08008,"lon":7.61223,"ele":443},{"name":"Sohlberg","lat":51.23593,"lon":7.78883,"ele":443},{"name":"Auf der Hard","lat":51.31508,"lon":7.61267,"ele":443},{"name":"Helle","lat":51.24912,"lon":7.63876,"ele":443},{"name":"Auf der Breite","lat":51.30112,"lon":8.27164,"ele":443},{"name":"Hausheide","lat":51.72812,"lon":8.98406,"ele":442},{"name":"Martinsnück","lat":50.48552,"lon":6.8594,"ele":442},{"name":"Nehder Kopf","lat":51.44334,"lon":8.63576,"ele":442},{"name":"Steinbachsecke","lat":50.84863,"lon":8.05388,"ele":442},{"name":"Hilkenhöhe","lat":51.33706,"lon":7.66422,"ele":442},{"name":"Kleine Bühlen","lat":51.44577,"lon":8.67436,"ele":442},{"name":"Bauvert","lat":51.27913,"lon":7.99028,"ele":442},{"name":"Hardt","lat":51.03679,"lon":7.77461,"ele":442},{"name":"Guilberg","lat":51.1278,"lon":7.95161,"ele":442},{"name":"Steinberg","lat":51.44155,"lon":8.23858,"ele":442},{"name":"Haardtkopf","lat":51.33085,"lon":8.44429,"ele":442},{"name":"Hüttenberg","lat":51.39985,"lon":8.78871,"ele":442},{"name":"Steinsknapp","lat":51.32482,"lon":7.80956,"ele":441},{"name":"Süllberg","lat":51.26652,"lon":7.86416,"ele":441},{"name":"Wixberg","lat":51.31641,"lon":7.65993,"ele":441},{"name":"Hainberg","lat":51.3465,"lon":8.15109,"ele":441},{"name":"Wengeberg","lat":51.24764,"lon":7.46631,"ele":441},{"name":"Wollberg","lat":51.13861,"lon":8.04526,"ele":441},{"name":"Raizebeil","lat":51.17814,"lon":8.04925,"ele":441},{"name":"Lippische Velmerstot","lat":51.83924,"lon":8.95565,"ele":441},{"name":"Flotzberg","lat":51.4224,"lon":8.58459,"ele":440},{"name":"Hollberg","lat":51.14235,"lon":8.04147,"ele":440},{"name":"Berentroper Berg","lat":51.29547,"lon":7.78576,"ele":440},{"name":"Lannenberg","lat":51.33557,"lon":8.24933,"ele":440},{"name":"Brusenberg","lat":51.08249,"lon":7.89612,"ele":439},{"name":"Steinbergsnück","lat":50.48697,"lon":6.87322,"ele":439},{"name":"Starker Buberg","lat":50.87916,"lon":7.97591,"ele":439},{"name":"Rote Kirche","lat":50.8679,"lon":7.96479,"ele":439},{"name":"Irmer","lat":51.11704,"lon":7.77004,"ele":439},{"name":"Sillberg","lat":51.24125,"lon":7.86277,"ele":439},{"name":"Eichertgebirge","lat":50.82341,"lon":7.98538,"ele":439},{"name":"Soldatenbusch","lat":51.3889,"lon":8.94526,"ele":439},{"name":"Stockhagen","lat":51.16505,"lon":7.92882,"ele":439},{"name":"Werbel","lat":51.38621,"lon":8.76485,"ele":439},{"name":"Jakob-Kneip-Berg","lat":50.538,"lon":6.69324,"ele":438},{"name":"Hauerberg","lat":51.0853,"lon":7.50785,"ele":438},{"name":"Vogelsberg","lat":51.33879,"lon":7.8016,"ele":438},{"name":"Lammertsberg","lat":50.55897,"lon":6.83144,"ele":438},{"name":"Steinenberg","lat":51.45701,"lon":8.51011,"ele":438},{"name":"Dübelsnacken","lat":51.75533,"lon":8.98819,"ele":437},{"name":"Nordhelle","lat":51.11583,"lon":7.81926,"ele":437},{"name":"Königsberg","lat":51.07966,"lon":8.12758,"ele":437},{"name":"Rummelsberg","lat":51.01511,"lon":7.7827,"ele":437},{"name":"Gummershardt","lat":51.03827,"lon":7.51438,"ele":437},{"name":"Rodenull","lat":50.97531,"lon":8.00369,"ele":436},{"name":"Buttenberg","lat":51.44625,"lon":8.62508,"ele":436},{"name":"Streitberg","lat":51.46595,"lon":8.55208,"ele":436},{"name":"Spellenberg","lat":51.35508,"lon":8.08634,"ele":436},{"name":"Bürgerheide","lat":51.74687,"lon":8.9869,"ele":435},{"name":"Harfel","lat":50.96569,"lon":7.93177,"ele":435},{"name":"Sundhelle","lat":51.28451,"lon":7.8743,"ele":435},{"name":"Heibergscheberg","lat":50.76786,"lon":8.0203,"ele":435},{"name":"Kahlenberg","lat":51.09571,"lon":8.0755,"ele":435},{"name":"Mondschein","lat":51.16738,"lon":8.01496,"ele":434},{"name":"Stockert","lat":50.56943,"lon":6.72179,"ele":434},{"name":"Ronsberg","lat":51.35307,"lon":7.77864,"ele":434},{"name":"Gräfenberg","lat":51.30542,"lon":8.0059,"ele":434},{"name":"Ennest","lat":51.26701,"lon":7.79847,"ele":434},{"name":"Brandriger Berg","lat":51.45603,"lon":8.55951,"ele":434},{"name":"Markeshagen","lat":51.14179,"lon":7.55368,"ele":434},{"name":"Strumberg","lat":51.1292,"lon":8.04836,"ele":434},{"name":"Balzenberg","lat":50.98455,"lon":7.87369,"ele":434},{"name":"Spellerberg","lat":51.80437,"lon":8.926,"ele":434},{"name":"Auf der Asche","lat":51.51987,"lon":8.88575,"ele":434},{"name":"Hohlestein","lat":51.83316,"lon":8.91245,"ele":433},{"name":"Bilsenberg","lat":51.29726,"lon":8.02415,"ele":433},{"name":"Wolfskuhle","lat":51.07511,"lon":7.78697,"ele":433},{"name":"Juberg","lat":51.17123,"lon":8.03185,"ele":433},{"name":"Schorr","lat":50.94349,"lon":8.43447,"ele":433},{"name":"Lohrberg","lat":50.67195,"lon":7.24869,"ele":432},{"name":"Steimel","lat":51.17659,"lon":8.24654,"ele":432},{"name":"Osterloh","lat":51.3615,"lon":7.80161,"ele":432},{"name":"Eberg","lat":51.25583,"lon":7.84961,"ele":432},{"name":"Bockenberg","lat":51.30702,"lon":8.32389,"ele":432},{"name":"Heedberg","lat":51.07982,"lon":7.63739,"ele":432},{"name":"Nücklenberg","lat":51.28255,"lon":7.86224,"ele":432},{"name":"Rauhscheid","lat":51.16904,"lon":7.9359,"ele":432},{"name":"Auf der Bracke","lat":51.12711,"lon":7.84877,"ele":432},{"name":"Leyenkopf","lat":50.78957,"lon":8.03859,"ele":432},{"name":"Knochenberg","lat":51.11657,"lon":7.63705,"ele":432},{"name":"Egge","lat":51.16836,"lon":8.09483,"ele":432},{"name":"Mertesnück","lat":50.46332,"lon":6.84678,"ele":431},{"name":"Einig","lat":51.24054,"lon":7.88661,"ele":431},{"name":"Purrhagen","lat":51.27614,"lon":7.95839,"ele":431},{"name":"Walberg","lat":51.22635,"lon":7.67647,"ele":431},{"name":"Sauberg","lat":51.32527,"lon":8.08365,"ele":431},{"name":"Fockenberg","lat":50.9722,"lon":7.81405,"ele":431},{"name":"Hädnocken","lat":51.28254,"lon":7.86688,"ele":431},{"name":"Eschenberg","lat":51.21948,"lon":8.22093,"ele":431},{"name":"Kahlenberg","lat":51.38663,"lon":8.74839,"ele":431},{"name":"Bratzkopf","lat":51.01274,"lon":7.81942,"ele":430},{"name":"Martinstuhl","lat":50.55531,"lon":6.83806,"ele":430},{"name":"Trenkeberg","lat":50.66982,"lon":7.25244,"ele":430},{"name":"Raumberg","lat":51.41997,"lon":8.57269,"ele":430},{"name":"Winzenberg","lat":51.30125,"lon":8.00375,"ele":430},{"name":"Sundhelle","lat":51.19433,"lon":7.85985,"ele":430},{"name":"Bottenberg","lat":51.25115,"lon":8.17951,"ele":430},{"name":"Hohe Bracke","lat":51.42012,"lon":8.21478,"ele":430},{"name":"Löhn","lat":51.29318,"lon":8.18616,"ele":430},{"name":"Hömberg","lat":51.38119,"lon":7.94743,"ele":430},{"name":"Katzenstein","lat":51.46134,"lon":8.65665,"ele":430},{"name":"Winterberg","lat":51.96274,"lon":9.15494,"ele":429},{"name":"Hähnchen","lat":50.55191,"lon":6.7479,"ele":429},{"name":"Kalvarienberg","lat":51.45904,"lon":8.4389,"ele":428},{"name":"Müssenberg","lat":51.39171,"lon":7.98334,"ele":428},{"name":"Schnetterberg","lat":51.37169,"lon":8.32585,"ele":428},{"name":"Kreuzkopf","lat":51.35627,"lon":8.06968,"ele":428},{"name":"Geinen","lat":51.13435,"lon":7.95828,"ele":428},{"name":"Evenkopf","lat":51.38938,"lon":8.41517,"ele":428},{"name":"Rehberg","lat":51.77375,"lon":8.97254,"ele":427},{"name":"Stüllberg","lat":50.94733,"lon":8.06901,"ele":427},{"name":"Padberg","lat":51.84775,"lon":8.90255,"ele":426},{"name":"Hardtberg","lat":50.51551,"lon":6.77145,"ele":426},{"name":"Hohe Nück","lat":50.48963,"lon":6.8996,"ele":426},{"name":"Schmiechenberg","lat":50.48981,"lon":6.89298,"ele":426},{"name":"Eisenberg","lat":51.27426,"lon":7.94257,"ele":426},{"name":"Schmierhagen","lat":51.02246,"lon":7.79502,"ele":426},{"name":"Rußstein","lat":51.07026,"lon":8.04787,"ele":426},{"name":"Aggerhomert","lat":51.06626,"lon":7.6474,"ele":426},{"name":"Rammberg","lat":51.18514,"lon":7.79865,"ele":426},{"name":"Gilbergskopf","lat":50.8445,"lon":7.99979,"ele":426},{"name":"Landsberg","lat":51.3114,"lon":7.918,"ele":425},{"name":"Birkeshardt","lat":51.11824,"lon":7.85353,"ele":425},{"name":"Buchhagen","lat":51.09606,"lon":8.0299,"ele":425},{"name":"Kilgeshahn","lat":50.95262,"lon":8.02408,"ele":424},{"name":"Auf der Höh","lat":51.09059,"lon":7.87989,"ele":424},{"name":"Hunstein","lat":51.32985,"lon":8.22093,"ele":424},{"name":"Krackertsberg","lat":50.9818,"lon":8.07144,"ele":423},{"name":"Kollenberg","lat":51.11181,"lon":7.5527,"ele":423},{"name":"Sündelt","lat":51.33733,"lon":8.29714,"ele":423},{"name":"Ebberg","lat":51.11037,"lon":8.0062,"ele":423},{"name":"Küppel","lat":51.37834,"lon":8.18246,"ele":423},{"name":"Häckeschott","lat":51.27668,"lon":8.16646,"ele":423},{"name":"Humbertsberg","lat":51.53631,"lon":8.92608,"ele":423},{"name":"Hartenberg","lat":50.57373,"lon":6.79564,"ele":423},{"name":"Lehmberg","lat":51.2097,"lon":8.22654,"ele":422},{"name":"Am Höchsten","lat":50.98495,"lon":8.0661,"ele":421},{"name":"Bräker Kopf","lat":51.33909,"lon":7.68342,"ele":421},{"name":"Floresberg","lat":50.48594,"lon":6.88769,"ele":421},{"name":"Hengstenberg","lat":51.28238,"lon":7.93202,"ele":421},{"name":"Kohlhahn","lat":51.15554,"lon":7.89012,"ele":421},{"name":"Romberg","lat":51.46128,"lon":8.57152,"ele":421},{"name":"Kreuzberg","lat":51.14958,"lon":7.62057,"ele":421},{"name":"Giersberg","lat":50.56434,"lon":6.78119,"ele":420},{"name":"Limberg","lat":51.07963,"lon":7.74668,"ele":420},{"name":"Rauher Hahn","lat":51.08277,"lon":7.76367,"ele":420},{"name":"Kuhnsberg","lat":51.40927,"lon":8.18003,"ele":420},{"name":"Hardt","lat":51.3277,"lon":8.22354,"ele":420},{"name":"Romberg","lat":51.22829,"lon":7.99331,"ele":420},{"name":"Wertsberg","lat":51.17579,"lon":8.23169,"ele":420},{"name":"Bausenberg","lat":51.10199,"lon":7.85607,"ele":419},{"name":"Ochsenkopf","lat":51.35793,"lon":8.03268,"ele":419},{"name":"Heckenberg","lat":50.89766,"lon":7.99697,"ele":419},{"name":"Wilmesberg","lat":51.46559,"lon":8.52725,"ele":419},{"name":"Oberer Langenberg","lat":51.86321,"lon":8.88919,"ele":418},{"name":"Egge","lat":51.16181,"lon":8.00875,"ele":418},{"name":"Kirchberg","lat":50.50619,"lon":6.77873,"ele":418},{"name":"Aufm Hagen","lat":51.45596,"lon":8.63552,"ele":418},{"name":"Stumpfer Kahlenberg","lat":51.29563,"lon":7.99631,"ele":418},{"name":"Krähenbrinke","lat":51.34962,"lon":7.93147,"ele":418},{"name":"Hamerlott","lat":51.19427,"lon":7.87896,"ele":418},{"name":"Humberg","lat":51.18861,"lon":7.87661,"ele":418},{"name":"Osthelle","lat":51.22484,"lon":7.71677,"ele":418},{"name":"Wiehmert","lat":51.21284,"lon":7.73103,"ele":418},{"name":"Höveler Knapp","lat":51.364,"lon":7.92681,"ele":418},{"name":"Nügelnberg","lat":51.31044,"lon":7.58872,"ele":418},{"name":"Bulstein","lat":51.24863,"lon":8.13387,"ele":418},{"name":"Haborn","lat":50.85043,"lon":8.10516,"ele":418},{"name":"Hömberg","lat":51.17352,"lon":7.95116,"ele":417},{"name":"Beerenberg","lat":51.28372,"lon":7.91284,"ele":417},{"name":"Düsterlau","lat":51.88245,"lon":8.85452,"ele":417},{"name":"Damberg","lat":51.40771,"lon":8.12134,"ele":417},{"name":"Papenberg","lat":51.02789,"lon":7.77831,"ele":417},{"name":"Hensket","lat":51.29358,"lon":8.27951,"ele":417},{"name":"Drei-Rehhagenköpfe","lat":51.46213,"lon":8.49253,"ele":417},{"name":"Pühl","lat":51.43674,"lon":8.64918,"ele":416},{"name":"Steinklapper","lat":51.24878,"lon":7.84478,"ele":416},{"name":"Biesenberg","lat":51.46682,"lon":8.42238,"ele":416},{"name":"Lütkenberg","lat":51.08848,"lon":7.64794,"ele":416},{"name":"Aggerberg","lat":51.0781,"lon":7.65088,"ele":416},{"name":"Rollberg","lat":51.30908,"lon":7.90833,"ele":415},{"name":"Klusenberg","lat":51.70385,"lon":8.99818,"ele":415},{"name":"Spree","lat":51.22927,"lon":7.91904,"ele":415},{"name":"Varenberg","lat":51.56311,"lon":9.02206,"ele":415},{"name":"Füllenberg","lat":51.7171,"lon":8.98829,"ele":415},{"name":"Unterer Langenberg","lat":51.86329,"lon":8.87847,"ele":415},{"name":"Groß Glaesner","lat":50.90383,"lon":7.91587,"ele":415},{"name":"Breitenbacher Berg","lat":50.88791,"lon":8.08781,"ele":415},{"name":"Engelnberg","lat":51.05708,"lon":7.58607,"ele":415},{"name":"Dörenberg","lat":51.13906,"lon":7.60991,"ele":415},{"name":"Lauseberg","lat":51.13342,"lon":7.60608,"ele":415},{"name":"Nocken","lat":51.01415,"lon":7.9035,"ele":415},{"name":"Blückenberg","lat":51.32629,"lon":8.20499,"ele":415},{"name":"Schmand","lat":51.03815,"lon":7.79239,"ele":415},{"name":"Brandeiche","lat":51.11413,"lon":7.83638,"ele":414},{"name":"Paffenberg","lat":50.47584,"lon":6.87238,"ele":414},{"name":"Löh","lat":51.31251,"lon":7.46843,"ele":414},{"name":"Olper Höhe","lat":51.36254,"lon":8.14427,"ele":414},{"name":"Schwarzes Kreuz","lat":51.26648,"lon":7.83329,"ele":414},{"name":"Bracht","lat":51.23614,"lon":7.71547,"ele":414},{"name":"Eisenberg","lat":51.23086,"lon":7.96481,"ele":414},{"name":"Höhhain","lat":50.90758,"lon":8.12245,"ele":413},{"name":"Heider Berg","lat":51.24274,"lon":7.57926,"ele":413},{"name":"Nadel","lat":51.55586,"lon":8.96619,"ele":413},{"name":"Stübel","lat":51.24427,"lon":7.8359,"ele":413},{"name":"Hedberg","lat":51.14092,"lon":7.58057,"ele":413},{"name":"Stellberg","lat":51.73906,"lon":8.9842,"ele":413},{"name":"Schurenberg","lat":51.52912,"lon":8.91028,"ele":413},{"name":"Rehberg","lat":51.09509,"lon":7.51712,"ele":412},{"name":"Allenberg","lat":51.17666,"lon":7.84744,"ele":412},{"name":"Habbecker Berg","lat":51.18611,"lon":7.95033,"ele":412},{"name":"Wachtkopf","lat":51.17984,"lon":8.74313,"ele":411},{"name":"Eichholz","lat":50.8357,"lon":8.04098,"ele":411},{"name":"Höttenberg","lat":51.17667,"lon":7.86423,"ele":411},{"name":"Krähenberg","lat":51.02791,"lon":7.81129,"ele":411},{"name":"Inner","lat":51.44806,"lon":8.27901,"ele":411},{"name":"Heiderberg","lat":51.00515,"lon":7.77823,"ele":411},{"name":"Hahnenberg","lat":50.57696,"lon":6.86703,"ele":411},{"name":"Eickerkopf","lat":51.3527,"lon":7.70544,"ele":411},{"name":"Rothkopf","lat":51.46481,"lon":8.58246,"ele":410},{"name":"Struckey","lat":51.07012,"lon":7.55515,"ele":410},{"name":"Störtlenberg","lat":51.1708,"lon":7.52778,"ele":410},{"name":"Siepenkopf","lat":51.29647,"lon":7.44735,"ele":410},{"name":"Au der Eulenkirche","lat":51.3927,"lon":8.91722,"ele":410},{"name":"Steinberg","lat":51.66525,"lon":9.01533,"ele":409},{"name":"Fröndenberg","lat":51.16162,"lon":8.04712,"ele":409},{"name":"Raffenberg","lat":51.20021,"lon":7.55519,"ele":409},{"name":"Brandenberg","lat":51.26478,"lon":7.80012,"ele":409},{"name":"Huseberg","lat":51.14541,"lon":7.88218,"ele":409},{"name":"Kleiner Romberg","lat":51.4592,"lon":8.57656,"ele":409},{"name":"Rinzenberg","lat":50.88189,"lon":8.09474,"ele":409},{"name":"Ebberg","lat":51.2055,"lon":7.82524,"ele":409},{"name":"Habbel","lat":51.18617,"lon":7.7847,"ele":409},{"name":"Köpfchen","lat":50.9948,"lon":7.97184,"ele":409},{"name":"Würtel","lat":50.84644,"lon":8.0997,"ele":409},{"name":"Am Sandhügel","lat":51.7365,"lon":8.98578,"ele":409},{"name":"Krummer Esel","lat":51.72151,"lon":8.98113,"ele":409},{"name":"Worthberg","lat":51.23131,"lon":7.54178,"ele":408},{"name":"Schlemmerberg","lat":51.17846,"lon":7.54087,"ele":408},{"name":"Sandberg","lat":51.12109,"lon":8.00678,"ele":408},{"name":"Eisenberg","lat":51.2276,"lon":7.69398,"ele":408},{"name":"Holter Berg","lat":51.1478,"lon":7.56386,"ele":408},{"name":"Holderknipp","lat":50.56174,"lon":6.31415,"ele":407},{"name":"Mittelberg","lat":51.56949,"lon":9.02175,"ele":407},{"name":"Mostenberg","lat":51.28799,"lon":7.86471,"ele":407},{"name":"Dumberg","lat":51.15394,"lon":7.97439,"ele":407},{"name":"Freienohler Höhe","lat":51.43306,"lon":8.1859,"ele":407},{"name":"Heckenberg","lat":51.36676,"lon":8.01872,"ele":407},{"name":"Hellenberg","lat":51.34669,"lon":8.03152,"ele":407},{"name":"Sandberg","lat":51.49154,"lon":8.64791,"ele":407},{"name":"Timmerberg","lat":51.12359,"lon":7.61499,"ele":407},{"name":"Festenberg","lat":51.11706,"lon":8.03118,"ele":407},{"name":"Mittelberg","lat":51.55596,"lon":8.91876,"ele":407},{"name":"Hardt","lat":51.08528,"lon":7.8143,"ele":406},{"name":"Bergmer","lat":51.28975,"lon":7.97748,"ele":406},{"name":"Wahlberg","lat":51.10096,"lon":7.4833,"ele":406},{"name":"Kaukenberg","lat":51.28114,"lon":7.95801,"ele":406},{"name":"Nocken","lat":51.00154,"lon":7.77514,"ele":406},{"name":"Orthelle","lat":51.4221,"lon":8.79133,"ele":406},{"name":"Bollenberg","lat":51.31431,"lon":7.91432,"ele":405},{"name":"Antlenberg","lat":51.13908,"lon":7.53607,"ele":405},{"name":"Püster-Berg","lat":51.45263,"lon":8.302,"ele":405},{"name":"Nordhelle","lat":51.04214,"lon":7.57748,"ele":405},{"name":"Repscheid","lat":51.11107,"lon":7.94755,"ele":405},{"name":"Hüppelsberg","lat":51.33273,"lon":8.28219,"ele":405},{"name":"Steinhagen","lat":51.25559,"lon":7.69798,"ele":404},{"name":"Hohe Hahn","lat":51.37019,"lon":7.91522,"ele":404},{"name":"Ochsenberg","lat":51.79046,"lon":8.92905,"ele":403},{"name":"Arloffer Berg","lat":50.57056,"lon":6.81343,"ele":403},{"name":"Gersberg","lat":51.27585,"lon":7.79651,"ele":403},{"name":"Steinberg","lat":51.08952,"lon":7.45456,"ele":403},{"name":"Mühlenberg","lat":51.36236,"lon":7.70984,"ele":403},{"name":"Rothenberg","lat":50.85397,"lon":7.97116,"ele":402},{"name":"Stemberg","lat":51.87849,"lon":8.88934,"ele":402},{"name":"Eierberg","lat":50.52428,"lon":6.78718,"ele":402},{"name":"Ziegenberg","lat":51.7102,"lon":8.99239,"ele":402},{"name":"Moosberg","lat":51.09579,"lon":7.54486,"ele":402},{"name":"Henneckenberg","lat":51.04978,"lon":7.56203,"ele":402},{"name":"Ellberg","lat":51.08145,"lon":7.54512,"ele":402},{"name":"Brehenberg","lat":51.19269,"lon":7.53721,"ele":402},{"name":"Hengsberg","lat":50.83774,"lon":7.99738,"ele":402},{"name":"Holenborn","lat":50.93213,"lon":7.9704,"ele":401},{"name":"Müschedeberg","lat":51.43086,"lon":8.36972,"ele":401},{"name":"Imerg","lat":51.20004,"lon":7.72398,"ele":401},{"name":"Schmalenausberg","lat":51.42434,"lon":8.20389,"ele":401},{"name":"Brenscheider Berg","lat":51.20375,"lon":7.46985,"ele":401},{"name":"Warenkopf","lat":51.05183,"lon":7.52417,"ele":401},{"name":"Dasberg","lat":51.37122,"lon":7.9085,"ele":401},{"name":"Ebersberg","lat":51.83458,"lon":8.92742,"ele":401},{"name":"Rinkscheid","lat":51.11182,"lon":7.82455,"ele":401},{"name":"Stapel","lat":51.29924,"lon":8.00928,"ele":401},{"name":"Wolfskopf","lat":51.36736,"lon":8.26167,"ele":401},{"name":"Mittelberg","lat":51.6917,"lon":8.99822,"ele":400},{"name":"Burgberg","lat":50.69458,"lon":6.44193,"ele":400},{"name":"Hasenberg","lat":51.22007,"lon":7.55551,"ele":400},{"name":"Wernscheid","lat":51.10436,"lon":7.51873,"ele":400},{"name":"Dahlhauser Kopf","lat":51.18013,"lon":7.55818,"ele":400},{"name":"Lohhagen","lat":51.08817,"lon":7.78578,"ele":400},{"name":"Grimberg","lat":50.86062,"lon":8.06444,"ele":400},{"name":"Eberg","lat":51.07956,"lon":7.5489,"ele":400},{"name":"Wüllenberg","lat":51.07751,"lon":7.53568,"ele":400},{"name":"Klippenkopf","lat":51.35002,"lon":7.69265,"ele":400},{"name":"Remberg","lat":51.2013,"lon":8.06525,"ele":400},{"name":"Heimberg","lat":51.4193,"lon":8.80075,"ele":400},{"name":"Stillenbergs-Kopf","lat":51.46361,"lon":8.36463,"ele":399},{"name":"Frerberg","lat":51.19543,"lon":7.43232,"ele":399},{"name":"Otterscheid","lat":51.15956,"lon":7.92469,"ele":399},{"name":"Wolfskopf","lat":51.36725,"lon":8.26183,"ele":399},{"name":"Mellener Knapp","lat":51.32096,"lon":7.91714,"ele":398},{"name":"Bosset","lat":50.53945,"lon":6.70396,"ele":398},{"name":"Trötenberg","lat":51.76437,"lon":8.9768,"ele":398},{"name":"Hardt","lat":51.17212,"lon":7.84293,"ele":398},{"name":"Schartenberg","lat":51.12637,"lon":7.9954,"ele":398},{"name":"Mühlenberg","lat":51.00412,"lon":7.6863,"ele":398},{"name":"Buchenberg","lat":51.45228,"lon":8.62699,"ele":397},{"name":"Höh","lat":51.2657,"lon":7.55674,"ele":397},{"name":"Garküche","lat":51.12233,"lon":7.98803,"ele":397},{"name":"Stallberg","lat":51.19561,"lon":7.63529,"ele":397},{"name":"Haardt","lat":51.15084,"lon":7.89531,"ele":397},{"name":"Leisknochen","lat":51.23456,"lon":8.20674,"ele":397},{"name":"Piepenberg","lat":51.55285,"lon":8.88101,"ele":397},{"name":"Kohlenberg","lat":50.94802,"lon":7.97667,"ele":396},{"name":"Oberer Kleinenberg","lat":51.59892,"lon":8.98455,"ele":396},{"name":"Kallenhardter Berg","lat":51.47298,"lon":8.43268,"ele":396},{"name":"Stentenberg","lat":51.02648,"lon":7.63343,"ele":396},{"name":"Altenhahn","lat":50.98384,"lon":7.95155,"ele":396},{"name":"Steinberg","lat":52.06966,"lon":9.03362,"ele":396},{"name":"Piusberg","lat":51.43914,"lon":8.35996,"ele":395},{"name":"Hundsberg","lat":51.18691,"lon":7.53275,"ele":395},{"name":"Kohlberg","lat":51.11063,"lon":8.01769,"ele":395},{"name":"Hirschberg","lat":51.18738,"lon":7.57867,"ele":395},{"name":"Bigger Kopf","lat":51.13044,"lon":7.94412,"ele":395},{"name":"Kutschenberg","lat":51.11994,"lon":7.92612,"ele":395},{"name":"Bielstein","lat":51.90575,"lon":8.82153,"ele":394},{"name":"Heinberg","lat":51.41298,"lon":8.10625,"ele":394},{"name":"Ahlenberg","lat":51.28284,"lon":7.83329,"ele":394},{"name":"Strohberg","lat":51.85337,"lon":9.33926,"ele":394},{"name":"Unsenberg","lat":51.39063,"lon":7.94979,"ele":394},{"name":"Wittig","lat":50.91953,"lon":8.11361,"ele":393},{"name":"Dörenberg","lat":52.04967,"lon":9.05968,"ele":393},{"name":"Bärenberg","lat":51.30773,"lon":8.04414,"ele":393},{"name":"Hoher Berg","lat":51.2235,"lon":7.39173,"ele":393},{"name":"Espen","lat":51.02927,"lon":7.78895,"ele":393},{"name":"Strickhagen","lat":51.22292,"lon":7.853,"ele":393},{"name":"Klöppingsberg","lat":51.89752,"lon":8.83611,"ele":393},{"name":"Kirrberg","lat":50.90733,"lon":7.96102,"ele":392},{"name":"Binoler Berg","lat":51.36582,"lon":7.84949,"ele":392},{"name":"Radeberg","lat":51.36686,"lon":7.9122,"ele":392},{"name":"Blitzenberg","lat":50.57765,"lon":6.9229,"ele":392},{"name":"Hömberg","lat":50.93768,"lon":8.09276,"ele":391},{"name":"Spitze Warte","lat":51.51597,"lon":8.44769,"ele":391},{"name":"Merkenshöhe","lat":50.66837,"lon":7.24928,"ele":390},{"name":"Große Höhe","lat":51.37466,"lon":8.04802,"ele":390},{"name":"Rehenberg","lat":51.26435,"lon":8.17815,"ele":390},{"name":"Taubenberg","lat":51.238,"lon":7.4454,"ele":390},{"name":"Lausberg","lat":51.13919,"lon":7.48782,"ele":390},{"name":"Geelberg","lat":51.17549,"lon":7.8394,"ele":390},{"name":"Ebberg","lat":51.39096,"lon":7.88182,"ele":390},{"name":"Hilleberg","lat":51.437,"lon":8.35632,"ele":390},{"name":"Nordhelle","lat":51.04222,"lon":7.47268,"ele":390},{"name":"Nocken","lat":51.16908,"lon":7.47628,"ele":390},{"name":"Fröndenberg","lat":51.36238,"lon":7.69163,"ele":390},{"name":"Dünnekenberg","lat":51.11243,"lon":7.89803,"ele":390},{"name":"Spreeberg","lat":51.19832,"lon":8.05024,"ele":390},{"name":"Hoher Schaden","lat":50.7381,"lon":7.49937,"ele":389},{"name":"Krähenberg","lat":51.3486,"lon":8.3304,"ele":389},{"name":"Hardtberg","lat":51.03218,"lon":7.64613,"ele":389},{"name":"Steiner","lat":51.07303,"lon":7.51148,"ele":389},{"name":"Remberg","lat":51.32545,"lon":8.19712,"ele":389},{"name":"Mittelberg","lat":50.85944,"lon":8.04605,"ele":388},{"name":"Steinberg","lat":52.07083,"lon":9.03471,"ele":388},{"name":"Selberg","lat":50.5243,"lon":6.77789,"ele":388},{"name":"Windstich","lat":51.42351,"lon":8.11857,"ele":388},{"name":"Giesenberg","lat":51.57297,"lon":8.92327,"ele":388},{"name":"Netheberg","lat":51.68474,"lon":8.99273,"ele":387},{"name":"Zangenberg","lat":51.68123,"lon":8.97599,"ele":387},{"name":"Kleiner Rigi","lat":51.86142,"lon":8.90783,"ele":387},{"name":"Hinterer Liethberg","lat":51.09615,"lon":7.53277,"ele":387},{"name":"Stentenberg","lat":51.05295,"lon":7.51559,"ele":387},{"name":"Hirschberg","lat":51.19589,"lon":7.39119,"ele":387},{"name":"Gebetsberg","lat":51.24475,"lon":7.62645,"ele":387},{"name":"Winterlieth","lat":51.31194,"lon":7.81265,"ele":387},{"name":"Kortewebelshals","lat":51.88635,"lon":8.83728,"ele":386},{"name":"Kartoffelberg","lat":51.85649,"lon":8.91338,"ele":386},{"name":"Hiltenberg","lat":51.7888,"lon":8.94286,"ele":386},{"name":"Mühlenberg","lat":50.46101,"lon":6.86595,"ele":386},{"name":"Rolsberg","lat":51.30225,"lon":8.03201,"ele":386},{"name":"Stillberg","lat":51.29135,"lon":8.16376,"ele":386},{"name":"Grotenburg","lat":51.91149,"lon":8.83942,"ele":386},{"name":"Eulenspiegel","lat":51.47139,"lon":8.44408,"ele":386},{"name":"Biesenberg","lat":51.45166,"lon":8.26579,"ele":386},{"name":"Nesselberg","lat":51.20796,"lon":7.44057,"ele":386},{"name":"Scheerkopf","lat":50.66941,"lon":7.25711,"ele":385},{"name":"Kurtheldsberg","lat":50.47906,"lon":6.86562,"ele":385},{"name":"Brandrücken","lat":51.45687,"lon":8.28093,"ele":385},{"name":"Vorder Liethberg","lat":51.09333,"lon":7.53144,"ele":385},{"name":"Bückenberg","lat":51.38281,"lon":7.92234,"ele":385},{"name":"Seckeler Berg","lat":51.25594,"lon":7.67102,"ele":384},{"name":"Mittelberg","lat":51.40863,"lon":8.80374,"ele":384},{"name":"Burgberg","lat":51.33482,"lon":7.88964,"ele":383},{"name":"Halsberg","lat":50.55223,"lon":6.69911,"ele":383},{"name":"Biesenberg","lat":51.28192,"lon":7.72635,"ele":383},{"name":"Heckberg","lat":50.94688,"lon":7.40977,"ele":383},{"name":"Nöckel","lat":51.27463,"lon":7.55429,"ele":383},{"name":"Schierenberg","lat":51.12522,"lon":7.52361,"ele":383},{"name":"Erpelntalskopf","lat":50.67003,"lon":7.24565,"ele":383},{"name":"Bommerskopf","lat":51.41924,"lon":8.17762,"ele":383},{"name":"Büchenberg","lat":51.20303,"lon":7.59673,"ele":383},{"name":"Mühlenberg","lat":51.14147,"lon":7.5063,"ele":383},{"name":"Neuwaldsberg","lat":51.77932,"lon":8.91575,"ele":382},{"name":"Schweinsberg","lat":51.7456,"lon":9.00449,"ele":382},{"name":"Hammel","lat":50.90463,"lon":7.96419,"ele":382},{"name":"Schillenberg","lat":51.29509,"lon":7.96193,"ele":382},{"name":"Eisenberg","lat":51.20587,"lon":7.94896,"ele":382},{"name":"Iburg","lat":51.73026,"lon":9.00371,"ele":381},{"name":"Röthlingsberg","lat":51.18978,"lon":7.38066,"ele":381},{"name":"Wiekersche Berg","lat":51.10515,"lon":7.50561,"ele":381},{"name":"Lüttkeberg","lat":51.39187,"lon":8.19584,"ele":381},{"name":"Laubberg","lat":51.02822,"lon":7.7015,"ele":381},{"name":"Westerholt","lat":51.23105,"lon":7.44279,"ele":381},{"name":"Hohe Ley","lat":50.87457,"lon":8.08725,"ele":381},{"name":"Seltenberg","lat":51.33042,"lon":8.20941,"ele":381},{"name":"Humpertsberg","lat":51.42932,"lon":8.19506,"ele":381},{"name":"Kalte Werbel","lat":51.39058,"lon":8.75936,"ele":381},{"name":"Schanzenberg","lat":52.05324,"lon":9.05512,"ele":380},{"name":"Roberg","lat":50.96419,"lon":7.94865,"ele":380},{"name":"Buberg","lat":50.88385,"lon":7.98365,"ele":380},{"name":"Holschenberg","lat":51.78359,"lon":8.94703,"ele":380},{"name":"Haardter Berg","lat":50.91384,"lon":8.02511,"ele":380},{"name":"Belkenberg","lat":51.18204,"lon":7.59377,"ele":380},{"name":"Stoppelberg","lat":51.32959,"lon":7.55957,"ele":380},{"name":"Hochkopf","lat":50.58989,"lon":6.90757,"ele":380},{"name":"Knochen","lat":51.7496,"lon":9.00013,"ele":379},{"name":"Wolfshagen","lat":50.95821,"lon":7.94138,"ele":379},{"name":"Eilper Berg","lat":51.32419,"lon":7.49269,"ele":379},{"name":"Wellenberg","lat":51.28091,"lon":7.81462,"ele":379},{"name":"Lümer","lat":51.04025,"lon":7.62097,"ele":379},{"name":"Humberg","lat":51.38514,"lon":7.94217,"ele":379},{"name":"Paderborner Berg","lat":51.64627,"lon":8.98921,"ele":379},{"name":"Hohenhagen","lat":51.18568,"lon":7.2216,"ele":379},{"name":"Broderkonsberg","lat":50.6416,"lon":7.28398,"ele":378},{"name":"Hohes Wäldchen","lat":50.83238,"lon":7.53668,"ele":378},{"name":"Klinksberg","lat":51.38926,"lon":7.89437,"ele":378},{"name":"Baumeisterberg","lat":51.85436,"lon":9.31254,"ele":378},{"name":"Schmiesing","lat":51.32298,"lon":7.93301,"ele":378},{"name":"Ebberg","lat":51.32244,"lon":7.82072,"ele":377},{"name":"Hamberg","lat":50.85924,"lon":8.03248,"ele":377},{"name":"Warmsberg","lat":51.86951,"lon":8.87321,"ele":377},{"name":"Kehling","lat":51.34179,"lon":8.19174,"ele":377},{"name":"Krägeloher Berg","lat":51.28489,"lon":7.47262,"ele":377},{"name":"Schneringer Berg","lat":51.48587,"lon":8.42764,"ele":377},{"name":"Uhlenberg","lat":51.52487,"lon":8.94707,"ele":377},{"name":"Boberg","lat":51.32,"lon":7.89262,"ele":376},{"name":"Stühneberg","lat":52.05868,"lon":9.04564,"ele":376},{"name":"Keimberg","lat":51.74421,"lon":8.90376,"ele":376},{"name":"Ransenberg","lat":51.33919,"lon":8.22302,"ele":376},{"name":"Steinberg","lat":51.06723,"lon":7.4499,"ele":376},{"name":"Regensberg","lat":51.06205,"lon":7.59233,"ele":376},{"name":"Humberg","lat":51.19663,"lon":7.60356,"ele":376},{"name":"Hangsberg","lat":51.35748,"lon":7.69334,"ele":376},{"name":"Pühlsberg","lat":51.00713,"lon":7.96243,"ele":376},{"name":"Poßberg","lat":50.66237,"lon":7.25439,"ele":375},{"name":"Altusknipp","lat":50.59852,"lon":6.63643,"ele":375},{"name":"Wachendorfer Berg","lat":50.57635,"lon":6.73897,"ele":375},{"name":"Eckkopf","lat":51.0085,"lon":7.52442,"ele":375},{"name":"Schlaaberg","lat":51.10059,"lon":7.42976,"ele":375},{"name":"Spechtenberg","lat":51.49328,"lon":8.58393,"ele":375},{"name":"Kellenberg","lat":51.25347,"lon":8.14985,"ele":375},{"name":"Stuckenberg","lat":51.53558,"lon":8.94585,"ele":375},{"name":"Monte Schlacko","lat":50.90998,"lon":8.0203,"ele":374},{"name":"Leimenkopf","lat":51.46493,"lon":8.62578,"ele":374},{"name":"Altes Sundern","lat":51.31664,"lon":7.99118,"ele":374},{"name":"Moorbacher Berg","lat":51.18245,"lon":7.38991,"ele":374},{"name":"Galgenberg","lat":50.88197,"lon":8.05912,"ele":374},{"name":"Kahlenberg","lat":51.08548,"lon":7.54073,"ele":374},{"name":"Kollenberg","lat":51.16299,"lon":7.45586,"ele":374},{"name":"Roland","lat":51.35113,"lon":7.90821,"ele":374},{"name":"Steltenberg","lat":51.2954,"lon":7.88156,"ele":373},{"name":"Kalvarienberg","lat":51.44096,"lon":8.85091,"ele":373},{"name":"Rothenberg","lat":50.54069,"lon":6.9142,"ele":373},{"name":"Böhlberg","lat":51.24405,"lon":7.87561,"ele":373},{"name":"Lindenberg","lat":50.87048,"lon":8.04099,"ele":373},{"name":"Sandberg","lat":51.03905,"lon":7.57327,"ele":373},{"name":"Ahnritt","lat":51.2408,"lon":7.55429,"ele":372},{"name":"Kirschberg","lat":50.89139,"lon":8.04958,"ele":372},{"name":"Frieberg","lat":51.11389,"lon":7.52496,"ele":372},{"name":"Hermesberg","lat":51.08986,"lon":7.40006,"ele":372},{"name":"Sundern","lat":51.23563,"lon":7.8219,"ele":372},{"name":"Klüppelberg","lat":51.11016,"lon":7.45862,"ele":372},{"name":"Imkenberg","lat":51.61409,"lon":8.93569,"ele":372},{"name":"Hohe Asch","lat":52.05601,"lon":9.14876,"ele":371},{"name":"Steltenberg","lat":51.25855,"lon":8.15854,"ele":371},{"name":"Fischbacherberg","lat":50.87762,"lon":8.00431,"ele":371},{"name":"Hoher Berg","lat":51.5725,"lon":9.33967,"ele":371},{"name":"Ochsenberg","lat":51.70374,"lon":8.9784,"ele":371},{"name":"Burgberg","lat":50.99485,"lon":7.53156,"ele":371},{"name":"Rondsberg","lat":50.71483,"lon":6.34839,"ele":371},{"name":"Hülsköpfe","lat":51.90123,"lon":8.8192,"ele":371},{"name":"Hahnenberg","lat":51.30616,"lon":7.85265,"ele":370},{"name":"Hülsberg","lat":51.18192,"lon":7.546,"ele":370},{"name":"Kattenberg","lat":51.46392,"lon":8.2809,"ele":370},{"name":"Stungsberg","lat":50.89986,"lon":7.64746,"ele":370},{"name":"Harkenberg","lat":51.06,"lon":7.65729,"ele":370},{"name":"Mühlenberg","lat":51.10729,"lon":7.53449,"ele":370},{"name":"Bratzkopf","lat":51.0249,"lon":7.83437,"ele":370},{"name":"Oerberg","lat":51.44718,"lon":8.13633,"ele":370},{"name":"Sommerberg","lat":51.7759,"lon":8.94629,"ele":369},{"name":"Gradberg","lat":51.6948,"lon":9.03226,"ele":369},{"name":"Stockumer Höhe","lat":51.36313,"lon":8.04646,"ele":369},{"name":"Blumichskopf","lat":50.84827,"lon":8.01754,"ele":369},{"name":"Auf dem Berwel","lat":51.0321,"lon":7.52159,"ele":369},{"name":"Berkei","lat":51.32754,"lon":7.81794,"ele":369},{"name":"Knusthöhe","lat":51.19867,"lon":7.25798,"ele":369},{"name":"Brocksberg","lat":51.72304,"lon":8.90476,"ele":368},{"name":"Bermecke","lat":51.16523,"lon":8.00109,"ele":368},{"name":"Mühlenberg","lat":51.34505,"lon":8.02399,"ele":368},{"name":"Hungerberg","lat":51.17483,"lon":7.41107,"ele":368},{"name":"Hüttenberg","lat":51.17169,"lon":7.5782,"ele":368},{"name":"Hemberg","lat":51.36382,"lon":8.15674,"ele":368},{"name":"Kleiner Limberg","lat":51.19869,"lon":7.98849,"ele":368},