[{"name":"Roc’h Ruz","lat":48.41667,"lon":-3.88029,"ele":385},{"name":"Tuchenn Kador","lat":48.37247,"lon":-3.95307,"ele":384},{"name":"Roc'h Trevezel","lat":48.40663,"lon":-3.90964,"ele":384},{"name":"Roc'h Trédudon","lat":48.415,"lon":-3.87694,"ele":383},{"name":"Montagne Saint-Michel","lat":48.35021,"lon":-3.94574,"ele":381},{"name":"Roc'h ar Feunteun","lat":48.41745,"lon":-3.8615,"ele":374},{"name":"Roc'h an Diri Bras","lat":48.42897,"lon":-3.83795,"ele":358},{"name":"Roc'h Suilhek","lat":48.42017,"lon":-3.84596,"ele":356},{"name":"Mont Bel-Air","lat":48.32309,"lon":-2.58354,"ele":339},{"name":"Ménez-Hom","lat":48.21979,"lon":-4.23511,"ele":330},{"name":"Roc'h-Kleger_Killi-Vihan","lat":48.33556,"lon":-3.95957,"ele":327},{"name":"Roc'h Toullaeron","lat":48.16866,"lon":-3.64233,"ele":326},{"name":"Roc'h an Tri Eskob","lat":48.43135,"lon":-3.83229,"ele":326},{"name":"Le Pavé","lat":48.48419,"lon":-3.49459,"ele":323},{"name":"Butte Saint-Michel","lat":48.29368,"lon":-2.93234,"ele":321},{"name":"Menez Kerespers","lat":48.46492,"lon":-3.36311,"ele":320},{"name":"Menez Goariva","lat":48.47436,"lon":-3.57344,"ele":314},{"name":"Roc'h Losket 1","lat":48.3349,"lon":-3.9926,"ele":308},{"name":"Minez Du","lat":48.18444,"lon":-3.4286,"ele":306},{"name":"Menez Hoguéné","lat":48.5401,"lon":-3.33224,"ele":305},{"name":"Garreg1","lat":48.33696,"lon":-3.99583,"ele":304},{"name":"Minez Gligueric","lat":48.19935,"lon":-3.51128,"ele":304},{"name":"Roc'h an Aotrou","lat":48.14473,"lon":-3.81137,"ele":304},{"name":"Menez Bré","lat":48.57641,"lon":-3.30774,"ele":302},{"name":"Le Télégraphe","lat":48.48361,"lon":-3.6815,"ele":300},{"name":"Karn an Hoed","lat":48.36345,"lon":-4.04386,"ele":300},{"name":"Hielc’h","lat":48.2123,"lon":-4.24754,"ele":298},{"name":"Roc'h an Daol","lat":48.35839,"lon":-4.07115,"ele":298},{"name":"Minez Zant Yann","lat":48.21096,"lon":-3.4878,"ele":296},{"name":"Butte de Goariva","lat":48.48476,"lon":-3.74273,"ele":295},{"name":"Calotte Saint-Joseph","lat":48.17323,"lon":-3.44539,"ele":292},{"name":"Le Breuil du Chêne","lat":48.16079,"lon":-3.0775,"ele":289},{"name":"Reier Leon","lat":48.36448,"lon":-4.03025,"ele":288},{"name":"Menez Lokorn","lat":48.09749,"lon":-4.18273,"ele":285},{"name":"Menez an Dug","lat":48.14532,"lon":-3.72524,"ele":282},{"name":"Karreg an Tan","lat":48.15757,"lon":-3.96722,"ele":281},{"name":"Roc'h Dourec","lat":48.30206,"lon":-4.06227,"ele":280},{"name":"Roc'h Begheor","lat":48.32454,"lon":-3.83642,"ele":278},{"name":"Ménez Kerver","lat":48.54415,"lon":-3.6121,"ele":268},{"name":"Montagne de Laz","lat":48.13536,"lon":-3.79702,"ele":264},{"name":"Miniou","lat":48.23142,"lon":-3.30741,"ele":263},{"name":"Rocher de la Madeleine","lat":48.17297,"lon":-3.54583,"ele":262},{"name":"Roc'h ar Werc'hez","lat":48.16079,"lon":-3.68371,"ele":260},{"name":"Menez Landivigen","lat":48.13187,"lon":-3.98314,"ele":260},{"name":"Menez Quelc’h","lat":48.16036,"lon":-4.08378,"ele":251},{"name":"Run Vras","lat":48.20168,"lon":-4.22326,"ele":249},{"name":"Ménez Meur","lat":48.55341,"lon":-3.61064,"ele":247},{"name":"Roc'h Uhelañ","lat":48.29712,"lon":-4.09076,"ele":240},{"name":"Roc'h An Ankou","lat":48.15467,"lon":-3.64876,"ele":236},{"name":"Menez Bras","lat":48.19961,"lon":-4.12523,"ele":234},{"name":"Run Askell","lat":48.19798,"lon":-4.19176,"ele":233},{"name":"Roc'h ar Bic","lat":48.42636,"lon":-3.75937,"ele":232},{"name":"Menez C'hrenn","lat":48.15774,"lon":-3.98805,"ele":231},{"name":"Ar Roz","lat":48.15811,"lon":-3.95552,"ele":230},{"name":"Run Bihan","lat":48.20038,"lon":-4.2042,"ele":225},{"name":"Menez Roc’h Meur","lat":48.12361,"lon":-4.05332,"ele":224},{"name":"Roc'h Kerdrein","lat":48.12405,"lon":-4.04578,"ele":218},{"name":"Kastell Pik","lat":48.47181,"lon":-3.08406,"ele":205},{"name":"Run an Aotrou","lat":48.47376,"lon":-3.08256,"ele":202},{"name":"Run ar Gov","lat":48.46965,"lon":-3.07899,"ele":195},{"name":"Grande Bosse","lat":47.94499,"lon":-2.2274,"ele":187},{"name":"Rocher de Montlouvier","lat":48.49485,"lon":-1.1133,"ele":184},{"name":"Run ar Groaz","lat":48.46411,"lon":-3.07913,"ele":182},{"name":"Bosse de la Tourtelière","lat":47.95097,"lon":-2.23453,"ele":181},{"name":"Saint-Pern","lat":48.28805,"lon":-1.9579,"ele":180},{"name":"Run Bras","lat":48.47318,"lon":-3.09531,"ele":177},{"name":"Petite Bosse","lat":47.94819,"lon":-2.23643,"ele":175},{"name":"Le Saut Roland","lat":48.25861,"lon":-1.13372,"ele":173},{"name":"Menez Yann","lat":48.19535,"lon":-4.2609,"ele":170},{"name":"Ar C'hleger Bras","lat":48.23568,"lon":-4.28981,"ele":166},{"name":"Menez Troboa","lat":48.17548,"lon":-4.05439,"ele":166},{"name":"Calvaire du Run","lat":48.62956,"lon":-3.52383,"ele":127},{"name":"Rocher de l'Impératrice","lat":48.38852,"lon":-4.37643,"ele":98},{"name":"Mont Dol","lat":48.57205,"lon":-1.76924,"ele":61},{"name":"Mane er Groez","lat":47.69168,"lon":-2.94349,"ele":53},{"name":"Tour du Golfe","lat":47.54276,"lon":-2.87199,"ele":16}]