[{"name":"Monte Cinto","lat":42.37971,"lon":8.94569,"ele":2706},{"name":"Capu Ciuntrone","lat":42.38265,"lon":8.95124,"ele":2660},{"name":"Monte Rotondo","lat":42.21613,"lon":9.05795,"ele":2622},{"name":"Pointe des Éboulis","lat":42.37597,"lon":8.93684,"ele":2607},{"name":"Punta Mufrena","lat":42.21689,"lon":9.05371,"ele":2590},{"name":"Capo al Berdato","lat":42.39174,"lon":8.97892,"ele":2583},{"name":"Capu Biancu","lat":42.40284,"lon":8.98866,"ele":2562},{"name":"Punta Minuta","lat":42.37522,"lon":8.91392,"ele":2556},{"name":"Capu Falu","lat":42.36932,"lon":8.92993,"ele":2540},{"name":"Paglia Orba","lat":42.34311,"lon":8.87868,"ele":2525},{"name":"Capu Rossu","lat":42.37387,"lon":8.91819,"ele":2498},{"name":"A Maniccia","lat":42.21062,"lon":9.04616,"ele":2496},{"name":"Aiguille Grégovorius","lat":42.21837,"lon":9.06046,"ele":2490},{"name":"Capu Larghia","lat":42.37394,"lon":8.92344,"ele":2475},{"name":"Monte Cardo","lat":42.2303,"lon":9.12027,"ele":2453},{"name":"Punta Felicina","lat":42.21526,"lon":9.0863,"ele":2437},{"name":"Punta Lattiniccia","lat":42.23841,"lon":9.12307,"ele":2413},{"name":"Monte Padro","lat":42.46677,"lon":8.98892,"ele":2390},{"name":"Monte d'Oro","lat":42.13746,"lon":9.09861,"ele":2389},{"name":"Punta da i Ciotti","lat":42.22586,"lon":9.09893,"ele":2379},{"name":"Tour Saint-Etienne","lat":42.37689,"lon":8.91767,"ele":2358},{"name":"Monte Renoso","lat":42.05972,"lon":9.1338,"ele":2352},{"name":"Punta Muzzella","lat":42.20606,"lon":9.03407,"ele":2342},{"name":"Capo Tafonatu","lat":42.34071,"lon":8.86783,"ele":2335},{"name":"Punta Artica","lat":42.26468,"lon":8.97044,"ele":2327},{"name":"Petra Niella","lat":42.20857,"lon":9.0686,"ele":2316},{"name":"Punta à e Porte","lat":42.20868,"lon":9.00557,"ele":2313},{"name":"Capu Borba","lat":42.38778,"lon":8.9387,"ele":2305},{"name":"Cima di a Statoghia","lat":42.45443,"lon":8.96155,"ele":2305},{"name":"Capu a l'Inzecca","lat":42.36286,"lon":8.92865,"ele":2299},{"name":"Capo al Chiostro","lat":42.22986,"lon":9.01148,"ele":2295},{"name":"Punta Rossa","lat":42.37859,"lon":8.90699,"ele":2284},{"name":"Punta Grottelle","lat":42.22663,"lon":9.05324,"ele":2277},{"name":"Capu Tighiettu","lat":42.35971,"lon":8.89832,"ele":2273},{"name":"Punta Orlandino","lat":42.05176,"lon":9.13676,"ele":2273},{"name":"Capo Sellola","lat":42.46375,"lon":8.99756,"ele":2273},{"name":"Lombarduccio","lat":42.21902,"lon":9.01298,"ele":2268},{"name":"Capo Razino","lat":42.39949,"lon":8.99907,"ele":2268},{"name":"Capo ai Sorbi","lat":42.21523,"lon":8.99969,"ele":2267},{"name":"Pointe des Sept Lacs","lat":42.21316,"lon":9.00477,"ele":2266},{"name":"Crête de Rinella","lat":42.20669,"lon":8.99986,"ele":2266},{"name":"Monte Torto","lat":42.04838,"lon":9.14255,"ele":2262},{"name":"Punta alla Vetta","lat":42.05195,"lon":9.11188,"ele":2255},{"name":"Punta Capanella","lat":42.04752,"lon":9.11254,"ele":2250},{"name":"Punta Bacinello","lat":42.06671,"lon":9.12805,"ele":2247},{"name":"Pointe Migliarello","lat":42.13009,"lon":9.07158,"ele":2240},{"name":"Capitello","lat":42.21593,"lon":9.01005,"ele":2237},{"name":"Punta Licciola","lat":42.32205,"lon":8.8916,"ele":2235},{"name":"Cima San Gavino","lat":42.24159,"lon":9.02614,"ele":2220},{"name":"Punta Missoghiu","lat":42.39123,"lon":8.90153,"ele":2201},{"name":"Capu di Villa","lat":42.35995,"lon":8.95239,"ele":2184},{"name":"Cima a i Mori","lat":42.42082,"lon":9.08059,"ele":2180},{"name":"Punta di Castelli","lat":42.26091,"lon":9.03754,"ele":2180},{"name":"Capu Rossu","lat":42.34686,"lon":8.8659,"ele":2158},{"name":"Capu di a Marcia","lat":42.41419,"lon":8.91636,"ele":2154},{"name":"Punta Stranciacone","lat":42.39594,"lon":8.90549,"ele":2151},{"name":"a Muvrella","lat":42.4103,"lon":8.91132,"ele":2148},{"name":"Capu Ladroncellu","lat":42.44574,"lon":8.91289,"ele":2145},{"name":"Monte Corona","lat":42.45968,"lon":8.91921,"ele":2144},{"name":"Punta di Tula","lat":42.32807,"lon":8.88051,"ele":2143},{"name":"Capu a u Carrozzu","lat":42.42111,"lon":8.91618,"ele":2139},{"name":"Pointe Muratello","lat":42.13661,"lon":9.07726,"ele":2138},{"name":"Monte Incudine","lat":41.84947,"lon":9.20738,"ele":2134},{"name":"Capo alle Pertiche","lat":42.26521,"lon":8.95299,"ele":2130},{"name":"Punta Scarachiana","lat":41.85256,"lon":9.21251,"ele":2129},{"name":"Punta Sfronditata","lat":42.06129,"lon":9.1005,"ele":2121},{"name":"Pointe de Casa","lat":42.13288,"lon":9.07467,"ele":2120},{"name":"Bocca Muratella","lat":42.13439,"lon":9.07572,"ele":2118},{"name":"Capu Ucellu","lat":42.35403,"lon":8.89213,"ele":2117},{"name":"La Tour Penchée","lat":42.38489,"lon":8.93221,"ele":2116},{"name":"Capu di u Facciatu","lat":42.27814,"lon":8.98605,"ele":2113},{"name":"Punta dell'Oriente","lat":42.09077,"lon":9.1339,"ele":2112},{"name":"Punta di Capezzolo","lat":42.22518,"lon":9.13738,"ele":2111},{"name":"Capo alle Giargiole","lat":42.33016,"lon":8.85458,"ele":2105},{"name":"Punta Scaldasole","lat":42.03734,"lon":9.12573,"ele":2101},{"name":"Cimatella","lat":42.23607,"lon":8.94374,"ele":2101},{"name":"Cimatella","lat":42.23764,"lon":8.93958,"ele":2098},{"name":"Punta Mezagnu","lat":42.42587,"lon":8.92106,"ele":2085},{"name":"Punta Ghialla","lat":42.43157,"lon":8.91877,"ele":2085},{"name":"Punta Cancellone","lat":42.12753,"lon":9.07778,"ele":2083},{"name":"Dent d'Asco","lat":42.42846,"lon":9.07786,"ele":2064},{"name":"Capu a e Furcelle","lat":42.24304,"lon":8.9376,"ele":2062},{"name":"Capu di a Muvraghia","lat":42.38427,"lon":8.90051,"ele":2062},{"name":"Punta a e Cricche","lat":42.30049,"lon":8.85904,"ele":2057},{"name":"Capu a Cuccula","lat":42.29635,"lon":8.84983,"ele":2049},{"name":"Punta della Cappella","lat":41.9961,"lon":9.21669,"ele":2041},{"name":"Capo alla Curia","lat":42.26253,"lon":8.94541,"ele":2041},{"name":"Punta Culaghia","lat":42.40139,"lon":8.9085,"ele":2034},{"name":"Punta Cappella","lat":42.04037,"lon":9.15607,"ele":2032},{"name":"Capo al Dente","lat":42.47337,"lon":8.91737,"ele":2029},{"name":"Punta Silvastriccia","lat":42.32834,"lon":8.8495,"ele":2025},{"name":"Punta all'Altore","lat":42.17572,"lon":9.04808,"ele":2021},{"name":"Monte Albanu","lat":42.34639,"lon":8.93016,"ele":2018},{"name":"Punta Tintennaja","lat":41.85574,"lon":9.22741,"ele":2018},{"name":"Punta Piaggiola","lat":42.03202,"lon":9.09339,"ele":2014},{"name":"Punta Pisciaghia","lat":42.4457,"lon":8.90154,"ele":2012},{"name":"Punta Radiche","lat":42.48325,"lon":8.92437,"ele":2012},{"name":"Punta Renosa","lat":42.14594,"lon":9.10826,"ele":2008},{"name":"Capu a u Tozzu","lat":42.25784,"lon":8.92285,"ele":2007},{"name":"Capu Penne Rosse","lat":42.41378,"lon":8.88935,"ele":1992},{"name":"Punta Innominata","lat":42.43232,"lon":8.90927,"ele":1986},{"name":"I Cinque Frati","lat":42.34486,"lon":8.93282,"ele":1986},{"name":"e Forcelle","lat":42.30829,"lon":8.86147,"ele":1985},{"name":"Punta Ventosa","lat":42.06181,"lon":9.15181,"ele":1984},{"name":"Monte Formicula","lat":41.94495,"lon":9.21927,"ele":1981},{"name":"Punta di l'Arinella","lat":42.20907,"lon":8.98268,"ele":1979},{"name":"Capu di Guagnarola","lat":42.31516,"lon":8.8585,"ele":1967},{"name":"Punta Jumentella","lat":42.40005,"lon":9.04408,"ele":1966},{"name":"Pointe de Curia","lat":42.32764,"lon":8.84503,"ele":1962},{"name":"Capo di a Muccicosa","lat":42.39856,"lon":9.03508,"ele":1960},{"name":"Punta Bianca","lat":41.94951,"lon":9.22274,"ele":1954},{"name":"Punta di u Prati","lat":42.01016,"lon":9.21441,"ele":1954},{"name":"Capu a u Ceppu","lat":42.41911,"lon":8.8558,"ele":1951},{"name":"Pinerole","lat":42.33614,"lon":9.0982,"ele":1951},{"name":"Monte Giovanni","lat":42.00155,"lon":9.15455,"ele":1950},{"name":"Punta di Campitellu","lat":41.99036,"lon":9.21948,"ele":1937},{"name":"Punta di a Cuperchiata","lat":41.9932,"lon":9.13474,"ele":1937},{"name":"Monte Grosso","lat":42.50168,"lon":8.92282,"ele":1937},{"name":"Pointe Laccione","lat":42.1228,"lon":9.05761,"ele":1932},{"name":"Punta di Zorpi","lat":42.1041,"lon":9.15174,"ele":1931},{"name":"Capo di Lino","lat":42.40042,"lon":9.04974,"ele":1928},{"name":"Turone","lat":42.42832,"lon":9.09831,"ele":1927},{"name":"Punta Bocca dell'Oro","lat":42.02754,"lon":9.22117,"ele":1926},{"name":"Pointe Murace","lat":42.18785,"lon":9.05181,"ele":1921},{"name":"U Pinerole","lat":42.33469,"lon":9.1036,"ele":1914},{"name":"Punta Petrinaccia","lat":42.41885,"lon":8.88973,"ele":1914},{"name":"Punta di u Furnellu","lat":41.83627,"lon":9.23232,"ele":1902},{"name":"Punta Muvrareccia","lat":41.84638,"lon":9.23719,"ele":1899},{"name":"Punta Calanca Vecchia","lat":41.83535,"lon":9.23512,"ele":1884},{"name":"Cima de Vico","lat":42.12504,"lon":9.04731,"ele":1879},{"name":"A Taula","lat":41.82953,"lon":9.22861,"ele":1879},{"name":"Collu di Pratu","lat":41.9448,"lon":9.22408,"ele":1876},{"name":"Monte Corbaia","lat":42.26003,"lon":9.13335,"ele":1871},{"name":"Punta di Spasimata","lat":42.42281,"lon":8.90777,"ele":1863},{"name":"Punta Alta","lat":41.81513,"lon":9.21743,"ele":1857},{"name":"Punta Finosa","lat":42.31983,"lon":9.09435,"ele":1855},{"name":"A Teghia di Bridicula","lat":41.9372,"lon":9.21125,"ele":1851},{"name":"Punta Lolla","lat":41.81709,"lon":9.2166,"ele":1848},{"name":"Monte Malo","lat":41.87547,"lon":9.23659,"ele":1847},{"name":"Pinzi a i Giuelli","lat":42.42964,"lon":9.1051,"ele":1839},{"name":"Punta Longa","lat":41.81344,"lon":9.21681,"ele":1836},{"name":"Capu Taita","lat":42.41365,"lon":8.87929,"ele":1836},{"name":"Punta Scaddatta","lat":41.91912,"lon":9.18581,"ele":1834},{"name":"Punta Mozza","lat":41.9543,"lon":9.22333,"ele":1831},{"name":"Capu di Meta di Filu","lat":42.41659,"lon":8.87636,"ele":1819},{"name":"Punta di l'Usciolu","lat":41.92415,"lon":9.1927,"ele":1815},{"name":"Capu di a Candela","lat":42.2921,"lon":9.01568,"ele":1802},{"name":"Punta di Montelatelli","lat":42.03994,"lon":9.22727,"ele":1795},{"name":"U Tritore","lat":42.25388,"lon":8.90499,"ele":1791},{"name":"Punta di Maro","lat":41.82146,"lon":9.21799,"ele":1791},{"name":"Punta di u Pargulu","lat":41.81053,"lon":9.21492,"ele":1785},{"name":"Punta Marencina","lat":42.148,"lon":9.0938,"ele":1770},{"name":"Punta di Taoria","lat":42.04443,"lon":9.22761,"ele":1769},{"name":"Monte San Petrone","lat":42.39625,"lon":9.32681,"ele":1767},{"name":"Forcelle","lat":42.27587,"lon":9.07292,"ele":1765},{"name":"Punta Pittinaghia","lat":42.42591,"lon":8.86008,"ele":1759},{"name":"Capu di a Borba","lat":42.31306,"lon":9.04885,"ele":1759},{"name":"Cima a e Caldane","lat":42.40246,"lon":8.94822,"ele":1758},{"name":"Monte Occhjatu","lat":41.90882,"lon":9.17088,"ele":1752},{"name":"Punta di Tozzarella","lat":41.85399,"lon":9.17606,"ele":1748},{"name":"Castellu d'Ornucciu","lat":41.83014,"lon":9.15694,"ele":1746},{"name":"Rocher d'Accella","lat":42.063,"lon":9.16117,"ele":1746},{"name":"Cristina","lat":41.99026,"lon":9.2301,"ele":1737},{"name":"Punta di Petra Facciata","lat":42.18549,"lon":9.10521,"ele":1733},{"name":"Punta Sistaja","lat":41.8569,"lon":9.11873,"ele":1724},{"name":"Punta di Caldane","lat":42.32948,"lon":9.34708,"ele":1724},{"name":"e Custole","lat":42.32447,"lon":8.83917,"ele":1721},{"name":"Capu Formiculaghiu","lat":42.4188,"lon":8.83847,"ele":1717},{"name":"Punta Cavallare","lat":42.4349,"lon":9.10859,"ele":1717},{"name":"Cima Laggiaro","lat":42.43437,"lon":9.0832,"ele":1715},{"name":"Capu a Rughia","lat":42.2718,"lon":8.88215,"ele":1712},{"name":"Monte Muffraje","lat":42.34103,"lon":9.34271,"ele":1712},{"name":"Punta Lattonaccia","lat":41.89921,"lon":9.21107,"ele":1710},{"name":"Punta Gialgone","lat":42.18728,"lon":9.09244,"ele":1710},{"name":"Punta Purcaraccia","lat":41.8316,"lon":9.23845,"ele":1706},{"name":"Aghiale","lat":41.99439,"lon":9.23285,"ele":1703},{"name":"Punta di Giavingiolu","lat":41.83798,"lon":9.13048,"ele":1700},{"name":"Punta di Campolongo","lat":41.97224,"lon":9.2265,"ele":1695},{"name":"Pointe Feniccia","lat":42.12735,"lon":9.03876,"ele":1690},{"name":"Monte San Parteo","lat":42.51957,"lon":8.96419,"ele":1688},{"name":"Punta di San Gio Agostino","lat":41.81856,"lon":9.22942,"ele":1686},{"name":"Punta Ventosa","lat":42.32782,"lon":9.35355,"ele":1686},{"name":"Punta Ciccia","lat":42.04832,"lon":9.24124,"ele":1683},{"name":"Punta Mantellucciu","lat":41.94409,"lon":9.03579,"ele":1679},{"name":"Monte Canoso","lat":41.82539,"lon":9.15362,"ele":1673},{"name":"Punta Carba","lat":41.84622,"lon":9.24989,"ele":1668},{"name":"Monte Lattone","lat":41.90681,"lon":9.19287,"ele":1668},{"name":"Punta Tavoliccio","lat":42.28375,"lon":9.05223,"ele":1661},{"name":"Rundinaia","lat":42.41544,"lon":9.10007,"ele":1658},{"name":"Punta di Campiglione","lat":42.05907,"lon":9.22567,"ele":1657},{"name":"Punta di Calavalonda","lat":42.31233,"lon":8.8466,"ele":1646},{"name":"Capo Aleri","lat":42.30552,"lon":9.06064,"ele":1634},{"name":"u Favarone","lat":42.21363,"lon":8.92508,"ele":1633},{"name":"Punta del Ceppo","lat":42.1151,"lon":9.09344,"ele":1632},{"name":"Capu di Manganu","lat":42.35527,"lon":8.97444,"ele":1631},{"name":"Punta di a Funtana Spartuta","lat":41.81963,"lon":9.14884,"ele":1631},{"name":"Punta d'Isa","lat":42.04141,"lon":9.02093,"ele":1630},{"name":"Capu Ghiovu","lat":42.47364,"lon":8.87868,"ele":1630},{"name":"Punta di Piana Longa","lat":41.81724,"lon":9.17773,"ele":1629},{"name":"Taglio di Serra Longa","lat":41.84138,"lon":9.14917,"ele":1627},{"name":"Monte Cervello","lat":42.14132,"lon":8.89768,"ele":1624},{"name":"Cima Caselle","lat":42.51601,"lon":8.9398,"ele":1622},{"name":"Punta di u Fenu","lat":42.02692,"lon":9.07885,"ele":1620},{"name":"Capu a a Ghiallichiccia","lat":42.33837,"lon":8.75884,"ele":1619},{"name":"Punta Bronco","lat":42.0658,"lon":9.23555,"ele":1615},{"name":"Punta di a Vacca","lat":41.80518,"lon":9.21409,"ele":1611},{"name":"Aiguilles de Falcone","lat":42.44018,"lon":8.90209,"ele":1610},{"name":"Capu Rasino","lat":42.43329,"lon":8.935,"ele":1604},{"name":"Capu di Vergio","lat":42.28506,"lon":8.88307,"ele":1598},{"name":"Punta di l'Arjettu","lat":41.80199,"lon":9.21367,"ele":1596},{"name":"Punta di Menta Morta","lat":41.80764,"lon":9.16926,"ele":1595},{"name":"Capu a a Penna","lat":42.31994,"lon":8.80655,"ele":1591},{"name":"Punta di a Cinasca","lat":41.82676,"lon":9.13611,"ele":1591},{"name":"Punta di l'Acellu","lat":41.80018,"lon":9.21465,"ele":1588},{"name":"Capu di Chiuvalle","lat":42.32275,"lon":8.76965,"ele":1587},{"name":"Monte Piano Maggiore","lat":42.34235,"lon":9.25471,"ele":1581},{"name":"U Candellone","lat":41.82844,"lon":9.23755,"ele":1577},{"name":"Punta Nera","lat":41.83318,"lon":9.24623,"ele":1572},{"name":"Punta di u Faiu","lat":41.93302,"lon":9.23209,"ele":1568},{"name":"Punta a u Finellu","lat":42.28539,"lon":9.09254,"ele":1565},{"name":"Punta Muro","lat":42.14822,"lon":9.19911,"ele":1565},{"name":"Capu di Melu","lat":42.25595,"lon":8.85364,"ele":1562},{"name":"Punta Tirulellu","lat":42.01144,"lon":8.98508,"ele":1541},{"name":"Punta Pinzuta","lat":41.84571,"lon":9.25447,"ele":1541},{"name":"Acellucciu","lat":41.79954,"lon":9.21441,"ele":1539},{"name":"Capu di Valadru","lat":42.29376,"lon":8.96131,"ele":1537},{"name":"Monte Astu","lat":42.5812,"lon":9.21,"ele":1535},{"name":"Punta Kyrie-Eleison","lat":42.07481,"lon":9.2385,"ele":1535},{"name":"Punta Paglia","lat":42.16301,"lon":9.21929,"ele":1532},{"name":"Petra San Ghiaccu","lat":42.57923,"lon":9.21216,"ele":1512},{"name":"Monte San Liseu","lat":42.20048,"lon":8.94292,"ele":1511},{"name":"L'incinosa","lat":42.21996,"lon":8.84862,"ele":1510},{"name":"Mont Tretorre","lat":42.14455,"lon":8.91691,"ele":1509},{"name":"Cima di Grimaseta","lat":42.57259,"lon":9.2159,"ele":1509},{"name":"Punta di a Scrucchiella","lat":42.33083,"lon":8.76317,"ele":1506},{"name":"Punta Pulischellu","lat":41.82652,"lon":9.23395,"ele":1501},{"name":"Castellu Muntone","lat":42.29682,"lon":8.97594,"ele":1493},{"name":"U Castellu","lat":41.81629,"lon":9.13678,"ele":1487},{"name":"Monte Rasu","lat":41.80075,"lon":9.17176,"ele":1484},{"name":"Monte Calleruccio","lat":42.35989,"lon":9.33149,"ele":1484},{"name":"Punta Velaco","lat":41.77427,"lon":9.2319,"ele":1483},{"name":"Pinzi di Prete Canone","lat":42.42544,"lon":8.87288,"ele":1483},{"name":"Punta Samulaghia","lat":41.75961,"lon":9.23061,"ele":1480},{"name":"Capu a Scalella","lat":42.27601,"lon":8.82314,"ele":1480},{"name":"Punta Martinellu","lat":42.15382,"lon":9.23089,"ele":1478},{"name":"Pointe de Grafalello","lat":42.18113,"lon":9.12361,"ele":1476},{"name":"Punta di u Marcurinacciu ou Punta di Bambiolu","lat":41.795,"lon":9.16074,"ele":1470},{"name":"Monte Reghia di Pozzo","lat":42.53948,"lon":9.22713,"ele":1469},{"name":"Punta di Ferru","lat":41.76324,"lon":9.23201,"ele":1468},{"name":"Monte Calanca","lat":42.34375,"lon":8.95769,"ele":1464},{"name":"Punta di Quercitella","lat":41.75201,"lon":9.22874,"ele":1461},{"name":"Capo Tubani","lat":42.38042,"lon":9.05563,"ele":1453},{"name":"Monte San Cervone","lat":42.34295,"lon":9.27207,"ele":1451},{"name":"Punta Bigornu","lat":41.80118,"lon":9.22085,"ele":1451},{"name":"Punta a i Novi","lat":42.11274,"lon":9.00322,"ele":1451},{"name":"Punta Aculone","lat":42.01045,"lon":8.97788,"ele":1450},{"name":"Punta Buvone","lat":41.76317,"lon":9.2356,"ele":1447},{"name":"Pointe de l'Orsaja","lat":42.31545,"lon":9.36823,"ele":1438},{"name":"Capu Tosu","lat":42.32321,"lon":8.79479,"ele":1434},{"name":"Capu Suariccione","lat":42.25277,"lon":8.83682,"ele":1433},{"name":"Testa di Catarello","lat":42.36275,"lon":9.32878,"ele":1428},{"name":"Punta di Paganella","lat":42.54929,"lon":9.22868,"ele":1427},{"name":"Bocca larga","lat":42.15704,"lon":8.86687,"ele":1425},{"name":"a Tusella","lat":42.31586,"lon":8.82001,"ele":1421},{"name":"Punta Ventosa","lat":42.37681,"lon":9.32514,"ele":1421},{"name":"Le Promontoire","lat":41.77637,"lon":9.23614,"ele":1420},{"name":"Punta di i Cavalletti","lat":41.80124,"lon":9.05962,"ele":1414},{"name":"Punta Sparaventosa","lat":42.02013,"lon":8.99786,"ele":1413},{"name":"Punta Sambucu","lat":41.79611,"lon":9.05598,"ele":1412},{"name":"Calanca Murata","lat":41.78004,"lon":9.23731,"ele":1408},{"name":"Punta di a Gianfena","lat":42.27431,"lon":9.14096,"ele":1408},{"name":"Punta di Favalta","lat":42.38254,"lon":9.32232,"ele":1404},{"name":"Monte San Petru","lat":41.75888,"lon":8.99275,"ele":1400},{"name":"Punta Furcata","lat":41.74617,"lon":9.2223,"ele":1398},{"name":"Aiguille de Bonifatu","lat":42.42933,"lon":8.88384,"ele":1390},{"name":"Monte Sant'Anghiuli","lat":42.5309,"lon":9.24671,"ele":1389},{"name":"Punta Cali","lat":42.15382,"lon":9.24889,"ele":1389},{"name":"Capu di Vegnu","lat":42.43828,"lon":8.80021,"ele":1388},{"name":"Poggio Grosso","lat":41.79015,"lon":9.0487,"ele":1386},{"name":"Punta di Poggio Grosso","lat":41.82956,"lon":9.09519,"ele":1383},{"name":"Monte Calva","lat":41.72271,"lon":9.22305,"ele":1381},{"name":"Monte Tasso","lat":42.52541,"lon":9.25075,"ele":1372},{"name":"Malpassu","lat":41.58836,"lon":9.10089,"ele":1371},{"name":"Monte a l'Alturaia","lat":42.59914,"lon":9.20821,"ele":1371},{"name":"Punta di Monte Sordu","lat":41.93549,"lon":9.24309,"ele":1365},{"name":"Monte Niellu","lat":41.99405,"lon":8.95663,"ele":1365},{"name":"Campanile di Sainta Lucia","lat":41.77663,"lon":9.2377,"ele":1363},{"name":"Rocher de Pentarione","lat":42.14963,"lon":9.22795,"ele":1359},{"name":"Punta d'Urghjavari","lat":41.91048,"lon":8.99366,"ele":1346},{"name":"Punta di Furchiccioli","lat":41.75617,"lon":8.977,"ele":1340},{"name":"Punta d'Ovace","lat":41.58295,"lon":9.0807,"ele":1340},{"name":"Monte di Peru","lat":42.58963,"lon":9.23019,"ele":1333},{"name":"Monte Tolu","lat":42.53781,"lon":8.97332,"ele":1331},{"name":"Capu di u Vitullu","lat":42.22763,"lon":8.69387,"ele":1331},{"name":"Capu Rustici","lat":42.27944,"lon":8.79478,"ele":1331},{"name":"Punta di a Taccolaja","lat":41.7801,"lon":9.03601,"ele":1330},{"name":"Monte Milajo","lat":41.97278,"lon":9.24121,"ele":1329},{"name":"Monte Cocciola","lat":42.04583,"lon":9.25829,"ele":1325},{"name":"Cima di e Follicie","lat":42.82772,"lon":9.38566,"ele":1324},{"name":"Punta San Petru","lat":41.78297,"lon":9.23843,"ele":1323},{"name":"Monte Vitullu","lat":41.86537,"lon":9.26973,"ele":1321},{"name":"Punta di a Vacca Morta","lat":41.65543,"lon":9.16382,"ele":1314},{"name":"Punta Tafonata di i Paliri","lat":41.79738,"lon":9.25676,"ele":1313},{"name":"Dame Jeanne","lat":41.786,"lon":9.22956,"ele":1313},{"name":"Punta di l'Alcudina","lat":41.98318,"lon":8.94372,"ele":1311},{"name":"Monte Terello","lat":42.47974,"lon":9.05278,"ele":1310},{"name":"Monte Stello","lat":42.78855,"lon":9.41853,"ele":1307},{"name":"Punta Aracale","lat":41.78788,"lon":9.24525,"ele":1300},{"name":"Cima a Muzzelli","lat":42.60438,"lon":9.20282,"ele":1299},{"name":"Punta di Compolelli","lat":41.60082,"lon":9.12458,"ele":1298},{"name":"Punta Furcuta","lat":41.59797,"lon":9.12116,"ele":1298},{"name":"Capu d'Orto","lat":42.242,"lon":8.70224,"ele":1294},{"name":"Punta Chiaragiolo","lat":42.14193,"lon":9.24615,"ele":1290},{"name":"Punta di Monaco","lat":41.57565,"lon":9.07581,"ele":1288},{"name":"Monte Olmelli","lat":42.3642,"lon":9.43273,"ele":1285},{"name":"Cima di Tombue","lat":42.547,"lon":9.01583,"ele":1285},{"name":"Cime de Monte Prato","lat":42.8349,"lon":9.38508,"ele":1282},{"name":"Capu a Vetta","lat":42.27863,"lon":8.75059,"ele":1282},{"name":"Punta della Gavina","lat":42.14152,"lon":9.25066,"ele":1281},{"name":"Punta di Tana","lat":42.17561,"lon":9.23102,"ele":1279},{"name":"Punta Lunarda","lat":41.83288,"lon":9.25448,"ele":1276},{"name":"Punta di Bonifacio","lat":41.7667,"lon":9.24721,"ele":1276},{"name":"Punta Erbajola","lat":41.78339,"lon":9.24003,"ele":1276},{"name":"Punta Pruno","lat":42.14267,"lon":9.23963,"ele":1275},{"name":"Capu Sant'Anghiulu","lat":42.22156,"lon":8.81952,"ele":1273},{"name":"Punta Sant'Eliseu","lat":42.05657,"lon":8.87647,"ele":1271},{"name":"Punta di a Calancona","lat":41.82235,"lon":9.23566,"ele":1271},{"name":"Castellu di l'Accintu","lat":41.65645,"lon":9.15813,"ele":1271},{"name":"Punta di Bazzighera","lat":42.21059,"lon":8.85616,"ele":1269},{"name":"Punta Cutina","lat":42.07138,"lon":9.25674,"ele":1268},{"name":"Punta","lat":41.78608,"lon":9.2424,"ele":1267},{"name":"Rocher de Muteri","lat":42.29656,"lon":9.40291,"ele":1267},{"name":"Punta Ciaccianu","lat":41.78701,"lon":9.24324,"ele":1267},{"name":"Punta Caccione","lat":42.02046,"lon":8.95538,"ele":1265},{"name":"Cima Capizzolo","lat":42.48319,"lon":9.07368,"ele":1262},{"name":"Rocher de Christe-Eleison","lat":42.08202,"lon":9.22208,"ele":1260},{"name":"Cime de Codoli","lat":42.83692,"lon":9.37979,"ele":1260},{"name":"Pointe de San Bavinzo","lat":41.78811,"lon":9.03435,"ele":1260},{"name":"Punta di Compoli","lat":42.34627,"lon":9.43414,"ele":1259},{"name":"Punta di l'Arleda","lat":41.899,"lon":9.15427,"ele":1254},{"name":"Punta Caletta","lat":41.78486,"lon":9.24159,"ele":1251},{"name":"Monte di e Tre Pievi","lat":42.35501,"lon":9.43042,"ele":1247},{"name":"Quercitello","lat":42.50284,"lon":9.24792,"ele":1245},{"name":"Pointe de Prunicciosa","lat":42.13281,"lon":9.25712,"ele":1243},{"name":"Punta di Varracaccia","lat":41.91631,"lon":9.06269,"ele":1242},{"name":"Punta di Logoniello","lat":42.12248,"lon":9.27742,"ele":1240},{"name":"Capu a u Quercetu","lat":42.31108,"lon":8.76794,"ele":1238},{"name":"Rocher de Pruberzulu","lat":42.82414,"lon":9.39178,"ele":1236},{"name":"Cima a u Spazzolu","lat":42.5462,"lon":9.34925,"ele":1234},{"name":"Cima di Modico","lat":42.49256,"lon":9.09386,"ele":1228},{"name":"Punta di u Diamante","lat":41.69505,"lon":9.20334,"ele":1227},{"name":"Capu a é Macenule","lat":42.22004,"lon":8.73963,"ele":1226},{"name":"Cima di Cagna","lat":41.5635,"lon":9.06512,"ele":1225},{"name":"Pointe Tintorajo","lat":42.30346,"lon":9.3986,"ele":1225},{"name":"Cima di Tanoria","lat":42.53703,"lon":9.33495,"ele":1224},{"name":"Mont du Concone","lat":42.37059,"lon":9.42784,"ele":1224},{"name":"Punta d'Eria","lat":42.171,"lon":9.22484,"ele":1222},{"name":"Monte Sant'Angelo","lat":42.46328,"lon":9.4084,"ele":1218},{"name":"Uomo di Cagna","lat":41.56221,"lon":9.06466,"ele":1217},{"name":"Castellucciu","lat":41.73458,"lon":9.21967,"ele":1214},{"name":"Punta di U Corbu","lat":41.67084,"lon":9.19381,"ele":1213},{"name":"Punta di a Muvra","lat":41.83003,"lon":9.25234,"ele":1212},{"name":"Punta San Petru","lat":41.97065,"lon":8.92131,"ele":1211},{"name":"Punta Rossa","lat":41.82082,"lon":9.24368,"ele":1211},{"name":"Capu a a Forcella","lat":42.20839,"lon":8.79375,"ele":1204},{"name":"U Cimone","lat":42.75325,"lon":9.39111,"ele":1198},{"name":"Punta Taculaghja","lat":41.73829,"lon":9.21859,"ele":1195},{"name":"Punta di Casanova","lat":42.1278,"lon":9.26022,"ele":1194},{"name":"Capu di Larata","lat":42.26837,"lon":8.75069,"ele":1193},{"name":"Punta Cervio","lat":42.2448,"lon":9.31172,"ele":1189},{"name":"Monte di a Cibiolla","lat":42.80325,"lon":9.40714,"ele":1186},{"name":"Punta Petrosa","lat":41.97644,"lon":8.93817,"ele":1183},{"name":"Monte Prunu","lat":42.75113,"lon":9.38809,"ele":1183},{"name":"Punta di Bonassa","lat":42.42955,"lon":8.80968,"ele":1179},{"name":"Punta Sentinedda","lat":41.83638,"lon":9.25367,"ele":1179},{"name":"A Cipolla","lat":42.50135,"lon":9.25318,"ele":1177},{"name":"Punta di Malanda","lat":41.83579,"lon":9.25885,"ele":1168},{"name":"Punta di Pancone","lat":42.0391,"lon":9.26852,"ele":1167},{"name":"Croce Viezza","lat":42.8524,"lon":9.39438,"ele":1165},{"name":"Punta di a Cuciurpula","lat":41.76412,"lon":9.1132,"ele":1164},{"name":"Punta di Sarracianaggio","lat":41.89468,"lon":8.94752,"ele":1161},{"name":"Punta Banditi","lat":42.18906,"lon":9.13578,"ele":1159},{"name":"Punta di u Corbu","lat":41.82859,"lon":9.25451,"ele":1157},{"name":"Pointe d'Evoli","lat":42.55611,"lon":9.37496,"ele":1152},{"name":"Pointe de Sambuco","lat":42.30666,"lon":9.38213,"ele":1152},{"name":"Monte Alto","lat":42.29669,"lon":9.41386,"ele":1151},{"name":"Monte Pruno","lat":42.50795,"lon":9.21864,"ele":1150},{"name":"Monte Tevisi","lat":42.50356,"lon":9.21821,"ele":1150},{"name":"Pietra Ellerata","lat":41.94646,"lon":9.26267,"ele":1139},{"name":"Monte Alticcione","lat":42.86111,"lon":9.40219,"ele":1136},{"name":"Monte Negrine","lat":42.34486,"lon":9.47691,"ele":1133},{"name":"Capu Calazzu","lat":42.18551,"lon":8.70276,"ele":1131},{"name":"Punta Castellucciu","lat":41.89902,"lon":9.25224,"ele":1130},{"name":"Capu a à Curnacchia","lat":42.22372,"lon":8.70758,"ele":1123},{"name":"Punta Mozza","lat":41.86877,"lon":9.30461,"ele":1122},{"name":"Mont de Pruno","lat":42.29654,"lon":9.37857,"ele":1122},{"name":"Larcione","lat":42.3142,"lon":8.77531,"ele":1120},{"name":"Punta di Monte Sordu","lat":41.78059,"lon":9.27871,"ele":1117},{"name":"Cime des Taffoni","lat":42.56007,"lon":9.38205,"ele":1117},{"name":"Mont Falcone","lat":42.29453,"lon":9.38079,"ele":1116},{"name":"Punta di Purcili","lat":41.74719,"lon":8.95706,"ele":1114},{"name":"Cima di u Cugnolu","lat":42.52977,"lon":9.05713,"ele":1113},{"name":"Capu di a Corna","lat":42.3109,"lon":8.98843,"ele":1113},{"name":"Punta di Crusta","lat":42.19365,"lon":8.88233,"ele":1112},{"name":"Punta Chjiapponu","lat":41.79531,"lon":9.25012,"ele":1111},{"name":"Capu a u Monte","lat":42.24134,"lon":8.7556,"ele":1110},{"name":"Monte Castello d'Osari","lat":42.33936,"lon":9.46735,"ele":1109},{"name":"Pietrapolo","lat":42.54273,"lon":9.311,"ele":1104},{"name":"Pointe de Campana","lat":42.26975,"lon":9.44419,"ele":1093},{"name":"Punta di l'Anima Damnata","lat":41.79111,"lon":9.26413,"ele":1091},{"name":"Poggio di Furchi","lat":41.77993,"lon":9.10258,"ele":1090},{"name":"Punta di Ferriate","lat":41.80814,"lon":9.27314,"ele":1087},{"name":"Capu Cardelu","lat":42.45037,"lon":8.79881,"ele":1087},{"name":"Punta Maggiori","lat":41.89735,"lon":8.96031,"ele":1080},{"name":"Pinzalone","lat":42.57566,"lon":9.18463,"ele":1078},{"name":"Focu Stantaru","lat":41.85945,"lon":9.28086,"ele":1077},{"name":"Pointe de Cervello","lat":42.2028,"lon":9.16162,"ele":1075},{"name":"L'Altare","lat":42.47118,"lon":9.08037,"ele":1074},{"name":"Monte Acciaiu","lat":41.75979,"lon":9.0302,"ele":1072},{"name":"Pointe d'Orzale","lat":42.29631,"lon":9.32087,"ele":1071},{"name":"Furcone di i Paliri","lat":41.78829,"lon":9.26317,"ele":1066},{"name":"Monte Ambrica","lat":42.61687,"lon":9.1835,"ele":1063},{"name":"Pointe de Figarello","lat":42.28375,"lon":9.33464,"ele":1063},{"name":"Santore","lat":42.45279,"lon":8.80248,"ele":1063},{"name":"Monte Tomboni","lat":42.32817,"lon":9.19921,"ele":1063},{"name":"Punta Falconaccia","lat":42.01437,"lon":8.93925,"ele":1062},{"name":"Punta Cuzzanicciu","lat":41.85407,"lon":8.88757,"ele":1058},{"name":"Monte Rossu","lat":41.69112,"lon":9.22002,"ele":1058},{"name":"Punta Carpiniccia","lat":42.11257,"lon":9.27972,"ele":1056},{"name":"Punta di i Paliri","lat":41.79539,"lon":9.26298,"ele":1054},{"name":"Pointe d'Uccello","lat":42.07551,"lon":9.27676,"ele":1054},{"name":"Punta Alta","lat":42.02103,"lon":9.26258,"ele":1053},{"name":"Croce Di Zuccaro","lat":42.36881,"lon":9.45127,"ele":1049},{"name":"Punta di Solenzara","lat":41.81044,"lon":9.27531,"ele":1049},{"name":"Punta Grossa","lat":42.10104,"lon":8.95579,"ele":1049},{"name":"Punta di Quarcio Grosso","lat":41.94963,"lon":9.29496,"ele":1045},{"name":"Punta Bujacone","lat":41.86417,"lon":9.28419,"ele":1043},{"name":"A Genucula","lat":42.59214,"lon":9.24388,"ele":1042},{"name":"Punta Peccuraghja","lat":42.07271,"lon":8.89695,"ele":1039},{"name":"Monte di Giagoppa","lat":42.72941,"lon":9.38984,"ele":1038},{"name":"Punta di Mangaio","lat":42.26984,"lon":9.31278,"ele":1036},{"name":"Punta di i Vaccili","lat":41.77062,"lon":9.11996,"ele":1036},{"name":"Punta di Pinarello","lat":41.96687,"lon":9.25067,"ele":1035},{"name":"Punta di Serradu","lat":41.7109,"lon":9.09148,"ele":1033},{"name":"Punta Cisterna","lat":42.27672,"lon":9.15158,"ele":1031},{"name":"Pinzalone","lat":42.81523,"lon":9.40932,"ele":1030},{"name":"Cime de Stella","lat":42.5588,"lon":9.39042,"ele":1029},{"name":"Punta Balardia","lat":41.77779,"lon":9.30301,"ele":1028},{"name":"Culletta a e Conche","lat":42.2302,"lon":8.78335,"ele":1027},{"name":"Teghie Lisce","lat":41.82726,"lon":9.25631,"ele":1025},{"name":"Punta Diputata","lat":41.80603,"lon":9.26205,"ele":1025},{"name":"Punta di Curnatoghiu","lat":41.82262,"lon":9.24297,"ele":1025},{"name":"Punta di a Cioccia","lat":41.77205,"lon":9.09754,"ele":1025},{"name":"Cima di Gratera","lat":42.72475,"lon":9.38929,"ele":1024},{"name":"Capu Manganellu","lat":42.35115,"lon":8.7163,"ele":1023},{"name":"Punta di Finaggia","lat":41.66805,"lon":9.21521,"ele":1019},{"name":"Cime de Penta Frescaja","lat":42.44984,"lon":9.39319,"ele":1016},{"name":"Punta Fioravanti","lat":42.10981,"lon":9.28106,"ele":1014},{"name":"Corbaja","lat":41.94711,"lon":9.28342,"ele":1012},{"name":"Pointe de Mufuncello","lat":42.26409,"lon":9.4473,"ele":1012},{"name":"Pinzalone","lat":42.29551,"lon":9.35644,"ele":1011},{"name":"Punta di Juva","lat":41.95057,"lon":9.27028,"ele":1004},{"name":"Croce Niolo","lat":42.40403,"lon":9.44684,"ele":1000},{"name":"Punta di Valle Majo","lat":42.29395,"lon":9.33598,"ele":999},{"name":"Mont Razza","lat":42.34976,"lon":9.47289,"ele":997},{"name":"Raghia Buia","lat":42.53319,"lon":9.28712,"ele":995},{"name":"Punta San Damiano","lat":42.06216,"lon":8.84377,"ele":994},{"name":"Punta Renaghju","lat":41.81872,"lon":9.24488,"ele":994},{"name":"Punta Cavita","lat":42.33239,"lon":8.80564,"ele":991},{"name":"Punta Roncatoggio","lat":42.03692,"lon":9.27417,"ele":988},{"name":"Dente Purcaraccia","lat":41.83981,"lon":9.26864,"ele":981},{"name":"Pointe de Felicione","lat":42.35246,"lon":9.48025,"ele":980},{"name":"Punta Batarchione","lat":41.77951,"lon":9.31291,"ele":977},{"name":"Penta Rosa","lat":42.37135,"lon":9.45218,"ele":977},{"name":"Punta Pelosu","lat":41.72409,"lon":9.01882,"ele":976},{"name":"Monte Bracciutu","lat":41.79394,"lon":9.27676,"ele":974},{"name":"Punta Purtellu","lat":41.86794,"lon":9.28873,"ele":971},{"name":"Rocher de Mozzone","lat":42.29741,"lon":9.39548,"ele":971},{"name":"Punta di u Pinelu","lat":41.90699,"lon":9.28521,"ele":961},{"name":"Le Belvedère","lat":42.26287,"lon":8.82101,"ele":960},{"name":"Serra di Pigno","lat":42.69511,"lon":9.40056,"ele":958},{"name":"Punta d'Eltru","lat":42.36029,"lon":8.75751,"ele":956},{"name":"Monte Zuccarello","lat":42.62862,"lon":9.38386,"ele":955},{"name":"Pointe d'Albarello","lat":42.35585,"lon":9.48212,"ele":955},{"name":"Punta","lat":42.1093,"lon":9.2231,"ele":954},{"name":"Punta a u Cioccio","lat":42.36633,"lon":9.34888,"ele":954},{"name":"Punta Zibo","lat":41.70481,"lon":9.01863,"ele":953},{"name":"Monte al Frate","lat":42.84066,"lon":9.35421,"ele":941},{"name":"Punta di Zurmulu","lat":42.2993,"lon":9.13319,"ele":940},{"name":"Pointe Castello","lat":42.28517,"lon":9.37871,"ele":935},{"name":"Monte Cucaru","lat":42.83922,"lon":9.35249,"ele":933},{"name":"Cima a u Borgu","lat":42.45161,"lon":9.37372,"ele":929},{"name":"Punta Salisei","lat":42.34865,"lon":8.68377,"ele":927},{"name":"Punta Castellare","lat":41.87595,"lon":8.92165,"ele":925},{"name":"Punta di Bassatone","lat":41.96283,"lon":8.98433,"ele":924},{"name":"Punta di a Saltelle","lat":42.13334,"lon":8.75838,"ele":920},{"name":"Capu San Petru","lat":42.27756,"lon":8.722,"ele":914},{"name":"Piton d'Acquilaghju","lat":42.05571,"lon":9.26794,"ele":914},{"name":"Punta Calazzu","lat":42.17871,"lon":8.71541,"ele":907},{"name":"Capu d'Orzu","lat":42.24693,"lon":8.80466,"ele":906},{"name":"Punta di a Cuma","lat":42.15427,"lon":8.78851,"ele":904},{"name":"Cima di Luda","lat":42.52912,"lon":9.09238,"ele":904},{"name":"Punta di u Pinzalone","lat":41.74776,"lon":9.17512,"ele":903},{"name":"Capigiolu d'Eltru","lat":42.36255,"lon":8.76159,"ele":900},{"name":"Pointe de Tuberca","lat":42.27238,"lon":9.35345,"ele":897},{"name":"Monte Rosso","lat":42.03431,"lon":9.27945,"ele":897},{"name":"Capu d'Ota","lat":42.26198,"lon":8.73939,"ele":890},{"name":"Monte Aragnascu","lat":41.95408,"lon":8.87163,"ele":888},{"name":"Punta di Penna di l'Aquila","lat":41.93849,"lon":9.29182,"ele":885},{"name":"Pointe de Serra","lat":42.08599,"lon":9.29811,"ele":881},{"name":"Monte Murzaio","lat":42.70903,"lon":9.40358,"ele":880},{"name":"Punta Biciartula","lat":41.81949,"lon":9.24765,"ele":878},{"name":"Punta San Sisto","lat":42.02279,"lon":8.79224,"ele":876},{"name":"Punta di Buturetu","lat":41.72574,"lon":8.90873,"ele":871},{"name":"Punta a à Vita","lat":42.08359,"lon":8.81569,"ele":867},{"name":"Punta a Scopa","lat":42.0831,"lon":8.82425,"ele":867},{"name":"Monte Butara","lat":41.85081,"lon":9.27931,"ele":862},{"name":"Punta di Ficaghiola","lat":42.44815,"lon":8.86111,"ele":861},{"name":"Cima di Petricali","lat":42.59353,"lon":9.24747,"ele":853},{"name":"Monte a a Torra","lat":42.64963,"lon":9.37721,"ele":852},{"name":"Capu di Curzu","lat":42.33229,"lon":8.67011,"ele":852},{"name":"Punta Rossa","lat":42.35025,"lon":9.48563,"ele":852},{"name":"Punta di Mola","lat":41.65994,"lon":9.24406,"ele":852},{"name":"Punta Scalajolo","lat":42.10822,"lon":9.29017,"ele":849},{"name":"Capu Pianu","lat":42.50262,"lon":8.73358,"ele":848},{"name":"Cime de Furtine","lat":42.6387,"lon":9.38328,"ele":843},{"name":"u Peru","lat":41.81186,"lon":9.26491,"ele":842},{"name":"Capu di u Ghineparu","lat":42.23778,"lon":8.7818,"ele":842},{"name":"Punta di u Scapalone","lat":41.73563,"lon":9.16843,"ele":840},{"name":"A Zucca","lat":41.81175,"lon":9.26602,"ele":840},{"name":"Capu Tondu","lat":42.39455,"lon":8.66309,"ele":839},{"name":"Monte San Columbano","lat":42.71496,"lon":9.40736,"ele":839},{"name":"Castellu","lat":42.00458,"lon":8.94229,"ele":837},{"name":"Monte Grofiglieta","lat":42.88916,"lon":9.36157,"ele":836},{"name":"Monte Torricella","lat":42.58878,"lon":9.3913,"ele":835},{"name":"Punta di a Chiave","lat":41.77559,"lon":9.2521,"ele":834},{"name":"Monte Angelo","lat":42.41205,"lon":9.16307,"ele":833},{"name":"Monte Maiò","lat":42.04225,"lon":8.84195,"ele":832},{"name":"Capu di Pratu","lat":42.49808,"lon":8.86435,"ele":828},{"name":"Punta di u Larcietu","lat":41.76377,"lon":9.25876,"ele":828},{"name":"Punta di u Tartavellu","lat":42.35918,"lon":8.68261,"ele":828},{"name":"Pointe d'Acqua Freddola","lat":42.26264,"lon":9.42884,"ele":819},{"name":"Pointe de Contra d'Uccellu","lat":41.74884,"lon":9.12834,"ele":819},{"name":"Punta Pastinaca","lat":42.01017,"lon":8.79731,"ele":814},{"name":"Punta Pinzuta","lat":41.76848,"lon":9.30911,"ele":814},{"name":"Capu di l'Argentella","lat":42.45811,"lon":8.71411,"ele":813},{"name":"Mont Picciolo","lat":42.28409,"lon":9.45642,"ele":810},{"name":"Conca","lat":41.7567,"lon":9.3071,"ele":809},{"name":"Pointe d'Evini","lat":41.71864,"lon":9.16409,"ele":809},{"name":"Punta di Cervo","lat":41.96015,"lon":9.27626,"ele":807},{"name":"Punta Pinetu","lat":41.69802,"lon":9.14178,"ele":807},{"name":"Capigiolu Tondu","lat":42.36701,"lon":8.76163,"ele":805},{"name":"Capu di Bestia","lat":42.5547,"lon":8.87736,"ele":804},{"name":"Punta di Maschiu","lat":42.13638,"lon":8.77468,"ele":804},{"name":"San Giovanni","lat":42.61371,"lon":9.37348,"ele":804},{"name":"Punta di Boiu Scurticatu","lat":41.73316,"lon":9.15995,"ele":804},{"name":"Punta di u Corbu","lat":42.29043,"lon":9.14776,"ele":802},{"name":"Calatoja","lat":41.96795,"lon":9.2771,"ele":801},{"name":"Sapara Tafunata","lat":41.75154,"lon":9.24259,"ele":801},{"name":"Pointe de Ciglione","lat":42.27392,"lon":9.36211,"ele":801},{"name":"Monte Cintu","lat":42.49193,"lon":8.73483,"ele":801},{"name":"Pointe Castello","lat":42.28264,"lon":9.45423,"ele":798},{"name":"Punta di Chiostri","lat":41.73134,"lon":8.96344,"ele":796},{"name":"Pianu di a Sarra","lat":42.03897,"lon":8.83526,"ele":794},{"name":"Cima Orcaio","lat":42.68509,"lon":9.39562,"ele":788},{"name":"Punta di Lisa","lat":41.94606,"lon":8.67921,"ele":787},{"name":"Punta di a Sanavesa","lat":41.73014,"lon":9.17079,"ele":786},{"name":"Punta di a Literniccia","lat":42.37308,"lon":8.63018,"ele":784},{"name":"Punta Chigliani","lat":42.15923,"lon":9.31432,"ele":784},{"name":"Punta di San Mamilianu","lat":42.37366,"lon":9.46567,"ele":782},{"name":"Punta di Brunetti","lat":41.72979,"lon":8.96625,"ele":780},{"name":"Punta Pozzo di Borgo","lat":41.95324,"lon":8.70055,"ele":780},{"name":"Capu di Roncu","lat":42.44447,"lon":8.8647,"ele":780},{"name":"Punta di Sarracinu","lat":41.74252,"lon":9.1264,"ele":779},{"name":"Monte Pinzali","lat":42.6106,"lon":9.37228,"ele":778},{"name":"Pointe de Galera","lat":42.27937,"lon":9.4485,"ele":778},{"name":"Capu a u Liccetu","lat":42.44749,"lon":8.71062,"ele":777},{"name":"Cima di Pinzali","lat":42.55568,"lon":9.15587,"ele":776},{"name":"Capu di u Figliulellu","lat":42.33031,"lon":8.67291,"ele":774},{"name":"Monaco","lat":42.28031,"lon":9.43045,"ele":774},{"name":"Punta Calatoghiu","lat":42.44115,"lon":8.84732,"ele":767},{"name":"Monte di Laronu","lat":41.82954,"lon":9.27932,"ele":766},{"name":"Monte Stavu","lat":42.77786,"lon":9.36676,"ele":764},{"name":"Punta Malatone","lat":42.05664,"lon":9.28132,"ele":760},{"name":"Punta Sapineu","lat":42.07338,"lon":8.86598,"ele":759},{"name":"Punta a i Termini","lat":42.28725,"lon":9.42809,"ele":758},{"name":"Monte Cupieta","lat":42.89258,"lon":9.35129,"ele":756},{"name":"Monte Cecu","lat":42.32988,"lon":9.15836,"ele":754},{"name":"Pointe de Nivischio","lat":42.15052,"lon":9.32087,"ele":754},{"name":"Punta Cocca","lat":41.70726,"lon":9.28354,"ele":754},{"name":"Grati","lat":41.94705,"lon":9.32971,"ele":749},{"name":"Monte Grossu","lat":42.08633,"lon":9.2715,"ele":743},{"name":"Monte Alto","lat":42.48322,"lon":9.10189,"ele":743},{"name":"Capu Cadamalzi","lat":42.35977,"lon":8.67228,"ele":742},{"name":"Punta Lucciu","lat":42.37625,"lon":8.64569,"ele":741},{"name":"Capu di u Ravalente","lat":42.49467,"lon":8.85489,"ele":736},{"name":"Capu Avazeri","lat":42.54552,"lon":8.90487,"ele":730},{"name":"Punta Capizzali","lat":42.14458,"lon":9.34312,"ele":729},{"name":"Monte Ravu","lat":42.21187,"lon":8.61186,"ele":728},{"name":"Punta di Rimonduli","lat":41.82538,"lon":8.8581,"ele":728},{"name":"Capu di Chiumi","lat":42.40763,"lon":8.74202,"ele":727},{"name":"Punta Alsivisu","lat":42.09508,"lon":8.83226,"ele":726},{"name":"Capu di a Conca","lat":42.52215,"lon":8.74844,"ele":725},{"name":"Pointe de Cantone","lat":42.30171,"lon":9.4346,"ele":723},{"name":"Capu di U Curbaghiu","lat":42.4609,"lon":8.80881,"ele":721},{"name":"Rocher des Gozzi","lat":42.0049,"lon":8.79416,"ele":716},{"name":"U Castellu","lat":41.96775,"lon":9.28226,"ele":713},{"name":"Punta di Rasicciu","lat":42.89789,"lon":9.36343,"ele":712},{"name":"Punta di u Castellu","lat":41.86472,"lon":9.32207,"ele":711},{"name":"Capu Rutalbu","lat":42.5011,"lon":8.71862,"ele":711},{"name":"Vaccile","lat":42.00582,"lon":9.29253,"ele":709},{"name":"Monte Pinzutu","lat":42.75177,"lon":9.37005,"ele":708},{"name":"Capu a Merla","lat":42.15927,"lon":8.66477,"ele":705},{"name":"Capu di a Veta","lat":42.52917,"lon":8.74394,"ele":703},{"name":"Capu di Bagliu","lat":42.15642,"lon":8.6577,"ele":701},{"name":"Pointe de Fontanaccio","lat":42.27301,"lon":9.36972,"ele":696},{"name":"Punta d'Ortu","lat":41.74525,"lon":9.33444,"ele":695},{"name":"Punta di Meruliccia","lat":41.62097,"lon":9.00683,"ele":695},{"name":"Capu Minuticcia","lat":42.36942,"lon":8.762,"ele":692},{"name":"Monte Grossu","lat":42.57943,"lon":9.17878,"ele":691},{"name":"Punta di Forcone","lat":41.6384,"lon":9.06222,"ele":688},{"name":"Punta di u Calancone","lat":41.9301,"lon":9.27231,"ele":686},{"name":"Pointe de Granaja","lat":42.30141,"lon":9.4408,"ele":685},{"name":"Pointe de Serra","lat":42.13636,"lon":9.34176,"ele":675},{"name":"Punta di Guaitella","lat":42.72569,"lon":9.42749,"ele":675},{"name":"Sampolo","lat":42.09893,"lon":9.26035,"ele":673},{"name":"Mont Alto","lat":41.99417,"lon":9.28481,"ele":668},{"name":"Punta di Giglio","lat":41.9699,"lon":9.31521,"ele":666},{"name":"Punta Pinosa","lat":41.70106,"lon":9.29309,"ele":666},{"name":"Punta Savaziglia","lat":41.67976,"lon":8.96678,"ele":665},{"name":"Rocher de Cardetto","lat":42.06582,"lon":9.28833,"ele":665},{"name":"Monte Secco","lat":42.6756,"lon":9.37574,"ele":662},{"name":"Punta di u Monte","lat":41.80523,"lon":8.82749,"ele":661},{"name":"Pointe de Vecchieroni","lat":42.14815,"lon":9.33182,"ele":658},{"name":"Monte A Supietra","lat":42.37852,"lon":9.18225,"ele":653},{"name":"Punta d'Arese","lat":41.95363,"lon":8.94536,"ele":652},{"name":"Monte Rottu","lat":42.90263,"lon":9.37014,"ele":650},{"name":"Cima di Campo a u Scudu","lat":42.62228,"lon":9.22377,"ele":649},{"name":"Punta di a Saina","lat":41.77015,"lon":8.77405,"ele":647},{"name":"Punta Radichella","lat":41.75143,"lon":9.29917,"ele":642},{"name":"Capu Licchia","lat":42.37128,"lon":8.60533,"ele":639},{"name":"Capu Rossu","lat":42.46709,"lon":8.81291,"ele":635},{"name":"l'Atornu","lat":42.75474,"lon":9.35795,"ele":629},{"name":"Scapone","lat":41.55279,"lon":9.01514,"ele":626},{"name":"Monte San Ghiabicu","lat":42.23803,"lon":8.62114,"ele":625},{"name":"Punta di a Chjapparossa","lat":41.78018,"lon":8.79607,"ele":620},{"name":"Punta Mulendinu","lat":42.01786,"lon":8.74568,"ele":619},{"name":"Punta Castellare","lat":41.9886,"lon":8.89498,"ele":615},{"name":"Punta di Lora","lat":41.75613,"lon":9.28746,"ele":614},{"name":"Punta di Corbi","lat":41.87647,"lon":9.32816,"ele":613},{"name":"Monte d'Oro","lat":42.04683,"lon":9.29997,"ele":611},{"name":"Aiguilles d'Ornucciu","lat":41.82061,"lon":9.27803,"ele":610},{"name":"A Punta","lat":41.67778,"lon":9.1452,"ele":610},{"name":"Punta di Scandulaja","lat":41.62375,"lon":8.92299,"ele":609},{"name":"Punta di Morto Marino","lat":41.59804,"lon":8.96597,"ele":609},{"name":"Punta Finocchiaja","lat":41.78228,"lon":9.34089,"ele":607},{"name":"Punta di Gulfidoni","lat":42.92195,"lon":9.3899,"ele":606},{"name":"Monte delle Castelle","lat":42.94734,"lon":9.3985,"ele":603},{"name":"Punta di Castellucciu","lat":41.64774,"lon":9.05109,"ele":601},{"name":"Monte Santu","lat":41.82638,"lon":9.36226,"ele":599},{"name":"Monte di Core","lat":42.06929,"lon":9.3153,"ele":597},{"name":"San Damianu","lat":42.57905,"lon":9.27456,"ele":596},{"name":"Punta di l'Uncinutu","lat":41.81212,"lon":9.32207,"ele":593},{"name":"Punta d'Arjavara","lat":41.8289,"lon":9.26466,"ele":590},{"name":"Punta di Ribeti","lat":42.0707,"lon":9.30919,"ele":588},{"name":"Femina Morte","lat":41.7635,"lon":9.32936,"ele":585},{"name":"Punta di u Castellacciu","lat":41.81219,"lon":9.33097,"ele":580},{"name":"Punta di Pintone","lat":41.5836,"lon":8.96475,"ele":579},{"name":"Urticelli","lat":41.98082,"lon":8.74748,"ele":573},{"name":"Sambucu","lat":42.62597,"lon":9.40761,"ele":573},{"name":"Punta di Furcona","lat":41.6265,"lon":8.88674,"ele":567},{"name":"Monte di e Guadelle","lat":42.94476,"lon":9.38355,"ele":566},{"name":"Ripa di Ferramoto","lat":41.96955,"lon":9.29571,"ele":565},{"name":"Castellucciu","lat":41.82169,"lon":9.28193,"ele":564},{"name":"Punta Picchialo","lat":41.78579,"lon":9.3346,"ele":563},{"name":"Capu d'Occi","lat":42.5825,"lon":8.84461,"ele":563},{"name":"Monte Sant Anghjulu","lat":42.60783,"lon":8.91425,"ele":562},{"name":"Punta Mezzana","lat":41.80933,"lon":9.30733,"ele":562},{"name":"Punta di Mandrioni","lat":42.96577,"lon":9.38154,"ele":562},{"name":"Punta di Cumpulaccia","lat":41.68041,"lon":9.06776,"ele":562},{"name":"Capu Purcile","lat":42.35598,"lon":8.57494,"ele":560},{"name":"Punta Licciola","lat":42.29377,"lon":9.25458,"ele":559},{"name":"Punta di Petra Facciata","lat":41.84363,"lon":9.28225,"ele":559},{"name":"Capu Bracajo","lat":42.57373,"lon":8.84411,"ele":556},{"name":"Pointe de Scampolelli","lat":42.18842,"lon":9.30819,"ele":556},{"name":"Monte Canarinco","lat":42.67396,"lon":9.39247,"ele":548},{"name":"Monte Maio","lat":41.99342,"lon":8.89896,"ele":548},{"name":"Pietromini","lat":42.07488,"lon":9.31052,"ele":543},{"name":"Punta Stepida;Le 360","lat":42.04955,"lon":9.30824,"ele":542},{"name":"Punta di i Partusi","lat":41.59408,"lon":8.97637,"ele":542},{"name":"Pointe de Paccialaccia","lat":42.14447,"lon":9.3571,"ele":538},{"name":"Punta di Coma Capranu","lat":41.62313,"lon":8.94469,"ele":535},{"name":"Cinaraggia","lat":41.92128,"lon":8.67848,"ele":528},{"name":"Cinaraggia","lat":41.92128,"lon":8.67847,"ele":528},{"name":"Punta Belliche","lat":41.81215,"lon":9.34472,"ele":525},{"name":"Punta di u Pireddu","lat":41.76335,"lon":8.75779,"ele":518},{"name":"Capu Ghineparu","lat":42.24793,"lon":8.65266,"ele":515},{"name":"Punta di Cinaja","lat":41.72131,"lon":9.31146,"ele":511},{"name":"Punta di u Paradisu","lat":41.63939,"lon":9.02195,"ele":508},{"name":"l'Astasia","lat":41.75573,"lon":8.74856,"ele":501},{"name":"Punta di Sorba","lat":41.87615,"lon":9.34771,"ele":498},{"name":"Pointe Piscia","lat":41.69838,"lon":9.27428,"ele":498},{"name":"Monte Oppido","lat":42.29189,"lon":9.48283,"ele":497},{"name":"Monte Popolu","lat":42.91143,"lon":9.37675,"ele":496},{"name":"Punta Piana","lat":41.72984,"lon":9.28545,"ele":496},{"name":"Punta Mora","lat":41.97831,"lon":8.76246,"ele":495},{"name":"Monte di Lana","lat":42.0112,"lon":9.31312,"ele":494},{"name":"Pointe Miluccia","lat":42.01457,"lon":9.30805,"ele":494},{"name":"Corbaggio","lat":42.50279,"lon":8.84805,"ele":493},{"name":"Puntali","lat":42.28491,"lon":9.47386,"ele":488},{"name":"Punta di Capacciolu","lat":41.82025,"lon":9.36847,"ele":486},{"name":"Pointe San Giovanni","lat":42.1796,"lon":9.35064,"ele":486},{"name":"Monte Cuchero","lat":41.96931,"lon":9.34398,"ele":484},{"name":"Cima d'Ifana","lat":42.68402,"lon":9.1151,"ele":477},{"name":"Capu d'Orca","lat":42.31556,"lon":8.71653,"ele":466},{"name":"Punta Vida","lat":42.02426,"lon":8.73262,"ele":465},{"name":"Castel de Chisa","lat":41.92125,"lon":9.28703,"ele":459},{"name":"Pointe de Finocchiaja","lat":42.1222,"lon":9.3594,"ele":459},{"name":"Punta di i Stretti","lat":41.58726,"lon":8.97962,"ele":459},{"name":"Punta di Pascialella","lat":41.82089,"lon":9.35494,"ele":456},{"name":"Punta di i Lauri","lat":41.7397,"lon":9.27844,"ele":451},{"name":"Punta Razzette","lat":42.08869,"lon":9.33955,"ele":447},{"name":"Pointe Licciola","lat":42.44112,"lon":9.18213,"ele":446},{"name":"Punta di Bavoggia","lat":41.59541,"lon":8.94271,"ele":445},{"name":"Punta di Quercio Piano","lat":41.97529,"lon":9.27535,"ele":443},{"name":"Punta Ficaggiola","lat":41.98841,"lon":8.7142,"ele":442},{"name":"Capu di Locu","lat":41.62623,"lon":8.84883,"ele":442},{"name":"Monte Salario","lat":41.92058,"lon":8.69689,"ele":435},{"name":"Punta di Razzeta","lat":42.93832,"lon":9.40028,"ele":433},{"name":"Capu di u Monte","lat":42.01875,"lon":8.71389,"ele":432},{"name":"Carco","lat":42.57096,"lon":8.90055,"ele":431},{"name":"Punta de Petra Bianca","lat":41.76454,"lon":9.36035,"ele":430},{"name":"Cima di u Pesu","lat":42.66755,"lon":9.13778,"ele":429},{"name":"Punta di Valanincu","lat":41.51362,"lon":8.97799,"ele":429},{"name":"Pointe de Morteto","lat":42.0653,"lon":9.30377,"ele":427},{"name":"Punta Bianca","lat":41.51748,"lon":8.97953,"ele":424},{"name":"Monte Genova","lat":42.68827,"lon":9.19561,"ele":421},{"name":"Maconu","lat":41.75049,"lon":8.73545,"ele":421},{"name":"Pointe de Mozzato","lat":42.11367,"lon":9.31309,"ele":419},{"name":"Pointe d'Ecilasca","lat":42.10672,"lon":9.33518,"ele":418},{"name":"Cima d'Ortella","lat":42.70493,"lon":9.16066,"ele":416},{"name":"Monte Minerbio","lat":42.89468,"lon":9.32836,"ele":415},{"name":"Punta di Sant'Alpianu","lat":41.88785,"lon":8.84669,"ele":413},{"name":"Pointe de Corte","lat":42.17559,"lon":9.36633,"ele":412},{"name":"Punta de Muvrareccia","lat":42.40798,"lon":8.62009,"ele":407},{"name":"Punta di Cucari","lat":41.60872,"lon":8.83451,"ele":402},{"name":"Pointe de Fiorello","lat":42.1172,"lon":9.35565,"ele":401},{"name":"Punta d Ouarciuqua","lat":41.59362,"lon":8.89763,"ele":400},{"name":"Punta Mezzana","lat":41.81711,"lon":9.37671,"ele":399},{"name":"Punta di Suartellu","lat":41.83265,"lon":9.3578,"ele":387},{"name":"Capu a Mustaghia","lat":42.50822,"lon":8.82539,"ele":386},{"name":"Bella Mursosa","lat":42.68103,"lon":9.13095,"ele":385},{"name":"Punta Falcunaja","lat":41.81367,"lon":9.37671,"ele":381},{"name":"Punta di Calcina","lat":41.72007,"lon":9.35333,"ele":371},{"name":"Punta de Telica","lat":41.73144,"lon":9.37553,"ele":368},{"name":"Pointe de Corbara","lat":42.10074,"lon":9.34329,"ele":364},{"name":"Pointe de Stiletto","lat":42.06269,"lon":9.30986,"ele":362},{"name":"Monte Maggiore","lat":42.99631,"lon":9.36142,"ele":359},{"name":"Monte Revincu","lat":42.67383,"lon":9.26496,"ele":356},{"name":"Punta Rossa","lat":41.69784,"lon":9.31145,"ele":355},{"name":"Monte Sant'Angelo","lat":42.67624,"lon":9.33598,"ele":354},{"name":"Punta d'Arcinivale","lat":41.50354,"lon":9.17818,"ele":351},{"name":"Monte Sant'Agnelu","lat":42.01307,"lon":8.68534,"ele":347},{"name":"Crête de Rizali","lat":42.12298,"lon":8.67681,"ele":345},{"name":"Pointe de Negru","lat":42.76529,"lon":9.34388,"ele":344},{"name":"Punta di Togna","lat":41.84562,"lon":9.37092,"ele":338},{"name":"Punta di l'Avena","lat":41.9629,"lon":8.64753,"ele":333},{"name":"Penterubbiu","lat":42.71009,"lon":9.17844,"ele":332},{"name":"Monte Pinzutu","lat":42.71703,"lon":9.44355,"ele":328},{"name":"Monte Rossu","lat":42.00587,"lon":8.67937,"ele":327},{"name":"Sarra di Lubertaccia","lat":42.66304,"lon":9.12458,"ele":325},{"name":"Monte Guppio","lat":42.65442,"lon":9.26371,"ele":323},{"name":"Punta di u Cerchiu","lat":41.57207,"lon":9.31343,"ele":323},{"name":"Punta di San Cassianu","lat":41.66899,"lon":9.04712,"ele":323},{"name":"Punta di Pardignuolu","lat":42.67988,"lon":9.25898,"ele":322},{"name":"Punta d'Acquella","lat":41.71736,"lon":9.3678,"ele":318},{"name":"Monte Biancu","lat":41.46995,"lon":9.13017,"ele":317},{"name":"Punta di Baldarone","lat":42.1097,"lon":9.36174,"ele":307},{"name":"Punta Scopa","lat":42.00562,"lon":8.67469,"ele":305},{"name":"Monte Sant'Antuninu","lat":42.9881,"lon":9.39614,"ele":302},{"name":"Monte Castagne","lat":42.68251,"lon":9.25846,"ele":295},{"name":"Punta di Piedi Mezzo","lat":42.10728,"lon":9.31347,"ele":295},{"name":"Marinaccia","lat":41.96536,"lon":8.62589,"ele":283},{"name":"Punta Alta","lat":41.91829,"lon":8.63711,"ele":283},{"name":"Castellare","lat":42.29992,"lon":9.46303,"ele":283},{"name":"Punta di Peluccia","lat":42.7115,"lon":9.35428,"ele":273},{"name":"Punta di Grazianu","lat":41.48824,"lon":9.16411,"ele":273},{"name":"Punta di Prunellu","lat":41.83772,"lon":9.35584,"ele":269},{"name":"Punta Finocchieto","lat":42.07303,"lon":8.75472,"ele":269},{"name":"Monte d'Oggiu","lat":42.66613,"lon":9.2449,"ele":267},{"name":"Punta di Fortino","lat":42.69153,"lon":9.33689,"ele":267},{"name":"Punta di a Jerba","lat":41.82655,"lon":9.3207,"ele":263},{"name":"Monte Chiuzu","lat":41.57791,"lon":8.94974,"ele":263},{"name":"Punta di Tilariu","lat":42.67533,"lon":9.07519,"ele":259},{"name":"Monte Silva Mala","lat":42.66636,"lon":9.32937,"ele":253},{"name":"Punta di Rafaellu","lat":41.50934,"lon":9.26449,"ele":252},{"name":"Punta di Curugnola","lat":41.42415,"lon":9.15544,"ele":250},{"name":"La Teia","lat":42.7003,"lon":9.34143,"ele":247},{"name":"Pointe de Suarella","lat":42.16424,"lon":9.39539,"ele":244},{"name":"Monte Corbu","lat":41.42317,"lon":9.1381,"ele":241},{"name":"Monte Sant'Angelo","lat":41.94407,"lon":8.78977,"ele":240},{"name":"Mont de la Trinité","lat":41.40617,"lon":9.11957,"ele":239},{"name":"Cima Pieda Mezzane","lat":42.68215,"lon":9.24591,"ele":238},{"name":"Bocca di Fumaiolu","lat":42.67465,"lon":9.07846,"ele":232},{"name":"Saint Sixte / Punta di San Sistru","lat":41.80344,"lon":8.75832,"ele":224},{"name":"Punta Liatoggiu","lat":42.66702,"lon":9.07415,"ele":222},{"name":"Punta a i Frati","lat":41.91323,"lon":8.62827,"ele":221},{"name":"L'Acolaja","lat":42.87672,"lon":9.3305,"ele":221},{"name":"Monte Pianu","lat":42.00081,"lon":8.66441,"ele":221},{"name":"Pancuncellu","lat":41.563,"lon":9.30046,"ele":220},{"name":"Monte d'Ortu","lat":42.58235,"lon":8.81999,"ele":213},{"name":"Scalzacaggio","lat":41.44422,"lon":9.16624,"ele":213},{"name":"Punta","lat":42.01314,"lon":9.34534,"ele":212},{"name":"Punta di Mucchiu Biancu","lat":41.58734,"lon":8.81085,"ele":210},{"name":"Cima a Forca","lat":42.66305,"lon":9.07877,"ele":210},{"name":"Punta di Fasgiani","lat":41.68573,"lon":9.336,"ele":210},{"name":"Pointe Rulacciu","lat":41.70113,"lon":9.32339,"ele":209},{"name":"Punta di Petra Pagliaggia","lat":42.06874,"lon":8.74936,"ele":209},{"name":"Cima di u Buttogio","lat":42.66301,"lon":9.29253,"ele":206},{"name":"Punta di Francu","lat":41.71503,"lon":9.38915,"ele":201},{"name":"Tozze Alte","lat":41.68714,"lon":9.30761,"ele":201},{"name":"Bocca di Sordali","lat":42.71343,"lon":9.19066,"ele":198},{"name":"Cima di Castincaccia","lat":42.69309,"lon":9.26088,"ele":198},{"name":"Punta Loppia","lat":42.13312,"lon":9.40829,"ele":196},{"name":"Punta di a Campana","lat":41.5434,"lon":9.19276,"ele":193},{"name":"Cornu Cervunu","lat":41.71222,"lon":9.35126,"ele":191},{"name":"Punta di Basì","lat":41.74883,"lon":8.84315,"ele":190},{"name":"Cima di a Campana","lat":43.00131,"lon":9.42374,"ele":187},{"name":"Punta Finocchio","lat":42.05937,"lon":9.33022,"ele":186},{"name":"Monte","lat":41.85191,"lon":9.38566,"ele":184},{"name":"Pointe de Bollero","lat":42.12459,"lon":9.38973,"ele":184},{"name":"Monte San Pablo","lat":42.93468,"lon":9.44706,"ele":183},{"name":"Punta di Manna Mulina","lat":41.61546,"lon":8.80123,"ele":181},{"name":"Monte Scupetu","lat":41.4638,"lon":9.09014,"ele":181},{"name":"Monte Tucchesi","lat":41.57369,"lon":9.30276,"ele":178},{"name":"Punta di u Finocchiu","lat":41.68367,"lon":9.34242,"ele":171},{"name":"Biccu di Balistra","lat":41.4546,"lon":9.2286,"ele":169},{"name":"Petra Fessa","lat":42.06485,"lon":9.34442,"ele":162},{"name":"Cima di Rapalincu","lat":42.70814,"lon":9.23482,"ele":161},{"name":"Punta Salto Leandro","lat":42.05762,"lon":9.33824,"ele":161},{"name":"Cima di Stagnoni","lat":42.72976,"lon":9.16709,"ele":154},{"name":"Pointe Piedicedro","lat":42.16291,"lon":9.4386,"ele":150},{"name":"Punta San Giovanni","lat":42.21096,"lon":9.4706,"ele":147},{"name":"Lion de Roccapina","lat":41.49776,"lon":8.93043,"ele":144},{"name":"Pointe Chiaramonte","lat":42.15513,"lon":9.45236,"ele":139},{"name":"Punta Capriona","lat":42.05486,"lon":9.34713,"ele":137},{"name":"Punta Arietto","lat":42.05191,"lon":9.3434,"ele":134},{"name":"Monte Lazzu","lat":42.07098,"lon":8.73665,"ele":125},{"name":"Monte Rossu","lat":41.44545,"lon":9.21119,"ele":125},{"name":"Pointe Rondella","lat":42.15129,"lon":9.45321,"ele":123},{"name":"Pointe de la Signora","lat":42.15344,"lon":9.45387,"ele":120},{"name":"Monte Porcini","lat":42.72528,"lon":9.21828,"ele":119},{"name":"Punta di a Formica","lat":42.1147,"lon":9.41788,"ele":113},{"name":"Pointe Chiostra","lat":42.15703,"lon":9.44449,"ele":113},{"name":"u Sarpente","lat":41.44957,"lon":9.237,"ele":111},{"name":"Punta di San Mulari","lat":41.38805,"lon":9.22354,"ele":110},{"name":"Punta San Giovanni","lat":42.12357,"lon":9.43789,"ele":109},{"name":"Monte Orlandu","lat":42.68641,"lon":9.06252,"ele":107},{"name":"Pic de Rognouse","lat":41.38624,"lon":9.21819,"ele":107},{"name":"Colmu di Sappa","lat":41.40496,"lon":9.16016,"ele":103},{"name":"Sufrencu","lat":41.56452,"lon":9.29456,"ele":101},{"name":"Puntatonda","lat":42.19797,"lon":9.48724,"ele":101},{"name":"Pointe Baratto","lat":42.15002,"lon":9.45649,"ele":97},{"name":"Punta de i Cervi","lat":42.11556,"lon":9.43403,"ele":91},{"name":"Pointe Vadine","lat":42.15441,"lon":9.46751,"ele":89},{"name":"Punta Incalcinata","lat":41.398,"lon":9.23144,"ele":87},{"name":"Punta Miarolo","lat":42.1121,"lon":9.41565,"ele":86},{"name":"Testa di u Gattu","lat":41.45812,"lon":9.07553,"ele":84},{"name":"Punta di San Giovanni","lat":42.11402,"lon":9.4407,"ele":76},{"name":"Pointe Tonda","lat":42.17324,"lon":9.49123,"ele":73},{"name":"Pointe Mozzagrino","lat":42.17908,"lon":9.48594,"ele":71},{"name":"Pointe di Rondelle","lat":42.14399,"lon":9.46262,"ele":70},{"name":"Pointe d'Arena","lat":42.15064,"lon":9.47264,"ele":67},{"name":"Punta di l'Oru","lat":41.82193,"lon":9.4049,"ele":54},{"name":"Puntallone","lat":42.13827,"lon":9.49795,"ele":52},{"name":"Punta Bianca","lat":42.14051,"lon":9.47433,"ele":50},{"name":"a Punta","lat":42.13376,"lon":9.49673,"ele":50},{"name":"Pointe d'Albaretto","lat":42.04839,"lon":9.44596,"ele":49},{"name":"Punta di Paldomo","lat":42.07681,"lon":9.45668,"ele":38}]