[{"name":"Colline d'Élancourt","lat":48.78847,"lon":1.96825,"ele":231},{"name":"Butte Saint-Georges","lat":48.9152,"lon":3.35119,"ele":216},{"name":"Point Culminant de l’Essonne","lat":48.65696,"lon":2.08385,"ele":182},{"name":"Col du Manet","lat":48.76253,"lon":2.0218,"ele":170},{"name":"Butte du Moulin","lat":48.66228,"lon":1.61149,"ele":164},{"name":"Butte de Montassis","lat":48.98669,"lon":2.84575,"ele":163},{"name":"Butte du Bouleau","lat":48.76286,"lon":1.70072,"ele":159},{"name":"Butte de Beauregard","lat":48.75972,"lon":1.70917,"ele":151},{"name":"Butte à Faucheux","lat":48.55379,"lon":2.19116,"ele":146},{"name":"Butte de la Misère","lat":48.75862,"lon":1.7038,"ele":145},{"name":"Monts de Truies","lat":48.44874,"lon":2.67411,"ele":138},{"name":"Mont Saint-Germain","lat":48.44552,"lon":2.67965,"ele":137},{"name":"Rochers des Princes","lat":48.37083,"lon":2.75042,"ele":133},{"name":"Butte Montmartre","lat":48.88692,"lon":2.34172,"ele":131},{"name":"Belleville","lat":48.87442,"lon":2.3994,"ele":129},{"name":"Rocher d'Avon","lat":48.39273,"lon":2.7169,"ele":127},{"name":"Rocher de Corne-Biche","lat":48.39995,"lon":2.57752,"ele":127},{"name":"Rocher des Demoiselles","lat":48.37942,"lon":2.67321,"ele":126},{"name":"Rocher Saint-Étienne","lat":48.31361,"lon":2.64752,"ele":125},{"name":"Rochers de Bourron","lat":48.34145,"lon":2.68513,"ele":123},{"name":"Rocher du Mauvais Passage","lat":48.37997,"lon":2.66191,"ele":123},{"name":"Mont Aigu","lat":48.40487,"lon":2.66343,"ele":123},{"name":"Mont Enflammé","lat":48.38525,"lon":2.65149,"ele":123},{"name":"Le Mont","lat":48.52082,"lon":2.37936,"ele":122},{"name":"Butte Saint-Louis","lat":48.452,"lon":2.68843,"ele":122},{"name":"Mont Griffon","lat":48.72224,"lon":2.48272,"ele":118},{"name":"Butte de Malmont","lat":49.04776,"lon":2.21024,"ele":114},{"name":"La Butte aux Cercueils","lat":48.79678,"lon":1.63155,"ele":112},{"name":"Mont Blanc","lat":48.29275,"lon":2.58064,"ele":112},{"name":"Rocher de la Dame Jouanne","lat":48.30342,"lon":2.60297,"ele":110},{"name":"Le Pain de Sucre","lat":49.13209,"lon":2.46407,"ele":109},{"name":"Rocher Besnard","lat":48.36826,"lon":2.77853,"ele":107},{"name":"Le Maunoury","lat":48.30262,"lon":2.60891,"ele":103},{"name":"Rocher Pierre-Margot","lat":48.45861,"lon":2.68207,"ele":102},{"name":"Mont Chalats","lat":48.88481,"lon":2.59409,"ele":102},{"name":"Petit Rocher","lat":48.45803,"lon":2.68938,"ele":100},{"name":"Mont Simonet","lat":48.29997,"lon":2.59433,"ele":96},{"name":"Mont Pipau","lat":48.64037,"lon":2.31263,"ele":92},{"name":"Butte de la Glacière","lat":49.07063,"lon":3.05619,"ele":82},{"name":"Mont-Mesly","lat":48.77399,"lon":2.47169,"ele":74},{"name":"Montagne Sainte-Geneviève","lat":48.84468,"lon":2.34723,"ele":61}]