[{"name":"Mont des Avaloirs","lat":48.45063,"lon":-0.14438,"ele":416},{"name":"Corniche de Pail","lat":48.41756,"lon":-0.21234,"ele":382},{"name":"Mont Rochard","lat":48.21949,"lon":-0.35347,"ele":357},{"name":"Signal de Villepail","lat":48.38813,"lon":-0.26546,"ele":355},{"name":"Belvédère de Perseigne","lat":48.41723,"lon":0.28515,"ele":341},{"name":"Mont du Saule","lat":48.3566,"lon":-0.38375,"ele":328},{"name":"Butte de la Frette","lat":48.15487,"lon":-0.28991,"ele":293},{"name":"Mont Mercure","lat":46.83165,"lon":-0.88313,"ele":290},{"name":"Signal des Viviers","lat":48.08303,"lon":-0.26822,"ele":285},{"name":"Les Justices","lat":46.84325,"lon":-0.91542,"ele":281},{"name":"Bois de la Folie","lat":46.78879,"lon":-0.84287,"ele":276},{"name":"Puy Lose","lat":46.76613,"lon":-0.79661,"ele":271},{"name":"Puy Crapaud","lat":46.77754,"lon":-0.81223,"ele":269},{"name":"Mont des Alouettes","lat":46.89477,"lon":-1.01026,"ele":232},{"name":"Croix du Charme Béni","lat":47.80764,"lon":0.42031,"ele":174},{"name":"Le Mont Vigne","lat":47.82667,"lon":0.30173,"ele":168},{"name":"Terril","lat":47.56142,"lon":-1.54368,"ele":121},{"name":"Colline de la Bretèche","lat":47.80043,"lon":-1.36788,"ele":117},{"name":"Colline de Beau Soleil","lat":47.32299,"lon":-1.79929,"ele":91},{"name":"Butte de Montagenêt","lat":47.80687,"lon":0.203,"ele":85},{"name":"Le Mont Juillet","lat":47.44118,"lon":-1.43678,"ele":52},{"name":"Butte de la Roche","lat":47.20826,"lon":-1.38017,"ele":47},{"name":"Le Tertre","lat":47.58981,"lon":-0.54719,"ele":47},{"name":"Les Tertres","lat":46.38417,"lon":-0.9147,"ele":42},{"name":"Butte Sainte-Anne","lat":47.20316,"lon":-1.58005,"ele":37},{"name":"Mont Esprit","lat":47.2909,"lon":-2.50749,"ele":26}]