{"ile-de-france":[{"name":"Colline d'Élancourt","lat":48.78847,"lon":1.96825,"ele":231},{"name":"Butte Saint-Georges","lat":48.9152,"lon":3.35119,"ele":216},{"name":"Point Culminant de l’Essonne","lat":48.65696,"lon":2.08385,"ele":182},{"name":"Col du Manet","lat":48.76253,"lon":2.0218,"ele":170},{"name":"Butte du Moulin","lat":48.66228,"lon":1.61149,"ele":164},{"name":"Butte de Montassis","lat":48.98669,"lon":2.84575,"ele":163},{"name":"Butte du Bouleau","lat":48.76286,"lon":1.70072,"ele":159},{"name":"Butte de Beauregard","lat":48.75972,"lon":1.70917,"ele":151},{"name":"Butte à Faucheux","lat":48.55379,"lon":2.19116,"ele":146},{"name":"Butte de la Misère","lat":48.75862,"lon":1.7038,"ele":145},{"name":"Monts de Truies","lat":48.44874,"lon":2.67411,"ele":138},{"name":"Mont Saint-Germain","lat":48.44552,"lon":2.67965,"ele":137},{"name":"Rochers des Princes","lat":48.37083,"lon":2.75042,"ele":133},{"name":"Butte Montmartre","lat":48.88692,"lon":2.34172,"ele":131},{"name":"Belleville","lat":48.87442,"lon":2.3994,"ele":129},{"name":"Rocher d'Avon","lat":48.39273,"lon":2.7169,"ele":127},{"name":"Rocher de Corne-Biche","lat":48.39995,"lon":2.57752,"ele":127},{"name":"Rocher des Demoiselles","lat":48.37942,"lon":2.67321,"ele":126},{"name":"Rocher Saint-Étienne","lat":48.31361,"lon":2.64752,"ele":125},{"name":"Rochers de Bourron","lat":48.34145,"lon":2.68513,"ele":123},{"name":"Rocher du Mauvais Passage","lat":48.37997,"lon":2.66191,"ele":123},{"name":"Mont Aigu","lat":48.40487,"lon":2.66343,"ele":123},{"name":"Mont Enflammé","lat":48.38525,"lon":2.65149,"ele":123},{"name":"Le Mont","lat":48.52082,"lon":2.37936,"ele":122},{"name":"Butte Saint-Louis","lat":48.452,"lon":2.68843,"ele":122},{"name":"Mont Griffon","lat":48.72224,"lon":2.48272,"ele":118},{"name":"Butte de Malmont","lat":49.04776,"lon":2.21024,"ele":114},{"name":"La Butte aux Cercueils","lat":48.79678,"lon":1.63155,"ele":112},{"name":"Mont Blanc","lat":48.29275,"lon":2.58064,"ele":112},{"name":"Rocher de la Dame Jouanne","lat":48.30342,"lon":2.60297,"ele":110},{"name":"Le Pain de Sucre","lat":49.13209,"lon":2.46407,"ele":109},{"name":"Rocher Besnard","lat":48.36826,"lon":2.77853,"ele":107},{"name":"Le Maunoury","lat":48.30262,"lon":2.60891,"ele":103},{"name":"Rocher Pierre-Margot","lat":48.45861,"lon":2.68207,"ele":102},{"name":"Mont Chalats","lat":48.88481,"lon":2.59409,"ele":102},{"name":"Petit Rocher","lat":48.45803,"lon":2.68938,"ele":100},{"name":"Mont Simonet","lat":48.29997,"lon":2.59433,"ele":96},{"name":"Mont Pipau","lat":48.64037,"lon":2.31263,"ele":92},{"name":"Butte de la Glacière","lat":49.07063,"lon":3.05619,"ele":82},{"name":"Mont-Mesly","lat":48.77399,"lon":2.47169,"ele":74},{"name":"Montagne Sainte-Geneviève","lat":48.84468,"lon":2.34723,"ele":61}],"centre-val-de-loire":[{"name":"Le Magnoux","lat":46.42839,"lon":2.19882,"ele":504},{"name":"Terrier Randoin","lat":46.45202,"lon":1.9834,"ele":457},{"name":"Peu de Vesdun","lat":46.5568,"lon":2.40998,"ele":367},{"name":"Peu de Villaine","lat":46.54446,"lon":2.3978,"ele":341},{"name":"Peu de Chambrette","lat":46.55293,"lon":2.43955,"ele":327},{"name":"Pic de Montaigu","lat":47.27101,"lon":2.42399,"ele":307},{"name":"le Champ Peyrot","lat":46.53658,"lon":2.38144,"ele":288},{"name":"Colline de Rougemont","lat":48.28083,"lon":0.92826,"ele":285},{"name":"les Côtes","lat":46.5654,"lon":2.37165,"ele":283},{"name":"Peu d'Armor","lat":46.5813,"lon":2.41499,"ele":277},{"name":"Le Lac","lat":47.52092,"lon":2.74428,"ele":265},{"name":"Butte de l'Age","lat":46.68663,"lon":1.8341,"ele":206},{"name":"Butte de Jeu","lat":46.68318,"lon":1.82445,"ele":203},{"name":"Butte de Beauterne","lat":48.7295,"lon":1.60419,"ele":175},{"name":"Les Buttes","lat":46.82516,"lon":2.15151,"ele":173},{"name":"Tertre Chaumont","lat":47.46697,"lon":2.24496,"ele":155},{"name":"Camp de César","lat":46.86109,"lon":1.50069,"ele":154},{"name":"Butte Verte","lat":48.42266,"lon":1.58645,"ele":151},{"name":"Montléverin","lat":48.43554,"lon":1.55706,"ele":151},{"name":"Massif d'Ingrannes","lat":48.01286,"lon":2.2249,"ele":148},{"name":"Butte du Four","lat":47.62307,"lon":2.14894,"ele":145},{"name":"Tertre de Lu","lat":47.46446,"lon":2.23893,"ele":145},{"name":"Le Mont d'Aunay","lat":47.612,"lon":1.98277,"ele":141},{"name":"Le Dôme","lat":47.79818,"lon":2.79052,"ele":138},{"name":"Massif de Lorris","lat":47.898,"lon":2.39761,"ele":138},{"name":"La Butte","lat":47.62527,"lon":1.92626,"ele":136},{"name":"Mont Sinaï","lat":48.84676,"lon":1.44347,"ele":132},{"name":"Le Mont Vansy","lat":47.98019,"lon":1.77085,"ele":129},{"name":"Grand Peu","lat":47.56424,"lon":1.83268,"ele":126},{"name":"Mont Bari","lat":48.03591,"lon":1.71474,"ele":125},{"name":"Petit Peu","lat":47.56644,"lon":1.84253,"ele":125},{"name":"Le Haut de Corfeu","lat":48.01813,"lon":1.6722,"ele":124},{"name":"Montagne des Justices","lat":48.2116,"lon":2.39249,"ele":120},{"name":"Le Tertre","lat":47.40581,"lon":1.51806,"ele":113},{"name":"Mont Forton","lat":47.30655,"lon":0.24159,"ele":112},{"name":"Côte du Banc","lat":48.04888,"lon":2.80194,"ele":106},{"name":"Le Tertre","lat":47.35147,"lon":1.78873,"ele":105},{"name":"Les Buttes","lat":47.51296,"lon":1.81135,"ele":99},{"name":"Le Point du Jour","lat":47.48711,"lon":0.69604,"ele":95},{"name":"Mont Sigout","lat":47.23304,"lon":0.24039,"ele":94},{"name":"La Colline","lat":47.20396,"lon":0.23481,"ele":88},{"name":"Le Puy Besnard","lat":47.20177,"lon":0.22599,"ele":86},{"name":"Puy des Ajoncs","lat":47.18513,"lon":0.19498,"ele":79}],"bourgogne-franche-comte":[{"name":"Le Crêt Pela","lat":46.41375,"lon":6.02214,"ele":1495},{"name":"Le Mont d'Or","lat":46.72752,"lon":6.35695,"ele":1463},{"name":"le Mont d'Or","lat":46.73353,"lon":6.35653,"ele":1461},{"name":"Le Morond","lat":46.75119,"lon":6.35354,"ele":1419},{"name":"Les Tuffes","lat":46.44594,"lon":6.06505,"ele":1417},{"name":"La Vigoureuse","lat":46.38811,"lon":5.9878,"ele":1347},{"name":"Roche Champion","lat":46.59002,"lon":6.12638,"ele":1338},{"name":"Le Grand Taureau","lat":46.91473,"lon":6.42996,"ele":1323},{"name":"Crêt du Nerbier","lat":46.27734,"lon":5.868,"ele":1317},{"name":"Crêt Gellin","lat":46.6931,"lon":6.24475,"ele":1314},{"name":"Mont de l'Herba","lat":46.8026,"lon":6.39703,"ele":1303},{"name":"Crêt à la Dame","lat":46.54255,"lon":6.07188,"ele":1302},{"name":"Mont Châteleu","lat":46.98996,"lon":6.57502,"ele":1301},{"name":"Gros Crétet","lat":46.50545,"lon":6.05486,"ele":1300},{"name":"Crêt Sapeau","lat":46.69501,"lon":6.255,"ele":1294},{"name":"Le Meix Musy","lat":47.03342,"lon":6.67274,"ele":1288},{"name":"Mont Fier","lat":46.46256,"lon":6.00184,"ele":1282},{"name":"Le Pré d'Haut","lat":46.64177,"lon":6.11159,"ele":1274},{"name":"Le Bulay","lat":46.67178,"lon":6.04318,"ele":1258},{"name":"Ballon d'Alsace","lat":47.82235,"lon":6.84523,"ele":1248},{"name":"Crêt du Vourbey","lat":46.81977,"lon":6.40687,"ele":1246},{"name":"Croix des couloirs","lat":46.29467,"lon":5.82782,"ele":1239},{"name":"Saint-Sorlin","lat":46.72503,"lon":6.13925,"ele":1237},{"name":"Mont Noir","lat":46.63463,"lon":6.09328,"ele":1234},{"name":"Mauvais Crêt","lat":46.8436,"lon":6.44083,"ele":1225},{"name":"Le Turchet","lat":46.73132,"lon":6.1608,"ele":1225},{"name":"Le Mont Croz","lat":46.68869,"lon":6.06801,"ele":1212},{"name":"Mont Vouillot","lat":47.07824,"lon":6.60443,"ele":1160},{"name":"La Roche Devant","lat":46.55476,"lon":6.0469,"ele":1158},{"name":"Crêt de la Joux Devant","lat":46.53244,"lon":5.94602,"ele":1158},{"name":"Planche des Belles Filles","lat":47.7672,"lon":6.77423,"ele":1148},{"name":"Le Crêt Monniot","lat":47.03664,"lon":6.41233,"ele":1141},{"name":"Tête de Demesy","lat":47.79187,"lon":6.80624,"ele":1132},{"name":"Ballon Saint-Antoine","lat":47.78395,"lon":6.78959,"ele":1128},{"name":"Tête de la Grande Goutte","lat":47.81083,"lon":6.81831,"ele":1117},{"name":"Tête de Charborue","lat":47.7635,"lon":6.76942,"ele":1115},{"name":"Sommet des Ages","lat":46.99978,"lon":6.57465,"ele":1114},{"name":"Tête des Fougères","lat":47.79783,"lon":6.81224,"ele":1114},{"name":"Montezan","lat":46.8234,"lon":6.3593,"ele":1112},{"name":"Tremontkopf","lat":47.78489,"lon":6.8652,"ele":1094},{"name":"Mont Chaumont","lat":47.06734,"lon":6.47269,"ele":1092},{"name":"Le Pain de Sucre","lat":47.0022,"lon":6.57423,"ele":1091},{"name":"Mont Devoir","lat":47.1281,"lon":6.75736,"ele":1087},{"name":"Mont Ramey","lat":46.76278,"lon":6.37944,"ele":1087},{"name":"Le Rond d'Amont","lat":47.05631,"lon":6.46239,"ele":1083},{"name":"Tête Carrée","lat":47.78526,"lon":6.79614,"ele":1072},{"name":"Crêt de Surmontant","lat":46.35172,"lon":5.82417,"ele":1061},{"name":"Tête des Cèpes","lat":47.75866,"lon":6.76358,"ele":1060},{"name":"Le Couillou","lat":46.65491,"lon":6.03034,"ele":1060},{"name":"Tête des Sapins","lat":47.75905,"lon":6.76511,"ele":1058},{"name":"Mont Repentir","lat":47.15261,"lon":6.66809,"ele":1052},{"name":"Le Ballon","lat":47.78866,"lon":6.75038,"ele":1052},{"name":"Le Grand Mont","lat":47.15873,"lon":6.79732,"ele":1049},{"name":"Le Peu","lat":47.20098,"lon":6.8583,"ele":1046},{"name":"Le Mont Pelé","lat":47.00753,"lon":6.3449,"ele":1045},{"name":"Ballon de St-Nicolas","lat":47.7697,"lon":6.93137,"ele":1039},{"name":"Plateau de la Grange","lat":47.79403,"lon":6.84369,"ele":1032},{"name":"Crêt Pourri","lat":46.39899,"lon":5.90199,"ele":1029},{"name":"Molard de la Lière","lat":46.47592,"lon":5.80477,"ele":1027},{"name":"Mont Gaudichot","lat":47.02904,"lon":6.61625,"ele":1024},{"name":"Le Sapelet","lat":47.16526,"lon":6.6846,"ele":1010},{"name":"Roche du Serpent","lat":47.78113,"lon":6.87111,"ele":1005},{"name":"Le Crossat","lat":46.85419,"lon":6.35653,"ele":1003},{"name":"Pic de l'Aigle","lat":46.61531,"lon":5.90293,"ele":994},{"name":"Roche Barchey","lat":47.15189,"lon":6.51559,"ele":988},{"name":"Le Faux Verger","lat":47.233,"lon":6.76199,"ele":985},{"name":"Rocher 985","lat":47.80431,"lon":6.82345,"ele":985},{"name":"Mont Miroir","lat":47.26269,"lon":6.82236,"ele":982},{"name":"Le Duchet","lat":46.50767,"lon":5.84902,"ele":978},{"name":"La Pierre Écrite","lat":47.77313,"lon":6.8556,"ele":976},{"name":"Mont Rouchon","lat":47.77702,"lon":6.85934,"ele":970},{"name":"Le Bécué","lat":47.17078,"lon":6.71236,"ele":963},{"name":"Mont Ordon-Verrier","lat":47.75136,"lon":6.78728,"ele":963},{"name":"Roche d'Antre","lat":46.41788,"lon":5.75255,"ele":961},{"name":"Belmont","lat":47.21108,"lon":6.57815,"ele":947},{"name":"le Montet","lat":47.0276,"lon":6.44289,"ele":938},{"name":"Tête des Mineurs","lat":47.75728,"lon":6.89009,"ele":926},{"name":"Mont Séverin","lat":46.97145,"lon":6.2966,"ele":921},{"name":"Crêt aux Fourmis","lat":46.45485,"lon":5.78803,"ele":920},{"name":"Ballon Gunon","lat":47.76713,"lon":6.90563,"ele":916},{"name":"Le Fayé","lat":47.74014,"lon":6.89676,"ele":916},{"name":"Mont Fanfet","lat":46.44138,"lon":5.79865,"ele":915},{"name":"Roche Percée","lat":47.2137,"lon":6.57194,"ele":911},{"name":"Mont de la Bosse","lat":46.43967,"lon":5.8048,"ele":908},{"name":"Côte de Maillot","lat":46.98991,"lon":6.13186,"ele":905},{"name":"Haut Folin","lat":46.99615,"lon":4.03711,"ele":901},{"name":"Tête Ronde","lat":47.7516,"lon":6.76115,"ele":899},{"name":"Mont des Ifs","lat":46.64499,"lon":5.92591,"ele":892},{"name":"Roche de Hautepierre","lat":47.04922,"lon":6.28187,"ele":882},{"name":"Tête Saint-Nicolas","lat":47.78158,"lon":6.84256,"ele":858},{"name":"Grand Montarnu","lat":47.01077,"lon":4.03969,"ele":857},{"name":"La Roche Brusson","lat":47.77456,"lon":6.8824,"ele":856},{"name":"Mont Preneley","lat":46.95668,"lon":4.00206,"ele":856},{"name":"Mont Poupet","lat":46.97116,"lon":5.88598,"ele":851},{"name":"Montagne Sainte-Barbe","lat":47.78432,"lon":6.82642,"ele":849},{"name":"Mont Paradis","lat":46.5087,"lon":5.80071,"ele":845},{"name":"Les Trois Bornes","lat":46.99896,"lon":4.05861,"ele":838},{"name":"Le Haquin","lat":47.75798,"lon":6.92138,"ele":834},{"name":"Mont Solemont","lat":47.35491,"lon":6.71663,"ele":834},{"name":"Bas Folin","lat":46.99059,"lon":4.01612,"ele":832},{"name":"Mont Mahoux","lat":46.98011,"lon":6.02972,"ele":830},{"name":"La Baume","lat":46.50076,"lon":5.79324,"ele":829},{"name":"Mont de Goux","lat":47.17169,"lon":6.41824,"ele":828},{"name":"Le Gros Cratot","lat":47.11346,"lon":6.509,"ele":827},{"name":"Mont Beuvray","lat":46.92446,"lon":4.03962,"ele":821},{"name":"Mont Echeroux","lat":47.36223,"lon":6.78472,"ele":818},{"name":"La Côte 820","lat":47.80928,"lon":6.71113,"ele":817},{"name":"Mont Rivel","lat":46.76117,"lon":5.92569,"ele":812},{"name":"Balivaux","lat":46.36629,"lon":5.66203,"ele":810},{"name":"Le Mont Cornu","lat":47.80646,"lon":6.70705,"ele":809},{"name":"Le Haut Forgeot","lat":47.02191,"lon":4.05415,"ele":809},{"name":"Pic d'Oliferne","lat":46.31924,"lon":5.5885,"ele":807},{"name":"Roc du Plainet","lat":47.73791,"lon":6.67573,"ele":807},{"name":"Mont Serin","lat":46.97878,"lon":6.06229,"ele":803},{"name":"Le Télégraphe","lat":47.0779,"lon":4.0238,"ele":800},{"name":"Tête Sem","lat":47.75872,"lon":6.92918,"ele":799},{"name":"Petit Montarnu","lat":47.01116,"lon":4.02143,"ele":790},{"name":"Mont Jean","lat":47.75789,"lon":6.83147,"ele":786},{"name":"Tête Le Moine","lat":47.74441,"lon":6.9256,"ele":785},{"name":"Mont Varet","lat":46.49435,"lon":5.77257,"ele":785},{"name":"Montchevriez","lat":47.31348,"lon":6.69382,"ele":781},{"name":"Mont Saint-Christophe","lat":46.44793,"lon":5.72657,"ele":780},{"name":"Tête le Moine","lat":47.74684,"lon":6.92213,"ele":778},{"name":"Montagne de Saint-Cyr","lat":46.32608,"lon":4.42809,"ele":771},{"name":"Reuchemin","lat":47.03464,"lon":4.05006,"ele":764},{"name":"Signal de la Mère Boitier","lat":46.30257,"lon":4.63213,"ele":758},{"name":"le Pain de Sucre","lat":46.40768,"lon":5.87692,"ele":755},{"name":"Roche de Pouilly","lat":47.03849,"lon":4.0428,"ele":754},{"name":"Les Rochettes","lat":46.34731,"lon":5.66837,"ele":753},{"name":"Mont Moux","lat":47.08034,"lon":4.0453,"ele":753},{"name":"Montjux","lat":46.95091,"lon":6.02022,"ele":742},{"name":"Céraise","lat":46.96064,"lon":5.95959,"ele":737},{"name":"Dunet","lat":46.2544,"lon":4.35129,"ele":736},{"name":"Mont De Naisey","lat":47.19405,"lon":6.23535,"ele":734},{"name":"Tête du Château","lat":47.76103,"lon":6.86726,"ele":733},{"name":"Gros Mont","lat":47.0862,"lon":3.99772,"ele":731},{"name":"Montagne de Dun","lat":46.25601,"lon":4.34511,"ele":721},{"name":"Le Gros Moux","lat":47.12875,"lon":4.13456,"ele":718},{"name":"Le Mont de Vannes","lat":47.7507,"lon":6.63942,"ele":710},{"name":"Montremain","lat":47.15039,"lon":4.12502,"ele":710},{"name":"Mont Robert","lat":47.03998,"lon":4.09825,"ele":700},{"name":"Mont Moux","lat":47.16367,"lon":4.13779,"ele":691},{"name":"Mont Soufflet","lat":46.92221,"lon":5.98573,"ele":689},{"name":"Mont Gillet","lat":47.79064,"lon":6.66142,"ele":682},{"name":"Signal d'Uchon","lat":46.80604,"lon":4.25915,"ele":681},{"name":"Mont Santa","lat":47.20976,"lon":4.14838,"ele":678},{"name":"Mont Segrin","lat":46.90864,"lon":5.99024,"ele":676},{"name":"Signal du Montjeu","lat":46.89899,"lon":4.27412,"ele":668},{"name":"Mont Chavet","lat":46.5473,"lon":5.62676,"ele":668},{"name":"Mont de Mamirolle","lat":47.18863,"lon":6.16867,"ele":666},{"name":"La pratz","lat":46.36853,"lon":5.78822,"ele":665},{"name":"Roches de Chau","lat":46.32171,"lon":4.46013,"ele":665},{"name":"Montagne de Guenand","lat":46.91659,"lon":4.26094,"ele":660},{"name":"Le Clochet","lat":47.75067,"lon":6.93116,"ele":657},{"name":"La Terrasse","lat":46.79262,"lon":4.2628,"ele":655},{"name":"Haut Siron","lat":47.06307,"lon":4.17352,"ele":654},{"name":"Mont Masson","lat":47.76164,"lon":6.68728,"ele":653},{"name":"Salbert","lat":47.65972,"lon":6.81282,"ele":650},{"name":"Motte de Clémont","lat":47.3493,"lon":6.78444,"ele":650},{"name":"Sommet du Lucheron","lat":47.05704,"lon":4.17237,"ele":650},{"name":"La Certenue","lat":46.85034,"lon":4.27763,"ele":646},{"name":"Mont Orgier","lat":46.53693,"lon":5.62228,"ele":646},{"name":"Mont Charvet","lat":46.46808,"lon":5.42555,"ele":645},{"name":"Montagne de Niaulin","lat":46.7919,"lon":4.27858,"ele":640},{"name":"Le Château","lat":47.74151,"lon":6.77267,"ele":639},{"name":"Mont Genièvre","lat":46.92199,"lon":3.9178,"ele":638},{"name":"Mont Julien","lat":46.8045,"lon":4.2501,"ele":638},{"name":"Les Rompays","lat":46.29296,"lon":4.50381,"ele":637},{"name":"Sommet de la Forêt Voillot","lat":47.08041,"lon":4.18501,"ele":637},{"name":"Le Petit Mont","lat":47.20036,"lon":6.27097,"ele":632},{"name":"La Montagnotte","lat":47.76701,"lon":6.87404,"ele":632},{"name":"Mont Begon","lat":46.94087,"lon":5.82313,"ele":630},{"name":"Le Montet","lat":46.83129,"lon":4.28327,"ele":629},{"name":"Molard de Monnet","lat":46.68223,"lon":5.82066,"ele":626},{"name":"Mont Pouru","lat":47.0417,"lon":4.13497,"ele":626},{"name":"Les Hauts","lat":47.45106,"lon":6.97555,"ele":623},{"name":"Sur le Diévant","lat":46.50644,"lon":5.57731,"ele":621},{"name":"Redoute de Montfaucon","lat":47.24251,"lon":6.08404,"ele":614},{"name":"Roche de la Naude","lat":46.33106,"lon":4.46765,"ele":614},{"name":"Mont Février","lat":46.47527,"lon":5.40945,"ele":611},{"name":"La Croix du Château","lat":47.29309,"lon":4.01209,"ele":610},{"name":"Montagne Saint-Sébastien","lat":46.93038,"lon":4.28593,"ele":609},{"name":"Mont de Vey","lat":47.30492,"lon":6.52727,"ele":607},{"name":"Grande Côte","lat":47.70927,"lon":6.7739,"ele":607},{"name":"Roche Aigüe","lat":47.33525,"lon":4.81039,"ele":605},{"name":"La Coiffe du Diable","lat":46.93208,"lon":4.33782,"ele":604},{"name":"Plain de Rure","lat":46.84258,"lon":4.29156,"ele":602},{"name":"Mont Saint-Vincent","lat":46.62755,"lon":4.47705,"ele":601},{"name":"Butte de Suin","lat":46.43332,"lon":4.47531,"ele":600},{"name":"Mont Afrique","lat":47.29409,"lon":4.92599,"ele":600},{"name":"Mont de Mandé","lat":46.42511,"lon":4.71448,"ele":600},{"name":"Mont Bon","lat":47.18227,"lon":6.16934,"ele":600},{"name":"Signal d'Argaud","lat":46.30384,"lon":4.51981,"ele":599},{"name":"Mont Tasselot","lat":47.39856,"lon":4.76794,"ele":598},{"name":"Montmain","lat":46.5638,"lon":5.47049,"ele":596},{"name":"La Côte","lat":47.7301,"lon":6.94627,"ele":596},{"name":"Sur le Crêt","lat":46.49939,"lon":5.45351,"ele":595},{"name":"Montagne de Drompvent","lat":46.36832,"lon":4.42626,"ele":595},{"name":"Montéfroy","lat":47.09043,"lon":4.19652,"ele":595},{"name":"Roche du Châtelard","lat":47.39864,"lon":6.64682,"ele":591},{"name":"Le Chérimont","lat":47.66577,"lon":6.6751,"ele":590},{"name":"Haut de Poulet","lat":47.09454,"lon":4.18254,"ele":590},{"name":"Mont Oiseau","lat":47.44217,"lon":4.81361,"ele":589},{"name":"Montillet","lat":46.32189,"lon":4.47819,"ele":587},{"name":"La Chaux","lat":47.04527,"lon":4.17885,"ele":585},{"name":"Mont Touleur","lat":46.88025,"lon":3.98204,"ele":581},{"name":"Tête du Milieu","lat":47.73094,"lon":6.81291,"ele":580},{"name":"Les Alleux","lat":47.38948,"lon":6.6684,"ele":580},{"name":"Mont Saint-Romain","lat":46.49261,"lon":4.75451,"ele":579},{"name":"Châtelaine","lat":46.40394,"lon":4.55327,"ele":579},{"name":"Mont des Auges","lat":47.4124,"lon":4.7441,"ele":579},{"name":"La Brosse","lat":47.7315,"lon":6.93317,"ele":578},{"name":"Montagne d'Étang","lat":47.29446,"lon":4.90404,"ele":578},{"name":"Montagne de Saint-Laurent","lat":47.31063,"lon":4.747,"ele":577},{"name":"Le Haut de la Rèpe","lat":47.30641,"lon":4.42199,"ele":576},{"name":"Grammont","lat":47.47457,"lon":6.93012,"ele":576},{"name":"La Pierre des bordes","lat":47.06816,"lon":4.11392,"ele":576},{"name":"Mont Foirond","lat":46.88266,"lon":5.81681,"ele":575},{"name":"Vannas","lat":46.31226,"lon":4.59149,"ele":574},{"name":"Mont Paroncieaux","lat":47.15366,"lon":3.9309,"ele":574},{"name":"Fort des Epesses","lat":47.25158,"lon":6.11126,"ele":573},{"name":"Grand Joux","lat":46.4398,"lon":4.71577,"ele":572},{"name":"Montaigu","lat":46.92806,"lon":4.14282,"ele":572},{"name":"Le Gros Aigreule","lat":46.93849,"lon":4.3592,"ele":570},{"name":"Mont Dommage","lat":47.33293,"lon":6.3309,"ele":569},{"name":"Mont Bonnet","lat":47.72632,"lon":6.93272,"ele":568},{"name":"Le Bois des Ayes","lat":46.34943,"lon":4.41847,"ele":568},{"name":"Montagne du Tronchet","lat":46.8825,"lon":4.27459,"ele":568},{"name":"Mont Épinet","lat":46.45986,"lon":4.73963,"ele":567},{"name":"Mont Panterre","lat":46.998,"lon":4.65241,"ele":567},{"name":"Glenne","lat":46.97231,"lon":4.11962,"ele":567},{"name":"Vieille Montagne","lat":46.88795,"lon":3.87776,"ele":566},{"name":"La Mouria","lat":46.35952,"lon":5.37448,"ele":565},{"name":"La Montagne","lat":47.29779,"lon":4.74497,"ele":565},{"name":"Mont Pourron","lat":47.4128,"lon":6.75658,"ele":563},{"name":"Mont d'Adam","lat":47.312,"lon":6.37804,"ele":561},{"name":"Mont de la Côte","lat":47.27281,"lon":6.1795,"ele":561},{"name":"Mont Botey","lat":46.41009,"lon":4.41273,"ele":561},{"name":"Montoillet","lat":47.26949,"lon":4.57557,"ele":559},{"name":"Le Haut de l'Issard","lat":47.08511,"lon":4.14602,"ele":558},{"name":"Montfort","lat":47.38998,"lon":6.47574,"ele":557},{"name":"Tête d'Hanus","lat":47.73537,"lon":6.80757,"ele":557},{"name":"Mont Corron","lat":47.71917,"lon":6.7819,"ele":556},{"name":"Mont Grémoi","lat":46.43887,"lon":4.6137,"ele":555},{"name":"La Vuarde","lat":46.60681,"lon":5.51751,"ele":555},{"name":"Chaillon","lat":47.37432,"lon":6.44403,"ele":554},{"name":"Montagne de Bard","lat":47.14439,"lon":4.33261,"ele":554},{"name":"La Brosse","lat":46.82642,"lon":4.34065,"ele":554},{"name":"Rangier du Fay","lat":47.39475,"lon":6.71156,"ele":553},{"name":"Le Fricolon","lat":47.15093,"lon":4.15131,"ele":550},{"name":"Mont Heurgue","lat":46.26868,"lon":4.14944,"ele":549},{"name":"Mont Souvance","lat":47.30388,"lon":6.22669,"ele":548},{"name":"Mont Julien","lat":47.37057,"lon":6.76597,"ele":548},{"name":"La Roche Coche","lat":46.36773,"lon":4.70477,"ele":546},{"name":"Mont Rome","lat":46.9029,"lon":4.61195,"ele":546},{"name":"Le Châtelet","lat":47.71132,"lon":6.95559,"ele":544},{"name":"Mont Vaudois","lat":47.5969,"lon":6.75918,"ele":544},{"name":"Montagne de Créancey","lat":47.25224,"lon":4.59746,"ele":543},{"name":"Haut du Pré des Loups","lat":47.71822,"lon":6.95606,"ele":543},{"name":"Le Suisse","lat":47.39276,"lon":6.68887,"ele":543},{"name":"Montagne de Nuas","lat":47.13924,"lon":4.64915,"ele":542},{"name":"Commet","lat":47.06581,"lon":4.12816,"ele":542},{"name":"Haut du Ban","lat":47.26909,"lon":6.13646,"ele":538},{"name":"Le Boulet","lat":47.03773,"lon":4.19821,"ele":538},{"name":"Montfeulson","lat":47.29204,"lon":4.75506,"ele":537},{"name":"Montagne de Meusoy","lat":46.78764,"lon":4.31821,"ele":537},{"name":"L'Aubiche Berny","lat":47.23087,"lon":4.44387,"ele":536},{"name":"Les Mioures","lat":47.42938,"lon":6.76079,"ele":535},{"name":"Tête de la Vache","lat":46.67394,"lon":5.61523,"ele":534},{"name":"Le Beaucharme","lat":47.03817,"lon":4.18812,"ele":534},{"name":"Haut des Pintets","lat":47.06291,"lon":4.13771,"ele":534},{"name":"Tête de Chaux","lat":47.72823,"lon":6.81535,"ele":533},{"name":"Mont Brême","lat":46.91778,"lon":4.07071,"ele":532},{"name":"La Chèvre","lat":47.50081,"lon":6.5405,"ele":532},{"name":"Brunesois","lat":46.92636,"lon":4.08521,"ele":532},{"name":"Mont de Cessey","lat":47.11677,"lon":5.92697,"ele":531},{"name":"Montagne de Seris","lat":46.78206,"lon":4.28718,"ele":530},{"name":"Le Montanjus","lat":47.71772,"lon":6.91704,"ele":528},{"name":"Friche de Roche","lat":47.22313,"lon":4.35358,"ele":528},{"name":"Cormot","lat":47.06013,"lon":4.22274,"ele":528},{"name":"La Pouge","lat":47.40052,"lon":6.69321,"ele":528},{"name":"Butte de Meux","lat":46.89548,"lon":4.04933,"ele":528},{"name":"Mont Aigu","lat":47.29274,"lon":4.83535,"ele":527},{"name":"Pointe d'Arconcey","lat":47.20466,"lon":4.42781,"ele":527},{"name":"Montrond","lat":47.14379,"lon":6.05497,"ele":526},{"name":"Mont Charrue","lat":46.36679,"lon":5.44998,"ele":526},{"name":"Mont Ligot","lat":47.35105,"lon":4.36366,"ele":524},{"name":"Dettey","lat":46.76334,"lon":4.18128,"ele":523},{"name":"Vierge de Charmont","lat":47.16247,"lon":6.10578,"ele":522},{"name":"Le Mont","lat":47.14691,"lon":6.0743,"ele":522},{"name":"Mont Bouillon","lat":47.72544,"lon":6.95053,"ele":521},{"name":"La Sègenot","lat":47.18794,"lon":4.64047,"ele":521},{"name":"Le Bonnet Vert","lat":47.03391,"lon":4.20188,"ele":521},{"name":"Montagne des Trois Croix","lat":46.91983,"lon":4.66951,"ele":521},{"name":"Le Rocheret","lat":47.486,"lon":6.51744,"ele":521},{"name":"Motte de Grammont","lat":47.51237,"lon":6.50617,"ele":520},{"name":"Mont Marty","lat":47.72884,"lon":6.96165,"ele":517},{"name":"Sur la Côte","lat":47.7245,"lon":6.89249,"ele":517},{"name":"Les Planches","lat":47.53866,"lon":6.62143,"ele":516},{"name":"Le Chanois","lat":47.5223,"lon":6.58206,"ele":516},{"name":"Mont Chevrier","lat":46.40215,"lon":4.57461,"ele":516},{"name":"Mont de Rème","lat":46.93053,"lon":4.61054,"ele":514},{"name":"Mont Dône","lat":46.82712,"lon":4.04912,"ele":513},{"name":"Les Coques","lat":47.40279,"lon":6.67902,"ele":513},{"name":"La Montagne","lat":47.24348,"lon":4.37338,"ele":512},{"name":"Laurendon","lat":46.4087,"lon":4.52361,"ele":512},{"name":"Montagne de Miard","lat":47.38643,"lon":4.51576,"ele":512},{"name":"Les Hautes Roches","lat":47.53272,"lon":6.60583,"ele":512},{"name":"Le Mont d'Or","lat":47.1029,"lon":6.00242,"ele":511},{"name":"Fort de Fontain","lat":47.20592,"lon":6.03771,"ele":510},{"name":"Mont Cheveret","lat":47.0356,"lon":4.1887,"ele":510},{"name":"Mont Bichoux","lat":47.3714,"lon":6.23647,"ele":509},{"name":"Mont Violat","lat":46.3983,"lon":4.40063,"ele":506},{"name":"Mont Cras","lat":46.34684,"lon":4.68343,"ele":506},{"name":"Mont Dardon","lat":46.67709,"lon":4.03729,"ele":506},{"name":"Le Haut Biez","lat":47.73037,"lon":6.75842,"ele":506},{"name":"La Grande Montagne","lat":47.39503,"lon":4.62781,"ele":506},{"name":"Mont de la Fâ","lat":46.37262,"lon":4.7134,"ele":506},{"name":"Mont Châtelard","lat":46.40477,"lon":4.40249,"ele":504},{"name":"Montagne du Moiron","lat":46.93077,"lon":4.12097,"ele":501},{"name":"Mont Jenot","lat":46.87483,"lon":4.31389,"ele":501},{"name":"La Bresseille","lat":46.86738,"lon":4.00327,"ele":501},{"name":"Mont Aigu","lat":47.68951,"lon":4.95137,"ele":500},{"name":"Montagne de la Marolle","lat":46.81634,"lon":4.42043,"ele":499},{"name":"Le Chagnot","lat":46.79156,"lon":4.63705,"ele":498},{"name":"Champaron","lat":47.46852,"lon":4.61853,"ele":498},{"name":"Molard de Netru","lat":46.3464,"lon":5.63779,"ele":496},{"name":"Mont Torchon","lat":46.8817,"lon":3.86902,"ele":496},{"name":"Les Rivauts","lat":46.7771,"lon":4.62783,"ele":496},{"name":"Roche de la Bergère","lat":46.81905,"lon":4.44092,"ele":496},{"name":"Charbilly","lat":46.83157,"lon":4.30662,"ele":496},{"name":"Mont Marie","lat":47.70675,"lon":6.91034,"ele":495},{"name":"Batterie des Rattes","lat":47.2416,"lon":6.10164,"ele":494},{"name":"Le Volcan","lat":46.85274,"lon":4.52532,"ele":494},{"name":"La Justice","lat":46.80779,"lon":4.34468,"ele":494},{"name":"Roche de Solutré","lat":46.29872,"lon":4.71814,"ele":493},{"name":"Mont des Buis","lat":47.21496,"lon":6.03169,"ele":493},{"name":"Mont Rudolphe","lat":47.67511,"lon":6.87447,"ele":493},{"name":"Montagne de sous le Bois","lat":46.92653,"lon":4.11385,"ele":493},{"name":"Tête d'Armont","lat":47.39681,"lon":6.5973,"ele":492},{"name":"Chantoillon","lat":47.40455,"lon":4.64166,"ele":492},{"name":"Montabon","lat":46.8158,"lon":4.67947,"ele":491},{"name":"Chaumoux","lat":47.09472,"lon":4.31375,"ele":491},{"name":"Le Truchot","lat":47.2168,"lon":6.05596,"ele":489},{"name":"Mont de Romagny","lat":47.72438,"lon":6.96746,"ele":488},{"name":"Le Mont","lat":47.11866,"lon":4.57805,"ele":487},{"name":"Plateau des Rôpes","lat":47.06083,"lon":4.24214,"ele":487},{"name":"Mont Fourchat","lat":46.44248,"lon":5.43107,"ele":487},{"name":"Mont Bart","lat":47.48666,"lon":6.76157,"ele":487},{"name":"Mont de Pouilly","lat":46.28744,"lon":4.72176,"ele":485},{"name":"Le Cerisier","lat":46.955,"lon":4.15443,"ele":485},{"name":"Chaume d'Élie","lat":46.95245,"lon":4.6971,"ele":485},{"name":"Mont Vieilley","lat":47.69834,"lon":6.77064,"ele":485},{"name":"Bellevue","lat":46.76675,"lon":4.06867,"ele":484},{"name":"Haut du Faîte","lat":46.74483,"lon":4.15811,"ele":484},{"name":"Roche de Vergisson","lat":46.31449,"lon":4.7157,"ele":483},{"name":"Petite Montagne des Baudins","lat":46.80738,"lon":4.05933,"ele":483},{"name":"Haut des Glennes","lat":46.8615,"lon":4.33334,"ele":482},{"name":"Les Montailleux","lat":47.71133,"lon":6.88671,"ele":482},{"name":"Les Gravières","lat":47.07654,"lon":4.20701,"ele":482},{"name":"Montagne de Saucy","lat":47.4169,"lon":4.44523,"ele":481},{"name":"Butte de Thil","lat":47.38484,"lon":4.3373,"ele":481},{"name":"Mont d'Épy","lat":46.39134,"lon":5.40623,"ele":481},{"name":"La Forêt","lat":47.05174,"lon":4.25862,"ele":481},{"name":"Petit Mont","lat":46.2869,"lon":4.71812,"ele":481},{"name":"Mont de Besset","lat":46.24821,"lon":4.70944,"ele":480},{"name":"Haut du Mont","lat":47.6474,"lon":6.8281,"ele":480},{"name":"Montagne de la Châtelaine","lat":46.79222,"lon":4.36927,"ele":479},{"name":"Roche d'Aujoux","lat":46.5798,"lon":4.81718,"ele":478},{"name":"Butte Saint-Pierre","lat":47.25731,"lon":4.55274,"ele":477},{"name":"Le Planay","lat":47.42001,"lon":4.49691,"ele":477},{"name":"Mont Rond","lat":47.33699,"lon":4.35144,"ele":476},{"name":"Haut de la Croix","lat":47.05748,"lon":4.21345,"ele":476},{"name":"Le Cuchot","lat":47.40991,"lon":6.67646,"ele":476},{"name":"Colline de Bourlémont","lat":47.70476,"lon":6.62001,"ele":474},{"name":"Le Petit Truchot","lat":47.21482,"lon":6.04668,"ele":473},{"name":"Montagne du Calvaire","lat":46.78563,"lon":4.38466,"ele":473},{"name":"Haut du Chétif","lat":46.77203,"lon":4.26874,"ele":473},{"name":"Mont du Ciel","lat":47.42097,"lon":6.35892,"ele":472},{"name":"Le Signal","lat":47.11836,"lon":5.88642,"ele":472},{"name":"Mont Brogny","lat":46.73607,"lon":4.66519,"ele":471},{"name":"Mont Truchot","lat":47.48691,"lon":6.64962,"ele":470},{"name":"Mont Mercure","lat":47.61474,"lon":4.95825,"ele":470},{"name":"Denturgue","lat":46.46428,"lon":4.62618,"ele":470},{"name":"Signal de Mont","lat":46.64329,"lon":3.83801,"ele":469},{"name":"Les Belles Filles","lat":47.50272,"lon":6.63447,"ele":468},{"name":"Le Signal","lat":47.07535,"lon":5.79811,"ele":467},{"name":"Arleuf","lat":47.04977,"lon":4.25409,"ele":467},{"name":"Ouvrage de la Côte","lat":47.62598,"lon":6.80402,"ele":465},{"name":"La Justice","lat":47.29795,"lon":3.80784,"ele":464},{"name":"Mont Chevreuil","lat":46.37766,"lon":4.71513,"ele":464},{"name":"Le Mont Bouzu","lat":46.66181,"lon":4.65032,"ele":462},{"name":"Fort de Rosemont","lat":47.22171,"lon":6.00013,"ele":462},{"name":"La Roche","lat":47.47811,"lon":6.9123,"ele":462},{"name":"Pré Renaud","lat":47.57864,"lon":6.62747,"ele":462},{"name":"Les Barrots","lat":47.545,"lon":6.75216,"ele":462},{"name":"Mont Chauvin","lat":47.31898,"lon":4.7845,"ele":461},{"name":"Le Coudray","lat":47.64227,"lon":6.80875,"ele":461},{"name":"Bois du Mont","lat":47.60491,"lon":6.79485,"ele":461},{"name":"La Couperie","lat":47.44117,"lon":6.69648,"ele":461},{"name":"Le Chanois","lat":47.65045,"lon":6.75535,"ele":460},{"name":"Mont de Valancey","lat":47.43356,"lon":6.68256,"ele":460},{"name":"Montagne de Crot","lat":46.91727,"lon":4.10417,"ele":459},{"name":"Mont Renard","lat":46.77904,"lon":4.24449,"ele":459},{"name":"Le Faré","lat":47.69067,"lon":6.92764,"ele":458},{"name":"Mont de Bellenoie","lat":47.47991,"lon":6.58988,"ele":458},{"name":"Les Baumes","lat":46.63224,"lon":5.55075,"ele":456},{"name":"Roche de Chatard","lat":47.33926,"lon":6.36715,"ele":455},{"name":"Le Haut des Forges","lat":46.71683,"lon":4.03229,"ele":455},{"name":"Vauchien","lat":47.05771,"lon":4.24911,"ele":453},{"name":"Montagne de Recy","lat":46.37525,"lon":4.40527,"ele":453},{"name":"Mont Bart","lat":47.48793,"lon":6.74969,"ele":452},{"name":"Bosse du Vernois","lat":47.25195,"lon":6.14391,"ele":451},{"name":"Montvaudon","lat":47.49233,"lon":6.47896,"ele":451},{"name":"La Grande Montagne","lat":46.78237,"lon":4.0344,"ele":450},{"name":"La Piere au Mercier","lat":46.74721,"lon":4.0697,"ele":449},{"name":"Montagne de la Roche","lat":47.7098,"lon":5.72635,"ele":448},{"name":"La Brosse","lat":47.70176,"lon":6.81247,"ele":448},{"name":"Longêne","lat":46.97292,"lon":4.17376,"ele":448},{"name":"Chaume de Givry","lat":46.78367,"lon":4.70079,"ele":447},{"name":"Montagne de la Garde","lat":46.88008,"lon":4.10753,"ele":446},{"name":"Montagne Saint-Jean","lat":46.6989,"lon":4.04857,"ele":443},{"name":"Beaumont","lat":47.04428,"lon":4.25003,"ele":443},{"name":"Montagne de l'Arbre","lat":46.74338,"lon":4.04974,"ele":443},{"name":"Montagne de la Chaîne","lat":46.75336,"lon":4.20066,"ele":443},{"name":"Piton d'Éloie","lat":47.68693,"lon":6.87282,"ele":440},{"name":"La Vacherie","lat":47.59684,"lon":6.69534,"ele":440},{"name":"Mont Fran","lat":46.76378,"lon":4.2215,"ele":440},{"name":"Monts Chatons","lat":47.81664,"lon":6.52704,"ele":439},{"name":"Mont Bouton","lat":46.46123,"lon":4.50209,"ele":439},{"name":"Piton Lagace","lat":47.67751,"lon":6.85711,"ele":437},{"name":"Montagne de Cornu","lat":47.56458,"lon":4.29617,"ele":437},{"name":"Montagne de la Gay","lat":46.83529,"lon":4.07964,"ele":437},{"name":"Mont de Bregille","lat":47.23807,"lon":6.05306,"ele":436},{"name":"Le Milleremont","lat":47.55519,"lon":6.63371,"ele":436},{"name":"Le Cul au Rond","lat":46.48631,"lon":4.4825,"ele":436},{"name":"Mont de Cra","lat":47.54207,"lon":4.32281,"ele":434},{"name":"Montagne du Pierre","lat":46.85686,"lon":3.99885,"ele":433},{"name":"Côte de Grachaux","lat":47.44081,"lon":5.92041,"ele":433},{"name":"Le Durieux","lat":46.84715,"lon":4.12439,"ele":433},{"name":"Montagne des Courots","lat":46.7985,"lon":4.05932,"ele":432},{"name":"Haut d'Armont","lat":47.48417,"lon":6.6788,"ele":431},{"name":"Mont Tharot","lat":46.72772,"lon":3.98525,"ele":431},{"name":"Côte Molard","lat":46.57245,"lon":5.46236,"ele":430},{"name":"Mont Bignon","lat":46.84563,"lon":4.01321,"ele":428},{"name":"La Curtine","lat":47.4967,"lon":6.65997,"ele":428},{"name":"Pain de Beurre","lat":47.7202,"lon":5.73237,"ele":426},{"name":"Mont d'Autrey","lat":47.60356,"lon":6.35492,"ele":426},{"name":"Montagne de Barboux","lat":47.02613,"lon":4.20396,"ele":426},{"name":"La Pucenière","lat":47.04627,"lon":4.23827,"ele":426},{"name":"Le Grand Mont","lat":47.43473,"lon":6.67145,"ele":425},{"name":"Mont Genezet","lat":46.71504,"lon":5.54751,"ele":424},{"name":"La Côte","lat":47.68986,"lon":6.82393,"ele":424},{"name":"Mont Lambert","lat":47.60312,"lon":6.60776,"ele":424},{"name":"Montagne de la Justice","lat":46.84367,"lon":4.14036,"ele":424},{"name":"Montagne du Télégraphe","lat":47.51323,"lon":4.34772,"ele":423},{"name":"Dondin","lat":46.46932,"lon":4.50146,"ele":423},{"name":"Fort de Chaudanne","lat":47.22686,"lon":6.02308,"ele":422},{"name":"Mont Avril","lat":46.76391,"lon":4.69123,"ele":421},{"name":"Montagne de Provenchère","lat":46.73196,"lon":4.17028,"ele":421},{"name":"Mont Drejet","lat":47.51291,"lon":4.36248,"ele":420},{"name":"Mont Moiran","lat":47.62281,"lon":6.3425,"ele":418},{"name":"Côte de Barmont","lat":47.68539,"lon":4.69052,"ele":417},{"name":"Mont Gédry","lat":47.61209,"lon":6.39855,"ele":415},{"name":"Les Monts","lat":47.821,"lon":6.52416,"ele":415},{"name":"La Bruyère","lat":47.55802,"lon":6.61219,"ele":415},{"name":"Les Voinayes","lat":47.53955,"lon":6.70367,"ele":414},{"name":"Le Chanoi","lat":47.4692,"lon":6.72254,"ele":414},{"name":"Le Mont","lat":47.46684,"lon":6.74327,"ele":414},{"name":"Le Vallin","lat":46.98876,"lon":5.80556,"ele":413},{"name":"Mont Pelé","lat":46.43187,"lon":4.74541,"ele":412},{"name":"Plateau de Saint-Anne","lat":47.54104,"lon":6.15357,"ele":412},{"name":"Montagne de la Garde","lat":46.70618,"lon":4.02813,"ele":412},{"name":"La Mondasse","lat":46.46333,"lon":4.59585,"ele":412},{"name":"Mont Frivaux","lat":47.02515,"lon":4.44212,"ele":411},{"name":"Friche des Lavières","lat":47.58321,"lon":6.32525,"ele":408},{"name":"Monsard","lat":46.34378,"lon":4.70739,"ele":407},{"name":"Mont Auxois","lat":47.53658,"lon":4.50388,"ele":407},{"name":"Le Laret","lat":47.01135,"lon":4.19861,"ele":407},{"name":"Le Pus","lat":46.81001,"lon":4.3216,"ele":407},{"name":"La Chaux","lat":47.52003,"lon":6.82442,"ele":406},{"name":"Le Berlingot","lat":47.01131,"lon":4.20751,"ele":404},{"name":"La Garde","lat":46.72975,"lon":4.29316,"ele":404},{"name":"Haut du Cros","lat":47.69576,"lon":5.72171,"ele":403},{"name":"Mont Toussaint","lat":46.53291,"lon":4.43946,"ele":402},{"name":"Haut des Bourbets","lat":47.55459,"lon":6.81668,"ele":401},{"name":"Terril du fonçage de l'est","lat":47.71183,"lon":6.65032,"ele":400},{"name":"Terril du puits 4","lat":47.71126,"lon":6.66518,"ele":400},{"name":"Mont Morain","lat":46.72816,"lon":5.53793,"ele":399},{"name":"Montagne de Sampeau","lat":47.0067,"lon":4.74739,"ele":399},{"name":"Mont Cernon","lat":47.46355,"lon":4.44031,"ele":399},{"name":"La Butte","lat":47.61201,"lon":6.35745,"ele":398},{"name":"Terril","lat":46.98411,"lon":4.30417,"ele":397},{"name":"Montagne de Beaune","lat":47.04814,"lon":4.80612,"ele":396},{"name":"Mont Justin","lat":47.61472,"lon":6.37571,"ele":396},{"name":"Montagne du Tartre","lat":46.65402,"lon":4.61912,"ele":396},{"name":"Mont de Cerre","lat":47.59239,"lon":6.34069,"ele":395},{"name":"Le Mondelot","lat":46.88497,"lon":4.61411,"ele":394},{"name":"Le Mont","lat":47.59299,"lon":6.40396,"ele":393},{"name":"Mont du Calvaire","lat":46.82881,"lon":5.64015,"ele":393},{"name":"Montcuchot","lat":47.55948,"lon":6.24932,"ele":393},{"name":"Montchevreuil","lat":47.54501,"lon":5.09523,"ele":392},{"name":"Montagne de Noireterre","lat":46.70588,"lon":4.01159,"ele":391},{"name":"La Montagne","lat":47.54895,"lon":6.96931,"ele":389},{"name":"Le Raseau","lat":47.54026,"lon":4.21352,"ele":387},{"name":"Terril rouge de Ronchamp","lat":47.69362,"lon":6.62072,"ele":386},{"name":"Mont Cita","lat":47.59919,"lon":6.14812,"ele":386},{"name":"Terril","lat":46.98403,"lon":4.30105,"ele":386},{"name":"Le Cuart","lat":46.7775,"lon":5.61008,"ele":383},{"name":"Le Crêt","lat":47.60883,"lon":6.07736,"ele":383},{"name":"La Montagne","lat":46.78695,"lon":4.12472,"ele":383},{"name":"Terril de Magny-Danigon (crassier)","lat":47.69228,"lon":6.61956,"ele":382},{"name":"Haut de Boulay","lat":46.44192,"lon":4.50567,"ele":382},{"name":"Roche Fraiche","lat":47.55356,"lon":4.40221,"ele":381},{"name":"La Planche Vellefaux","lat":47.60389,"lon":6.46177,"ele":381},{"name":"Mont Coeur","lat":46.76004,"lon":4.67585,"ele":380},{"name":"Terril de l'Etançon","lat":47.70898,"lon":6.64541,"ele":380},{"name":"Terril Saint-Charles","lat":47.70182,"lon":6.65013,"ele":380},{"name":"Le Giémont","lat":47.4629,"lon":6.69054,"ele":380},{"name":"Mont Bué","lat":47.34755,"lon":3.75069,"ele":378},{"name":"Le Mont","lat":47.61401,"lon":6.46655,"ele":376},{"name":"Montagne de Bourdon","lat":46.99285,"lon":4.75155,"ele":376},{"name":"Mont Sabot","lat":47.35409,"lon":3.73692,"ele":375},{"name":"Mont de Vassange","lat":47.22581,"lon":5.66704,"ele":375},{"name":"La Motte","lat":47.62937,"lon":6.15228,"ele":371},{"name":"Mont Saint-Etienne","lat":47.23086,"lon":6.03345,"ele":371},{"name":"Petit terril du puits du Magny","lat":47.6941,"lon":6.63554,"ele":370},{"name":"Terril du puits Arthur","lat":47.67484,"lon":6.61381,"ele":370},{"name":"Terril Sainte-Pauline","lat":47.69383,"lon":6.66095,"ele":370},{"name":"Terril Saint-Joseph","lat":47.69843,"lon":6.64306,"ele":370},{"name":"Terril Saint-Georges","lat":47.68818,"lon":6.6662,"ele":370},{"name":"Le Mont","lat":46.46421,"lon":4.56932,"ele":370},{"name":"Montagne de Bost","lat":46.70806,"lon":4.08792,"ele":368},{"name":"Montagne des Alouettes","lat":47.52693,"lon":3.30579,"ele":367},{"name":"La Queue au Loup","lat":47.59362,"lon":6.3684,"ele":366},{"name":"Terril Sainte-Barbe","lat":47.6987,"lon":6.65915,"ele":365},{"name":"Montbourgeau","lat":46.71383,"lon":5.53167,"ele":365},{"name":"Terril plat du puits du Magny","lat":47.69024,"lon":6.63437,"ele":361},{"name":"L'Aigremont","lat":47.66763,"lon":6.38805,"ele":361},{"name":"Le Monceau","lat":46.76414,"lon":4.67952,"ele":360},{"name":"Terril du Tonnet","lat":47.6835,"lon":6.66006,"ele":360},{"name":"Mont Bion","lat":47.35374,"lon":3.73114,"ele":360},{"name":"Mont Charlet","lat":46.86237,"lon":3.93781,"ele":360},{"name":"Gros Mont","lat":47.48137,"lon":3.79685,"ele":359},{"name":"Mont Pouroux","lat":46.76447,"lon":4.70257,"ele":356},{"name":"Montagne de Montfort","lat":47.5837,"lon":4.3277,"ele":355},{"name":"Mont Péjus","lat":46.59917,"lon":4.64707,"ele":354},{"name":"Montmarte","lat":47.50073,"lon":3.82836,"ele":354},{"name":"Les Crayes","lat":47.59763,"lon":6.37112,"ele":354},{"name":"Mont Varin","lat":47.33534,"lon":5.80905,"ele":353},{"name":"Terril d'Eboulet","lat":47.69013,"lon":6.64849,"ele":350},{"name":"Terril E","lat":47.55259,"lon":6.60699,"ele":350},{"name":"Terril F","lat":47.5529,"lon":6.60539,"ele":350},{"name":"Montagne des Gaffis","lat":46.80943,"lon":4.18387,"ele":349},{"name":"Le Pied des Fourches","lat":46.80775,"lon":4.22106,"ele":348},{"name":"Le Mont","lat":46.83209,"lon":5.59004,"ele":347},{"name":"Mont Jésus","lat":47.51994,"lon":6.3164,"ele":347},{"name":"Terril D","lat":47.55137,"lon":6.60803,"ele":345},{"name":"La Sapinière","lat":47.58248,"lon":3.90627,"ele":344},{"name":"Le Morlin","lat":47.4017,"lon":3.86627,"ele":343},{"name":"Le Sabot","lat":47.63173,"lon":6.18432,"ele":342},{"name":"Mont Farine","lat":47.53245,"lon":6.11794,"ele":342},{"name":"Haut du Mont","lat":47.74847,"lon":6.47739,"ele":340},{"name":"Les Montaigus","lat":46.71267,"lon":4.11542,"ele":340},{"name":"Le Bermont","lat":47.22823,"lon":5.64901,"ele":336},{"name":"Mont Tatie","lat":47.74935,"lon":6.48547,"ele":336},{"name":"Le Défend","lat":46.89555,"lon":3.8392,"ele":335},{"name":"Montarbey","lat":46.70464,"lon":5.53208,"ele":333},{"name":"La butte","lat":47.65712,"lon":6.48815,"ele":332},{"name":"Beaufort","lat":46.93642,"lon":4.21168,"ele":332},{"name":"Niètre","lat":47.50162,"lon":3.81939,"ele":331},{"name":"Le Crot","lat":47.01758,"lon":5.80739,"ele":329},{"name":"Montagne de Montfault","lat":47.53247,"lon":4.09775,"ele":329},{"name":"Colline du Château","lat":46.68044,"lon":5.52835,"ele":328},{"name":"Mont Tuzot","lat":46.41395,"lon":4.75714,"ele":324},{"name":"Mont de Lune","lat":47.15636,"lon":5.95021,"ele":321},{"name":"Le Criolet","lat":47.27534,"lon":3.22475,"ele":321},{"name":"Mont d'Azy","lat":46.73285,"lon":3.83431,"ele":320},{"name":"Mont-Augy","lat":46.72348,"lon":5.52718,"ele":315},{"name":"Montagne de Verre","lat":47.54319,"lon":4.08676,"ele":313},{"name":"Mont Lassois","lat":47.90619,"lon":4.53223,"ele":307},{"name":"Bois de la Vaire","lat":47.55321,"lon":3.92393,"ele":307},{"name":"Rochotte","lat":47.66963,"lon":6.21095,"ele":306},{"name":"Le Montroin","lat":47.2664,"lon":3.50716,"ele":306},{"name":"Butte de Jumeau","lat":47.54483,"lon":4.41824,"ele":305},{"name":"Larré Dolent","lat":47.52905,"lon":4.16528,"ele":301},{"name":"Mont Jevaux","lat":46.70741,"lon":5.52168,"ele":298},{"name":"Sermentole","lat":47.40043,"lon":3.57703,"ele":297},{"name":"Mouron","lat":46.59425,"lon":4.90039,"ele":296},{"name":"Le Crot Blanc","lat":47.52397,"lon":3.71131,"ele":292},{"name":"Mont Givre","lat":47.07483,"lon":3.11178,"ele":292},{"name":"sommet de Routeau","lat":47.22778,"lon":5.58844,"ele":292},{"name":"La Carte de France","lat":47.52423,"lon":3.65611,"ele":280},{"name":"Le Fas","lat":47.77375,"lon":3.40711,"ele":272},{"name":"Mont Aigu","lat":47.42024,"lon":3.64418,"ele":272},{"name":"Les Grands Chassenays","lat":47.51813,"lon":3.65219,"ele":266},{"name":"Mont Simon","lat":47.82415,"lon":5.90489,"ele":252},{"name":"La Pierre Bise","lat":47.56005,"lon":3.7121,"ele":250},{"name":"Noyer Colin","lat":47.55849,"lon":5.62128,"ele":248},{"name":"Les Cotats","lat":48.03505,"lon":3.53748,"ele":245},{"name":"La Forêt","lat":47.31969,"lon":3.13341,"ele":238},{"name":"Ville-Auxerre","lat":47.56675,"lon":3.77301,"ele":236},{"name":"Le Gaudier","lat":47.7319,"lon":3.6278,"ele":234},{"name":"Mont Pauloy","lat":47.19278,"lon":5.21271,"ele":232},{"name":"L'Ayer","lat":47.18846,"lon":5.22597,"ele":227},{"name":"Les Pontignys","lat":48.01175,"lon":3.50243,"ele":225},{"name":"Bois de Montholon","lat":47.93865,"lon":3.37735,"ele":222},{"name":"Haut des Beautés","lat":48.22656,"lon":3.35056,"ele":211},{"name":"Le Gros Mont","lat":47.90253,"lon":3.38316,"ele":206},{"name":"Le Thureau du Bard","lat":47.84879,"lon":3.59832,"ele":203},{"name":"La Closerie","lat":48.12557,"lon":3.23194,"ele":180},{"name":"La Tête de Vache","lat":47.99556,"lon":3.29318,"ele":179},{"name":"La Croix de Pardieu","lat":47.98018,"lon":3.49334,"ele":162},{"name":"Les Tombelles","lat":48.20703,"lon":3.26049,"ele":151},{"name":"La Justice","lat":47.97276,"lon":3.49935,"ele":140},{"name":"La Côte aux Oies","lat":47.97654,"lon":3.46522,"ele":136}],"normandie":[{"name":"Signal d'Ecouves","lat":48.5499,"lon":0.03418,"ele":413},{"name":"Butte Chaumont","lat":48.48075,"lon":-0.02679,"ele":378},{"name":"Mont Pinçon","lat":48.97125,"lon":-0.62703,"ele":362},{"name":"Le Haut Bosq","lat":49.01139,"lon":-0.77289,"ele":358},{"name":"Signal de Charlemagne","lat":48.64862,"lon":-0.43829,"ele":345},{"name":"Massif du Mesnil","lat":48.81544,"lon":-1.00402,"ele":336},{"name":"Le Mont d'Ancre","lat":48.98205,"lon":-0.58375,"ele":331},{"name":"Signal d'Ondefontaine","lat":48.99929,"lon":-0.69256,"ele":327},{"name":"cote 314","lat":48.64873,"lon":-0.93352,"ele":314},{"name":"La Montjoie","lat":48.64377,"lon":-0.9331,"ele":312},{"name":"Le Mont de la Roue","lat":48.724,"lon":-0.64238,"ele":309},{"name":"Mont Brûlé","lat":48.65668,"lon":-0.52114,"ele":307},{"name":"Mont en Gérôme","lat":48.61529,"lon":-0.48051,"ele":304},{"name":"Le Grand Mont d'Eron","lat":48.70709,"lon":-0.95522,"ele":301},{"name":"Mont de la Foudre","lat":48.91168,"lon":-0.40959,"ele":276},{"name":"Mont Robin","lat":48.92924,"lon":-1.16118,"ele":275},{"name":"Mont Pétron","lat":48.77993,"lon":-0.36996,"ele":274},{"name":"Mont du Père","lat":48.93076,"lon":-0.44499,"ele":271},{"name":"Mont Margantin","lat":48.53628,"lon":-0.64087,"ele":270},{"name":"Mont Ormel","lat":48.82194,"lon":0.14499,"ele":262},{"name":"Mont Hurel","lat":48.88705,"lon":0.06283,"ele":259},{"name":"Mont Epinette","lat":48.81393,"lon":-0.08247,"ele":252},{"name":"Butte du Moulin à Vent","lat":49.01789,"lon":-0.59069,"ele":249},{"name":"Mont de Cerisy","lat":48.79348,"lon":-0.64055,"ele":246},{"name":"Butte du Bouquet","lat":49.01407,"lon":-0.56855,"ele":243},{"name":"Bois du Fil","lat":48.77664,"lon":-0.37416,"ele":242},{"name":"Butte de Carbouilly","lat":49.02541,"lon":-0.59834,"ele":235},{"name":"Mont Coquerel","lat":49.50687,"lon":1.57996,"ele":229},{"name":"Mont Cornet","lat":49.50652,"lon":1.56082,"ele":224},{"name":"Mont de Vêpres","lat":48.93831,"lon":-0.48833,"ele":217},{"name":"Mont Buon","lat":48.73353,"lon":-1.0528,"ele":209},{"name":"Les Monts de Mérol","lat":48.92375,"lon":-1.00062,"ele":189},{"name":"Le Haut Bray","lat":49.75484,"lon":1.34071,"ele":185},{"name":"Mont Thulé","lat":48.833,"lon":-0.08369,"ele":182},{"name":"Mont aux Billes","lat":49.84442,"lon":1.58418,"ele":179},{"name":"Le Signal des Landes","lat":49.65267,"lon":-1.83076,"ele":178},{"name":"Mont Myrrha","lat":48.89448,"lon":-0.21226,"ele":173},{"name":"Mont Capet","lat":49.85265,"lon":1.54719,"ele":172},{"name":"Le Pain de Sucre","lat":48.92964,"lon":-0.47638,"ele":171},{"name":"Mont des Trépieds","lat":49.66663,"lon":-1.81921,"ele":164},{"name":"Mont de Duranville","lat":49.79328,"lon":1.42687,"ele":163},{"name":"Mont Gripon","lat":49.65495,"lon":1.49323,"ele":162},{"name":"La Bosse","lat":49.29862,"lon":1.29,"ele":155},{"name":"Mont des Rieux","lat":49.93296,"lon":1.59155,"ele":153},{"name":"La Haumagne","lat":49.28767,"lon":0.37581,"ele":148},{"name":"Mont Fortin","lat":49.45989,"lon":1.09966,"ele":144},{"name":"Mont Etolan","lat":49.65113,"lon":-1.38585,"ele":138},{"name":"Colline d'Enfer","lat":48.98466,"lon":-0.49277,"ele":138},{"name":"Butte de Saint-Martin","lat":49.32161,"lon":0.15751,"ele":137},{"name":"Mont Faucon","lat":49.89782,"lon":1.67699,"ele":135},{"name":"Mont de Doville","lat":49.32669,"lon":-1.56407,"ele":131},{"name":"Mont Castre","lat":49.28799,"lon":-1.4669,"ele":130},{"name":"La Butte","lat":49.66585,"lon":0.68862,"ele":129},{"name":"Le Mont","lat":49.26965,"lon":-0.07247,"ele":128},{"name":"Manoir (disparu) d'Azelonde","lat":49.63152,"lon":0.25937,"ele":127},{"name":"Butte des monts","lat":48.95344,"lon":0.00001,"ele":126},{"name":"Colline de La Pernelle","lat":49.6188,"lon":-1.29869,"ele":123},{"name":"Butte de Houlgate","lat":49.303,"lon":-0.06533,"ele":123},{"name":"Mont Géricault","lat":49.55172,"lon":0.96848,"ele":121},{"name":"Mont Pouillon","lat":49.71816,"lon":0.55631,"ele":121},{"name":"Mont Rogneux","lat":49.5045,"lon":-1.39431,"ele":118},{"name":"Mont d'Auget","lat":49.25577,"lon":0.24469,"ele":118},{"name":"Montagne du Roule","lat":49.62844,"lon":-1.61298,"ele":117},{"name":"Bois Guérin - Avranches","lat":48.67538,"lon":-1.36372,"ele":112},{"name":"Mont Canisy","lat":49.3391,"lon":0.03961,"ele":111},{"name":"Mont Castre","lat":49.49588,"lon":-1.39238,"ele":108},{"name":"La Butte de Caumont","lat":49.29129,"lon":-0.08713,"ele":103},{"name":"Mont Bernard","lat":48.88349,"lon":-1.40526,"ele":103},{"name":"Mont de Vassonville","lat":49.97029,"lon":1.20426,"ele":101},{"name":"Mont Brillon","lat":48.90069,"lon":-1.36342,"ele":101},{"name":"Mont Canisy","lat":49.33453,"lon":0.05627,"ele":99},{"name":"Les Prouelles","lat":49.80441,"lon":1.31935,"ele":99},{"name":"Mont Robin","lat":49.91423,"lon":1.05036,"ele":95},{"name":"Mont Jolibois","lat":50.02495,"lon":1.30228,"ele":87},{"name":"Sommet dunes d'Hatainville","lat":49.38361,"lon":-1.79944,"ele":82},{"name":"Mont Bertrand","lat":48.99478,"lon":-0.11221,"ele":82},{"name":"Le Mont Clin","lat":49.69924,"lon":-1.87537,"ele":81},{"name":"La Hoguette","lat":49.11817,"lon":-0.15203,"ele":77},{"name":"Caumont","lat":50.0231,"lon":1.47696,"ele":74},{"name":"La Découverte","lat":49.39219,"lon":-1.81252,"ele":72},{"name":"Mont Blanc","lat":50.02811,"lon":1.32599,"ele":71},{"name":"Mont Jacob","lat":49.00164,"lon":-0.03793,"ele":69},{"name":"Mont d'Auge","lat":49.32071,"lon":0.14241,"ele":65},{"name":"Mont Saint-Gilles","lat":49.55454,"lon":-1.85133,"ele":65},{"name":"Mont Cavalier","lat":49.32701,"lon":-0.74859,"ele":64},{"name":"Mont Canisy","lat":49.21212,"lon":-0.05173,"ele":62},{"name":"Le Mont Jacob","lat":49.0995,"lon":-0.13502,"ele":56},{"name":"Mont Sens","lat":49.19699,"lon":-0.03556,"ele":54},{"name":"Mont Bottray","lat":49.09191,"lon":-0.05247,"ele":51},{"name":"Mont Goubert","lat":49.19923,"lon":-0.04616,"ele":50},{"name":"Le Mont Cibot","lat":49.19761,"lon":-0.14805,"ele":45},{"name":"Butte du Hutrais","lat":49.05916,"lon":-0.0217,"ele":37},{"name":"Mont Épinguet","lat":49.35199,"lon":-1.45044,"ele":36},{"name":"Butte de la Hogue","lat":49.19837,"lon":-0.24006,"ele":34},{"name":"Mont Carel","lat":49.30004,"lon":0.11013,"ele":33},{"name":"Mont aux Cats","lat":49.45276,"lon":-1.41342,"ele":26},{"name":"La Butte de l'Eté","lat":49.16588,"lon":-0.08635,"ele":8}],"hauts-de-france":[{"name":"Signal de Courcelles","lat":49.4688,"lon":1.94313,"ele":239},{"name":"Mont Pagnotte","lat":49.27981,"lon":2.63988,"ele":222},{"name":"Mont Florentin","lat":49.34154,"lon":2.05243,"ele":221},{"name":"Buttes de Rosne","lat":49.18842,"lon":2.02701,"ele":216},{"name":"Le Mont Champoix","lat":49.24019,"lon":3.63339,"ele":212},{"name":"Mont Hulin","lat":50.66588,"lon":1.85387,"ele":208},{"name":"Mont Fauclin","lat":50.67639,"lon":1.96526,"ele":206},{"name":"Butte témoin de Montmélian","lat":49.0925,"lon":2.57865,"ele":203},{"name":"Mont Pelé","lat":50.66208,"lon":1.84753,"ele":200},{"name":"Mont Saint-Sylvestre","lat":50.73647,"lon":1.88289,"ele":199},{"name":"Mont de Rebergues","lat":50.75691,"lon":1.95431,"ele":196},{"name":"Mont Totin","lat":50.65339,"lon":1.96927,"ele":196},{"name":"Mont Gayez","lat":50.64693,"lon":1.94494,"ele":195},{"name":"Mont Ravin","lat":50.64906,"lon":1.9156,"ele":195},{"name":"Mont Lambert","lat":50.71791,"lon":1.65054,"ele":192},{"name":"Mont de Quesques","lat":50.71067,"lon":1.94329,"ele":192},{"name":"Monts Caboche","lat":50.69582,"lon":1.9525,"ele":192},{"name":"Mont de la Cagne","lat":50.72728,"lon":1.99451,"ele":191},{"name":"Mont de Rippemont","lat":50.66225,"lon":1.9596,"ele":191},{"name":"Le Mont de Baraffles","lat":50.43852,"lon":2.58018,"ele":190},{"name":"Mont de la Comté","lat":50.41616,"lon":2.5176,"ele":190},{"name":"Terril №74, 11 - 19 de Lens Est","lat":50.44555,"lon":2.78255,"ele":188},{"name":"Montagne d'Attiche","lat":49.53641,"lon":2.89391,"ele":188},{"name":"Mont de Bléquin","lat":50.66909,"lon":1.99457,"ele":188},{"name":"Terril №74A, 11 - 19 de Lens Ouest","lat":50.44329,"lon":2.7782,"ele":187},{"name":"Mont de Drionville","lat":50.65717,"lon":2.04264,"ele":187},{"name":"Mont de Breucq","lat":50.66758,"lon":2.00384,"ele":186},{"name":"Mont Grave","lat":50.55043,"lon":2.19143,"ele":185},{"name":"Mont de Dalles","lat":50.60943,"lon":1.78606,"ele":185},{"name":"Le Mont Kennedy","lat":49.59509,"lon":3.50862,"ele":182},{"name":"Mont Bernard","lat":50.58207,"lon":2.11292,"ele":182},{"name":"Mont d'Andres","lat":50.80073,"lon":1.87612,"ele":181},{"name":"Le Mont Huet","lat":49.6508,"lon":2.03051,"ele":180},{"name":"Mont de la Calique","lat":50.66684,"lon":1.91737,"ele":180},{"name":"Mont Graux","lat":50.65084,"lon":2.02554,"ele":179},{"name":"Mont de Brunembert","lat":50.7189,"lon":1.9096,"ele":178},{"name":"Mont du Val","lat":50.73266,"lon":1.9067,"ele":178},{"name":"Mont Olivet","lat":49.73364,"lon":2.02728,"ele":177},{"name":"Montagne de Frémontiers","lat":49.75237,"lon":2.07146,"ele":177},{"name":"Mont Cassel","lat":50.80166,"lon":2.48405,"ele":176},{"name":"Mont Poulain","lat":50.80107,"lon":1.82816,"ele":176},{"name":"Mont Violette","lat":50.62087,"lon":1.6752,"ele":176},{"name":"Mont Doulet","lat":50.49899,"lon":2.29071,"ele":176},{"name":"Mont Bart","lat":50.68295,"lon":2.02967,"ele":174},{"name":"Mont Blanc","lat":49.77482,"lon":1.76739,"ele":174},{"name":"Mont Hernu","lat":50.39893,"lon":2.71661,"ele":173},{"name":"Mont de Course","lat":50.63278,"lon":1.85174,"ele":173},{"name":"Les Grands Fiez","lat":50.19762,"lon":2.47348,"ele":173},{"name":"Butte des Marais","lat":49.41195,"lon":2.05912,"ele":172},{"name":"Court Mont","lat":50.5417,"lon":2.1305,"ele":172},{"name":"Mont Aigu","lat":50.64779,"lon":2.00404,"ele":172},{"name":"Mont Petit Bled","lat":49.81493,"lon":1.98206,"ele":172},{"name":"Mont d'Éclemy","lat":50.78959,"lon":1.90237,"ele":171},{"name":"Mont d'Hucqueliers","lat":50.55802,"lon":1.95983,"ele":171},{"name":"Mont de Marne","lat":50.51043,"lon":2.04729,"ele":171},{"name":"Mont Corbeau","lat":50.61118,"lon":1.76237,"ele":170},{"name":"Montagne de Gaudiempré","lat":50.16854,"lon":2.52773,"ele":169},{"name":"Mont Tirmant","lat":50.55863,"lon":2.25437,"ele":169},{"name":"Le Sire Amont","lat":49.67785,"lon":2.24394,"ele":169},{"name":"Montagne du Hazoir","lat":49.5365,"lon":2.79524,"ele":167},{"name":"Mont de Rot","lat":49.77418,"lon":2.06129,"ele":167},{"name":"Mont Hurteux","lat":50.62241,"lon":1.90048,"ele":166},{"name":"Mont du Lusquet","lat":50.68864,"lon":2.036,"ele":165},{"name":"Mont des Cats","lat":50.78309,"lon":2.6678,"ele":164},{"name":"La montagne de Lagny","lat":49.6165,"lon":2.90625,"ele":164},{"name":"Mont St-Siméon","lat":49.58734,"lon":3.02757,"ele":164},{"name":"Mont Ogay","lat":50.5821,"lon":2.10791,"ele":164},{"name":"Mont de Cuy","lat":49.57701,"lon":2.92064,"ele":163},{"name":"Le Plémont","lat":49.57077,"lon":2.85224,"ele":163},{"name":"Mont de Couple","lat":50.87048,"lon":1.70417,"ele":163},{"name":"Mont de Coupe","lat":50.68522,"lon":1.9168,"ele":163},{"name":"Magremont","lat":50.07904,"lon":2.33936,"ele":163},{"name":"Motte du Rosel","lat":50.082,"lon":2.33392,"ele":162},{"name":"Mont de Wismes","lat":50.66024,"lon":2.06321,"ele":162},{"name":"Mont des Merveilles","lat":50.61456,"lon":1.85504,"ele":161},{"name":"Mont Soufflard","lat":49.634,"lon":2.45702,"ele":161},{"name":"Le Mont de Rebreuve","lat":50.44385,"lon":2.56723,"ele":160},{"name":"Le Belbert","lat":50.78906,"lon":1.91975,"ele":160},{"name":"La Montagne","lat":50.40374,"lon":2.5006,"ele":160},{"name":"Mont de Dannes","lat":50.58346,"lon":1.63009,"ele":160},{"name":"Mont de Lawarde","lat":49.68229,"lon":2.25878,"ele":160},{"name":"Mont des Récollets","lat":50.80039,"lon":2.50577,"ele":159},{"name":"Mont aux Pourceaux","lat":49.73278,"lon":2.06916,"ele":159},{"name":"Mont de Sombre","lat":50.8994,"lon":1.71278,"ele":158},{"name":"Mont de Gouy","lat":50.33376,"lon":2.40396,"ele":158},{"name":"Mont à Lièvres","lat":49.69622,"lon":2.22814,"ele":158},{"name":"Mont César","lat":49.3615,"lon":2.52203,"ele":157},{"name":"Mont Graux","lat":50.55771,"lon":1.97857,"ele":157},{"name":"Mont Gibart","lat":50.61635,"lon":1.93863,"ele":157},{"name":"Au-dessus de l'Etrelle","lat":50.13443,"lon":2.24032,"ele":157},{"name":"Vieux Moulin","lat":50.03799,"lon":2.7531,"ele":157},{"name":"Les Froids Vents","lat":49.60378,"lon":2.35075,"ele":156},{"name":"Mont d'Eps","lat":50.46493,"lon":2.2887,"ele":155},{"name":"Mont des Fontaines","lat":50.39891,"lon":2.70472,"ele":155},{"name":"Mont Goudinon","lat":50.39894,"lon":2.6986,"ele":155},{"name":"Mont de la Vallée","lat":50.61192,"lon":1.949,"ele":155},{"name":"Dessus du Pont","lat":50.07191,"lon":2.25786,"ele":155},{"name":"l'Olinval","lat":49.49263,"lon":2.80551,"ele":154},{"name":"La Couture du Moulin","lat":50.06009,"lon":2.50668,"ele":154},{"name":"Herquelingue","lat":50.6915,"lon":1.65292,"ele":154},{"name":"La montagne","lat":49.58018,"lon":2.95607,"ele":153},{"name":"Mont à Cailloux","lat":50.23296,"lon":2.59009,"ele":153},{"name":"Le Prisé","lat":50.19705,"lon":2.37489,"ele":153},{"name":"Mont Vert","lat":50.73047,"lon":1.99368,"ele":153},{"name":"Le Moulin","lat":50.07658,"lon":2.2435,"ele":153},{"name":"Mont Noir","lat":50.77888,"lon":2.73288,"ele":152},{"name":"Mottes des Hayettes","lat":50.06463,"lon":2.36195,"ele":152},{"name":"Le Haut Bois","lat":50.04104,"lon":2.37501,"ele":152},{"name":"Le Quénot","lat":49.62325,"lon":2.4044,"ele":152},{"name":"La Haute Borne","lat":49.66065,"lon":2.40933,"ele":152},{"name":"Mont d'Huette","lat":49.39274,"lon":2.74096,"ele":151},{"name":"Le mont d'Hubert","lat":50.92216,"lon":1.72211,"ele":151},{"name":"La Motte Notre-Dame","lat":50.24124,"lon":2.32141,"ele":151},{"name":"Les Coutures","lat":50.06301,"lon":2.48805,"ele":151},{"name":"Les Terres Franches","lat":50.07443,"lon":2.46048,"ele":151},{"name":"Mont Clergé","lat":49.39347,"lon":2.72977,"ele":150},{"name":"La Côte Bimont","lat":49.52761,"lon":3.45028,"ele":150},{"name":"Les Neuf","lat":50.1511,"lon":2.4592,"ele":150},{"name":"Mont de Neufchâtel","lat":50.59558,"lon":1.64246,"ele":150},{"name":"Lieu dit \"Camp de César\" ou \"Fort du Ganelon\"","lat":49.46105,"lon":2.82849,"ele":149},{"name":"Monts de Terre","lat":50.06063,"lon":2.48189,"ele":149},{"name":"Mont de Montreuil","lat":50.60082,"lon":1.64254,"ele":149},{"name":"Montagne d'Hauette","lat":49.50669,"lon":2.87821,"ele":148},{"name":"Mont de Givenchy","lat":50.388,"lon":2.75852,"ele":148},{"name":"Mont Saint-Martin","lat":50.58569,"lon":1.8865,"ele":148},{"name":"Tête du Flay","lat":50.10153,"lon":2.24593,"ele":148},{"name":"Hauts Cattis","lat":50.1044,"lon":2.40431,"ele":147},{"name":"Mont de Monchiet","lat":50.24851,"lon":2.63253,"ele":145},{"name":"Mont d'Ergny","lat":50.59729,"lon":1.95216,"ele":145},{"name":"La Garenne","lat":49.53437,"lon":3.45551,"ele":144},{"name":"Mont de Varennes","lat":50.03537,"lon":2.53512,"ele":144},{"name":"Les Moimonts","lat":50.11319,"lon":2.16869,"ele":144},{"name":"Chapereau Mont","lat":49.60923,"lon":2.4037,"ele":144},{"name":"La Motte","lat":50.10274,"lon":2.48596,"ele":143},{"name":"Mont Armet","lat":50.05233,"lon":2.26054,"ele":143},{"name":"Montagne Moinet","lat":49.68898,"lon":2.29112,"ele":143},{"name":"La Planchette","lat":50.02345,"lon":2.7757,"ele":143},{"name":"Motte du Moulin","lat":50.52281,"lon":1.91828,"ele":142},{"name":"La Hache","lat":50.16329,"lon":2.11985,"ele":142},{"name":"Noires Mottes","lat":50.92507,"lon":1.73355,"ele":142},{"name":"Le Cheminet","lat":50.15842,"lon":2.14765,"ele":142},{"name":"Le Séhu","lat":50.17362,"lon":2.13406,"ele":142},{"name":"Haut des Fosses Chaudron","lat":50.07704,"lon":2.36983,"ele":142},{"name":"Mont Saint-Liévin","lat":50.60275,"lon":2.11709,"ele":142},{"name":"Mont d'Hellot","lat":50.60735,"lon":1.66974,"ele":142},{"name":"Le Marmont","lat":50.02426,"lon":2.39912,"ele":142},{"name":"Noir-Mottes","lat":50.92577,"lon":1.72962,"ele":141},{"name":"La Motte","lat":50.16025,"lon":2.11815,"ele":141},{"name":"Mont de Sars","lat":50.31061,"lon":2.44681,"ele":141},{"name":"Mont d'Herbeval","lat":50.45621,"lon":2.31517,"ele":141},{"name":"Sériel","lat":50.07057,"lon":2.41298,"ele":141},{"name":"Le Moulin Gricourt","lat":50.14768,"lon":2.09736,"ele":141},{"name":"Mont Moyen","lat":50.10946,"lon":2.22392,"ele":141},{"name":"Mont à Railloux","lat":50.58877,"lon":1.63551,"ele":141},{"name":"Mont de Fosseux","lat":50.26603,"lon":2.53782,"ele":140},{"name":"Les Pointes","lat":49.49601,"lon":2.81338,"ele":140},{"name":"Mont Capron","lat":50.5866,"lon":1.88037,"ele":140},{"name":"Mont de Varennes","lat":50.04756,"lon":2.55111,"ele":140},{"name":"Mont de Boeschepe","lat":50.79208,"lon":2.68007,"ele":139},{"name":"Mont de Magny","lat":49.2485,"lon":1.78464,"ele":139},{"name":"Mont Cassel","lat":50.17795,"lon":2.74648,"ele":139},{"name":"Mont de Meillard","lat":50.15523,"lon":2.19942,"ele":139},{"name":"Mont de Quevauvillers","lat":49.81275,"lon":2.09157,"ele":139},{"name":"Mont des Usages","lat":49.37779,"lon":2.99169,"ele":138},{"name":"Mont César","lat":49.38707,"lon":2.23897,"ele":138},{"name":"Mont Huet","lat":50.59616,"lon":1.96319,"ele":138},{"name":"Les Hayons","lat":50.13066,"lon":2.13946,"ele":138},{"name":"Les Fourches","lat":50.10115,"lon":2.70251,"ele":138},{"name":"Mont du Maisnil","lat":50.59918,"lon":2.13571,"ele":138},{"name":"Le Beauhon","lat":50.1521,"lon":2.09717,"ele":138},{"name":"Motte du Baillon","lat":50.08326,"lon":2.21661,"ele":138},{"name":"Terril №87, Saint Henriette","lat":50.42404,"lon":2.97954,"ele":137},{"name":"Mont de Caumont","lat":49.48311,"lon":2.84269,"ele":137},{"name":"Terril 16","lat":50.52258,"lon":2.4423,"ele":137},{"name":"Mont Héry","lat":50.12721,"lon":2.47478,"ele":137},{"name":"Le Moulin Paris","lat":50.16492,"lon":2.07459,"ele":137},{"name":"Mont Travenne","lat":50.0246,"lon":2.35355,"ele":137},{"name":"Mont Tronquoy","lat":50.5384,"lon":1.86215,"ele":136},{"name":"Mont de Terre","lat":50.61675,"lon":1.61033,"ele":136},{"name":"Mont d'Hesdin","lat":50.24419,"lon":2.17319,"ele":136},{"name":"Mont Warin","lat":50.07167,"lon":2.5132,"ele":136},{"name":"Le Moulin de Maizicourt","lat":50.18708,"lon":2.11275,"ele":136},{"name":"La Tête Henry","lat":50.06992,"lon":2.19635,"ele":136},{"name":"Hauts Villers","lat":50.0758,"lon":2.18595,"ele":136},{"name":"Le Béronville","lat":50.08011,"lon":2.21194,"ele":136},{"name":"Montagne de Plainville","lat":49.61527,"lon":2.47441,"ele":136},{"name":"Le Roymont","lat":49.55603,"lon":2.39297,"ele":136},{"name":"Mont Rouge","lat":50.07783,"lon":2.82195,"ele":135},{"name":"La Montagne","lat":50.13999,"lon":2.45215,"ele":135},{"name":"Montagne de Clermont","lat":49.45777,"lon":2.39132,"ele":134},{"name":"Mont de Doudeauville","lat":50.61111,"lon":1.83668,"ele":134},{"name":"Les Avents","lat":50.17633,"lon":2.12796,"ele":134},{"name":"Les Viviers","lat":50.02173,"lon":2.19107,"ele":134},{"name":"Mont d'Erny","lat":50.5933,"lon":2.2293,"ele":134},{"name":"Les Beaux Monts","lat":49.4099,"lon":2.89192,"ele":133},{"name":"Chapeaumont","lat":49.4188,"lon":3.14002,"ele":133},{"name":"Mont Dizeau","lat":50.07757,"lon":2.76308,"ele":133},{"name":"Les Éminences","lat":49.9783,"lon":2.97809,"ele":133},{"name":"Mont Berny","lat":49.36826,"lon":3.00339,"ele":132},{"name":"Mont Oint","lat":49.27712,"lon":1.80206,"ele":132},{"name":"Mont du Grand Veneur","lat":49.36688,"lon":2.98214,"ele":132},{"name":"Mont de la Héronnière","lat":49.34887,"lon":2.93827,"ele":132},{"name":"Mont Saint-Frieux","lat":50.60988,"lon":1.60726,"ele":132},{"name":"Le Mont","lat":50.46733,"lon":2.26445,"ele":132},{"name":"Le Quaimont","lat":50.32137,"lon":2.2112,"ele":132},{"name":"Mont du Voliard","lat":49.35205,"lon":2.95593,"ele":131},{"name":"Le Mary","lat":50.13428,"lon":2.80125,"ele":131},{"name":"Le Rougemont","lat":50.06411,"lon":2.86706,"ele":131},{"name":"Mont Épineux","lat":50.52486,"lon":1.93272,"ele":131},{"name":"Mont Ténard","lat":50.088,"lon":2.48348,"ele":131},{"name":"Mont Roux","lat":50.67008,"lon":2.08982,"ele":131},{"name":"Mont au Guet","lat":50.58697,"lon":1.6286,"ele":131},{"name":"Le Moulin","lat":49.85169,"lon":2.10041,"ele":130},{"name":"Mont Carrière","lat":50.68949,"lon":2.14295,"ele":130},{"name":"Mont de Berval","lat":50.04701,"lon":2.24247,"ele":130},{"name":"Mont du Tremble","lat":49.41647,"lon":2.88713,"ele":129},{"name":"Mont Hart","lat":49.38142,"lon":2.72556,"ele":129},{"name":"Mont Touzart","lat":50.59708,"lon":1.83564,"ele":129},{"name":"Beauregard","lat":50.10222,"lon":2.71598,"ele":129},{"name":"Mont du Quesnoy","lat":50.34625,"lon":2.04185,"ele":129},{"name":"Montagne de Lataule","lat":49.5318,"lon":2.685,"ele":128},{"name":"Mont Miroux","lat":50.4953,"lon":1.86387,"ele":128},{"name":"Mont Timet","lat":50.582,"lon":1.94616,"ele":128},{"name":"Montagne d'Uzenneville","lat":49.75339,"lon":2.0582,"ele":128},{"name":"Mont Saint-Pierre","lat":49.3757,"lon":2.9497,"ele":127},{"name":"Terril 97","lat":50.40698,"lon":2.87188,"ele":127},{"name":"Mont Rôti","lat":50.01403,"lon":2.44556,"ele":127},{"name":"Capy","lat":50.10301,"lon":2.92108,"ele":127},{"name":"Le Charron","lat":50.1723,"lon":2.08225,"ele":127},{"name":"Mont Rignon","lat":50.46684,"lon":2.48013,"ele":127},{"name":"Le Moulin","lat":49.95802,"lon":2.47588,"ele":127},{"name":"Mont d'Ortie","lat":49.98147,"lon":1.59451,"ele":127},{"name":"Mont Collet","lat":49.38922,"lon":2.96654,"ele":126},{"name":"Mont de Fleury","lat":50.43594,"lon":2.24946,"ele":126},{"name":"Mont d'Hangest","lat":50.01156,"lon":2.39662,"ele":126},{"name":"Mont de Justice","lat":50.39575,"lon":2.71492,"ele":125},{"name":"Mont Fayel","lat":50.4997,"lon":1.84484,"ele":125},{"name":"Mont de Vauchelles","lat":50.10325,"lon":2.45595,"ele":125},{"name":"Le Corneiller","lat":49.84841,"lon":2.02416,"ele":125},{"name":"Saint-Acheul","lat":49.85795,"lon":2.02681,"ele":125},{"name":"Le Bief","lat":49.61862,"lon":2.36307,"ele":125},{"name":"Butte d'Aumont","lat":49.22896,"lon":2.54432,"ele":124},{"name":"Le Grand Champ","lat":50.17605,"lon":2.08607,"ele":124},{"name":"Mont de Millencourt","lat":50.01417,"lon":2.57495,"ele":124},{"name":"Le Bucquet","lat":50.46417,"lon":2.00791,"ele":124},{"name":"Mont Desguisbert","lat":50.76429,"lon":1.95159,"ele":124},{"name":"Mont Robert","lat":50.58849,"lon":1.76562,"ele":124},{"name":"Mont Voyenne","lat":50.55391,"lon":1.67995,"ele":124},{"name":"Mont de Corbie","lat":49.92861,"lon":2.45594,"ele":123},{"name":"Mont Grangez","lat":50.60909,"lon":1.84624,"ele":123},{"name":"La Motte","lat":50.13228,"lon":2.82839,"ele":123},{"name":"Le Chemin de Crécy","lat":50.18487,"lon":2.06949,"ele":123},{"name":"Terril n°9 (2 bis de Bruay Ouest)","lat":50.48103,"lon":2.58077,"ele":122},{"name":"Mont de Gazois","lat":50.35967,"lon":2.73699,"ele":122},{"name":"Haut des Hayettes","lat":50.08062,"lon":3.0051,"ele":122},{"name":"Mont Fouret","lat":50.92923,"lon":1.73907,"ele":122},{"name":"Mont Bocquet","lat":49.38127,"lon":2.74883,"ele":121},{"name":"Montagne de la Garenne","lat":49.5239,"lon":2.67002,"ele":121},{"name":"Mont d'Harponville","lat":50.02453,"lon":2.5113,"ele":121},{"name":"Haut de Seux","lat":49.86648,"lon":2.11427,"ele":121},{"name":"Mont Rouge","lat":50.00787,"lon":2.24548,"ele":121},{"name":"Mont d'Avesnes","lat":49.89652,"lon":1.89274,"ele":121},{"name":"La Motte du Moulin","lat":49.35353,"lon":2.73396,"ele":120},{"name":"Les Vingt-Six Journaux","lat":50.13095,"lon":2.07106,"ele":120},{"name":"Montagne de Cappy","lat":49.98753,"lon":2.72629,"ele":120},{"name":"La Haute Borne","lat":49.65663,"lon":2.29298,"ele":120},{"name":"Terril n°42 (3 de Noeux-Sud)","lat":50.4698,"lon":2.68044,"ele":119},{"name":"Mont d'Arcy","lat":49.36379,"lon":2.94783,"ele":119},{"name":"Terril des Pinchonvalles","lat":50.4038,"lon":2.7977,"ele":119},{"name":"Mont Cornet","lat":50.77784,"lon":1.80495,"ele":119},{"name":"Butte de Warlencourt","lat":50.07582,"lon":2.79485,"ele":119},{"name":"Mont d'Ancre","lat":50.01998,"lon":2.67978,"ele":119},{"name":"Mont Tigny","lat":50.33351,"lon":2.61124,"ele":118},{"name":"Le Festonval","lat":50.03375,"lon":2.47692,"ele":118},{"name":"Mont Galand","lat":50.58603,"lon":1.73104,"ele":118},{"name":"Mont Martin","lat":49.8493,"lon":2.29759,"ele":117},{"name":"La Carnoye","lat":50.02766,"lon":2.47638,"ele":117},{"name":"La Montagne","lat":50.70148,"lon":2.13281,"ele":116},{"name":"Mont de Conteville","lat":50.18779,"lon":2.08238,"ele":116},{"name":"Mont d'Esbart","lat":50.00561,"lon":2.44839,"ele":116},{"name":"Mont de Forestel","lat":49.66859,"lon":2.55547,"ele":116},{"name":"Terril 205","lat":50.40601,"lon":2.93522,"ele":115},{"name":"Le Mont Béthizay","lat":49.28745,"lon":2.79107,"ele":115},{"name":"Plaine du Fay","lat":50.16479,"lon":2.22084,"ele":115},{"name":"Mont de Mortier","lat":50.36049,"lon":2.74343,"ele":114},{"name":"Butte du Châtelet","lat":49.44043,"lon":2.89876,"ele":113},{"name":"Terril 84","lat":50.40863,"lon":2.91416,"ele":113},{"name":"Mont de Bourguillemont","lat":49.4138,"lon":2.16683,"ele":113},{"name":"Le Lindier","lat":50.13465,"lon":2.86244,"ele":113},{"name":"Mont des Vaux","lat":50.59396,"lon":1.67874,"ele":112},{"name":"Le Bosquet de Camont","lat":49.80856,"lon":2.22437,"ele":112},{"name":"Mont Graux","lat":50.30765,"lon":2.04863,"ele":112},{"name":"Maigremont","lat":49.67288,"lon":2.54531,"ele":112},{"name":"Mont Gallet","lat":49.69411,"lon":2.55438,"ele":112},{"name":"Mont de Mézerolles","lat":50.19429,"lon":2.25436,"ele":111},{"name":"Mont Rôti","lat":50.04238,"lon":2.41235,"ele":111},{"name":"L'Épine","lat":49.64766,"lon":2.34689,"ele":111},{"name":"Mont Jury","lat":50.38322,"lon":2.13267,"ele":111},{"name":"Mont Huet","lat":50.55558,"lon":1.74232,"ele":111},{"name":"La Montoye","lat":49.97139,"lon":2.38498,"ele":111},{"name":"Là-Haut","lat":50.08812,"lon":2.07958,"ele":111},{"name":"Mont de Thunes","lat":50.67981,"lon":1.69409,"ele":111},{"name":"Haut de la Justice","lat":49.99446,"lon":1.56262,"ele":111},{"name":"Mont Kokereel","lat":50.78924,"lon":2.70024,"ele":110},{"name":"Mont à Cailloux","lat":50.6646,"lon":2.12599,"ele":110},{"name":"Le Pain de Sucre","lat":49.80628,"lon":2.16711,"ele":110},{"name":"Le Lièvre Mort","lat":50.08356,"lon":2.04725,"ele":110},{"name":"Col de Berthen","lat":50.78712,"lon":2.67055,"ele":109},{"name":"Mont de Ricametz","lat":50.58949,"lon":2.26278,"ele":109},{"name":"Les Quarante","lat":50.08941,"lon":1.99134,"ele":109},{"name":"Mont Moyen","lat":49.4424,"lon":2.91213,"ele":108},{"name":"Mont Villermont","lat":49.92328,"lon":2.49263,"ele":108},{"name":"Les Sablières","lat":50.17782,"lon":2.14948,"ele":108},{"name":"Mont de l'Église","lat":50.56052,"lon":1.62544,"ele":108},{"name":"Mont Thibaut","lat":50.58313,"lon":2.08706,"ele":108},{"name":"Montagne des Galets","lat":49.64802,"lon":2.46791,"ele":108},{"name":"Mont Renard","lat":49.44346,"lon":2.92269,"ele":107},{"name":"La Sèche Épée","lat":50.2938,"lon":2.72145,"ele":107},{"name":"Le Brûlé","lat":49.98579,"lon":2.57213,"ele":107},{"name":"Le Monchy","lat":50.08459,"lon":2.0569,"ele":107},{"name":"Mont Roger","lat":50.5822,"lon":1.67608,"ele":106},{"name":"Mont Fay","lat":49.99683,"lon":2.49172,"ele":106},{"name":"Terril №49, 3 de Béthune","lat":50.47459,"lon":2.73907,"ele":105},{"name":"Terril 101","lat":50.40665,"lon":2.92102,"ele":105},{"name":"Mont Robert","lat":49.83891,"lon":2.26518,"ele":105},{"name":"Le Buisson des Terres Labarre","lat":50.16993,"lon":2.18106,"ele":105},{"name":"Les Quinze","lat":50.19974,"lon":1.98707,"ele":105},{"name":"Mont d'Heilly","lat":49.83637,"lon":2.18993,"ele":105},{"name":"Les Étroits","lat":49.98305,"lon":2.02365,"ele":105},{"name":"T036","lat":50.47296,"lon":2.67262,"ele":104},{"name":"Les Minimes","lat":50.05416,"lon":2.03267,"ele":104},{"name":"Haut de Saint-Aubin","lat":49.76348,"lon":2.5395,"ele":104},{"name":"Butte aux Gens d'Armes","lat":49.16247,"lon":2.59225,"ele":103},{"name":"Mont de Neuvireuil","lat":50.27363,"lon":2.68788,"ele":103},{"name":"Mont Tingrin","lat":50.57604,"lon":1.6696,"ele":103},{"name":"Le Mont","lat":49.95391,"lon":3.00827,"ele":103},{"name":"Mont Bar","lat":49.83791,"lon":2.19858,"ele":102},{"name":"Mont de la Jatte","lat":50.36498,"lon":1.85879,"ele":102},{"name":"Mont Bernard","lat":50.22238,"lon":2.90405,"ele":102},{"name":"Mont de Campagne","lat":50.37525,"lon":1.87548,"ele":102},{"name":"Le Chemin de Wavans","lat":50.20073,"lon":2.13622,"ele":102},{"name":"Mont de Plaisance","lat":50.83925,"lon":1.85726,"ele":102},{"name":"Mont Dromel","lat":49.99931,"lon":2.43913,"ele":102},{"name":"Mont Romain","lat":50.62236,"lon":1.65427,"ele":101},{"name":"Les Longues Raies","lat":49.97797,"lon":2.57492,"ele":101},{"name":"Mont l'Ecange","lat":49.44088,"lon":2.93833,"ele":100},{"name":"Le Moulin","lat":50.07936,"lon":2.06418,"ele":100},{"name":"Le Mont à Vast","lat":49.92161,"lon":2.11929,"ele":100},{"name":"Les Quatorze","lat":50.22915,"lon":2.80112,"ele":99},{"name":"Le Grand Corelle","lat":50.22078,"lon":2.07068,"ele":99},{"name":"La Rue de Bucquets","lat":50.21109,"lon":2.08383,"ele":99},{"name":"Le Romont","lat":50.21231,"lon":2.11655,"ele":99},{"name":"La Metz","lat":50.06432,"lon":2.18129,"ele":99},{"name":"Terril Sabatier Nord (175)","lat":50.40809,"lon":3.49988,"ele":98},{"name":"Montagne de la Somme d'Or","lat":49.51629,"lon":2.66682,"ele":98},{"name":"Monts Baudin","lat":50.69851,"lon":1.92357,"ele":98},{"name":"Mont de Pronville","lat":50.17389,"lon":2.98945,"ele":98},{"name":"Le Chemin des Quarante","lat":50.20662,"lon":2.13312,"ele":98},{"name":"Les Meuliniers","lat":49.97688,"lon":2.16893,"ele":98},{"name":"Terril 20","lat":50.52303,"lon":2.46524,"ele":97},{"name":"Mont de Joie","lat":50.73069,"lon":1.64408,"ele":97},{"name":"Mont Ducrocq","lat":49.97441,"lon":2.23463,"ele":97},{"name":"Butte du Maulois","lat":49.14726,"lon":2.59819,"ele":96},{"name":"Mont Vasseur","lat":50.92928,"lon":1.755,"ele":96},{"name":"Mont Joie","lat":49.92285,"lon":2.14839,"ele":96},{"name":"Mont d'Helfaut","lat":50.70301,"lon":2.23493,"ele":95},{"name":"Le Mamont","lat":49.75803,"lon":2.42334,"ele":95},{"name":"Mont de Villeroy","lat":50.24644,"lon":2.04567,"ele":94},{"name":"Le Caumont","lat":50.37889,"lon":1.87369,"ele":94},{"name":"Les Montelettes","lat":49.64278,"lon":2.57078,"ele":94},{"name":"T045","lat":50.48873,"lon":2.68057,"ele":93},{"name":"Rideau de la Nonne","lat":50.09929,"lon":2.44696,"ele":93},{"name":"Terril de la Fosse 10","lat":50.45126,"lon":2.99183,"ele":92},{"name":"Mont sur l'Œuvre","lat":50.13855,"lon":3.21478,"ele":92},{"name":"Mont d'Énocq","lat":50.50736,"lon":1.70689,"ele":91},{"name":"Sous les Halots","lat":50.14985,"lon":2.24158,"ele":91},{"name":"Montlouis","lat":50.2189,"lon":2.10775,"ele":91},{"name":"La Motte","lat":50.07378,"lon":1.57947,"ele":91},{"name":"Mont du Renard","lat":50.71545,"lon":1.74429,"ele":91},{"name":"Mont Beaudrit","lat":49.77693,"lon":2.14467,"ele":90},{"name":"Mont de l'Aveine","lat":50.57516,"lon":1.74065,"ele":89},{"name":"Mont César","lat":50.31393,"lon":2.69327,"ele":88},{"name":"Terril №92, Lavoir Hénin Ouest","lat":50.42348,"lon":2.97295,"ele":87},{"name":"Mont Saint-Vaast","lat":50.30637,"lon":2.73234,"ele":87},{"name":"Les Dix-Sept","lat":50.17233,"lon":1.96382,"ele":87},{"name":"Mont de l'Épine","lat":50.56347,"lon":1.67,"ele":87},{"name":"Mont à Brouette","lat":49.99578,"lon":2.41879,"ele":87},{"name":"Rietz","lat":50.70376,"lon":1.7654,"ele":87},{"name":"Mont Delvigne","lat":50.29881,"lon":3.14491,"ele":87},{"name":"Mont de Rely","lat":50.56952,"lon":2.37985,"ele":86},{"name":"Le Mont à Cailloux","lat":49.92746,"lon":2.15079,"ele":86},{"name":"Le Mont Joye","lat":49.91437,"lon":2.14421,"ele":86},{"name":"Mont Renaud","lat":49.56322,"lon":2.97385,"ele":84},{"name":"Là-Haut","lat":50.16351,"lon":1.93249,"ele":84},{"name":"Mancheron","lat":50.14135,"lon":1.94683,"ele":83},{"name":"L'Éperon","lat":50.04462,"lon":2.20287,"ele":83},{"name":"Mont Aubert","lat":50.44667,"lon":1.88473,"ele":82},{"name":"Mont Blanc","lat":50.2022,"lon":3.23046,"ele":82},{"name":"Mont des Bœufs","lat":50.17139,"lon":3.24151,"ele":82},{"name":"Mont de Cailloux","lat":50.28192,"lon":3.4815,"ele":82},{"name":"Mont Crinquet","lat":50.23359,"lon":1.89029,"ele":81},{"name":"Le Bosquet","lat":49.79908,"lon":2.21172,"ele":81},{"name":"Les Deux Buquets","lat":50.03379,"lon":2.08353,"ele":81},{"name":"Mont Cruset","lat":50.16016,"lon":1.8857,"ele":79},{"name":"La Têtelotte","lat":49.91498,"lon":2.04151,"ele":79},{"name":"Mont de Dury","lat":50.23848,"lon":3.00193,"ele":78},{"name":"Mont aux Cailloux","lat":50.09557,"lon":1.44331,"ele":78},{"name":"Mont Joie","lat":49.95089,"lon":2.10365,"ele":78},{"name":"Mont Verlet","lat":50.29677,"lon":3.13762,"ele":78},{"name":"La Moie","lat":50.16932,"lon":2.99633,"ele":77},{"name":"Mont Loyer","lat":49.91887,"lon":1.92745,"ele":77},{"name":"Terril Renard","lat":50.32638,"lon":3.37154,"ele":76},{"name":"Grand Mont","lat":50.30031,"lon":3.13125,"ele":76},{"name":"Ravensberg","lat":50.74171,"lon":2.76754,"ele":75},{"name":"La Vallée","lat":50.05862,"lon":2.17601,"ele":75},{"name":"Blanc Mont","lat":50.04587,"lon":1.85127,"ele":75},{"name":"Terril Sabatier sud (Terril 174)","lat":50.40343,"lon":3.50054,"ele":74},{"name":"Le Moulin de Cambron","lat":50.09625,"lon":1.78003,"ele":74},{"name":"Monts de Caubert","lat":50.08838,"lon":1.80659,"ele":74},{"name":"Mont de Watten","lat":50.82741,"lon":2.22059,"ele":72},{"name":"Le Mélier","lat":50.16395,"lon":1.95814,"ele":72},{"name":"Terril 91","lat":50.40179,"lon":2.9722,"ele":71},{"name":"Hille","lat":50.75734,"lon":2.76109,"ele":71},{"name":"Mont de Bussy","lat":49.9288,"lon":2.42074,"ele":71},{"name":"Doux Mont","lat":50.3107,"lon":2.99336,"ele":70},{"name":"Beau Mont","lat":50.60114,"lon":2.35209,"ele":70},{"name":"Mont Saint-Martin","lat":50.64567,"lon":2.26251,"ele":70},{"name":"Terril №94, Lavoir de Fouquières","lat":50.43555,"lon":2.88154,"ele":69},{"name":"Mont Blanc","lat":50.31769,"lon":1.86251,"ele":69},{"name":"Le Carimont","lat":49.91917,"lon":2.41461,"ele":68},{"name":"Mont des Poteries","lat":50.67127,"lon":1.77224,"ele":67},{"name":"Mont Fouet","lat":50.25493,"lon":3.02856,"ele":67},{"name":"Mont Hulin","lat":50.29824,"lon":3.00832,"ele":67},{"name":"Mont-Farrand","lat":50.18398,"lon":3.21333,"ele":67},{"name":"Mont de la Belle","lat":50.26709,"lon":1.84076,"ele":66},{"name":"Mont Soleil","lat":50.70284,"lon":1.58282,"ele":65},{"name":"Mont de Croix","lat":50.30262,"lon":2.99755,"ele":65},{"name":"Mont Métier","lat":50.31391,"lon":2.98587,"ele":64},{"name":"Les Monlignies","lat":50.29755,"lon":2.93965,"ele":64},{"name":"Mont Pourri","lat":50.45873,"lon":1.67488,"ele":63},{"name":"Haut du Fond de Quielle","lat":50.1323,"lon":1.85592,"ele":63},{"name":"Mont de la Sablonnière","lat":50.30287,"lon":3.0215,"ele":62},{"name":"Mont à Cailloux","lat":50.12695,"lon":1.82501,"ele":62},{"name":"Mont d'Heucourt","lat":49.93912,"lon":1.91389,"ele":62},{"name":"Terril 80","lat":50.41463,"lon":2.79972,"ele":61},{"name":"Terril №230, Remblais Marais de Fouquières","lat":50.43762,"lon":2.91275,"ele":61},{"name":"Mont Halluin","lat":50.7635,"lon":3.14772,"ele":61},{"name":"La Butterne","lat":50.19395,"lon":1.84724,"ele":61},{"name":"Mont Herry","lat":50.19834,"lon":1.8493,"ele":61},{"name":"Terril 105","lat":50.41411,"lon":2.9294,"ele":61},{"name":"Mont d'Inventé","lat":50.71907,"lon":2.38905,"ele":60},{"name":"Mont Georges","lat":50.31891,"lon":2.99719,"ele":59},{"name":"Croupe à Cailloux","lat":50.17272,"lon":1.82572,"ele":59},{"name":"Mont d'Avelesges","lat":49.91949,"lon":1.94397,"ele":59},{"name":"Mont Robin","lat":50.23087,"lon":3.04092,"ele":59},{"name":"Terril 260","lat":50.42915,"lon":2.89823,"ele":58},{"name":"Mont Hubert","lat":50.32504,"lon":1.77651,"ele":58},{"name":"Les Crupes","lat":50.20165,"lon":1.83755,"ele":58},{"name":"Terril №113, 8 de Dourges Sud","lat":50.4329,"lon":3.02214,"ele":57},{"name":"Terril 173 (Mont des Ermites)","lat":50.40983,"lon":3.47218,"ele":57},{"name":"Mont Blanc","lat":50.36457,"lon":2.0264,"ele":57},{"name":"Mont Éteuil","lat":50.14655,"lon":1.81201,"ele":57},{"name":"Motte du Bourg","lat":50.87562,"lon":1.64903,"ele":55},{"name":"Mont de Quenne","lat":50.43056,"lon":1.71946,"ele":55},{"name":"Mont Privé","lat":50.30735,"lon":3.04269,"ele":55},{"name":"Le Rayon du Couloir","lat":50.05719,"lon":1.831,"ele":55},{"name":"Mont des Rietz","lat":50.4237,"lon":1.69833,"ele":53},{"name":"Moyens Monts","lat":50.28302,"lon":2.96415,"ele":53},{"name":"Monts Greux","lat":50.26532,"lon":1.85041,"ele":53},{"name":"La Campagne","lat":50.04924,"lon":1.86187,"ele":53},{"name":"Terril 156","lat":50.33202,"lon":3.38178,"ele":52},{"name":"Terril 81A","lat":50.42251,"lon":2.826,"ele":52},{"name":"Terril 89","lat":50.41391,"lon":2.93642,"ele":52},{"name":"Le Blamont","lat":50.77473,"lon":2.16594,"ele":51},{"name":"Le Champ Pourri","lat":50.37569,"lon":1.99216,"ele":51},{"name":"Terril 81","lat":50.41913,"lon":2.83457,"ele":50},{"name":"Colline de Longueau","lat":49.87377,"lon":2.36447,"ele":49},{"name":"Mont aux Leux","lat":50.86677,"lon":1.60802,"ele":49},{"name":"Mont du Prêtre","lat":50.65464,"lon":1.66479,"ele":49},{"name":"Mont de Berck","lat":50.47148,"lon":1.65642,"ele":47},{"name":"Mont Binage","lat":50.30881,"lon":3.07564,"ele":47},{"name":"Terril 85","lat":50.41233,"lon":2.93879,"ele":45},{"name":"Terril 46","lat":50.50563,"lon":2.67476,"ele":43},{"name":"Mont de la Chapelle","lat":50.18641,"lon":1.61342,"ele":43},{"name":"Gris Mont","lat":50.34253,"lon":1.67091,"ele":43},{"name":"Mont de Lille","lat":50.73164,"lon":2.75779,"ele":43},{"name":"Mont des Vignes","lat":50.36576,"lon":3.16777,"ele":40},{"name":"Terril 95","lat":50.4265,"lon":2.90198,"ele":40},{"name":"Terril 95a","lat":50.42468,"lon":2.8975,"ele":40},{"name":"Mont de Ligne","lat":50.49587,"lon":3.42887,"ele":40},{"name":"Mont de Ham","lat":50.62053,"lon":2.32053,"ele":39},{"name":"Mont Pindo","lat":50.63717,"lon":2.93054,"ele":39},{"name":"Mont Lambert","lat":50.84366,"lon":1.93772,"ele":37},{"name":"Mont d'Airon","lat":50.43971,"lon":1.65635,"ele":37},{"name":"Mont Corbeau","lat":50.36923,"lon":3.16976,"ele":33},{"name":"La Motte","lat":50.33632,"lon":1.67019,"ele":32},{"name":"Butte des Moulins","lat":50.18402,"lon":1.63341,"ele":32},{"name":"Les Quatorze","lat":50.08963,"lon":1.79816,"ele":32},{"name":"Mont Blanc","lat":50.1566,"lon":1.87162,"ele":31},{"name":"Mont Roty","lat":50.35521,"lon":1.67952,"ele":30},{"name":"Le Mont Blanc","lat":50.17262,"lon":1.62851,"ele":30},{"name":"La Montagne","lat":50.78954,"lon":2.25491,"ele":22},{"name":"Mont Café","lat":50.64159,"lon":1.59379,"ele":21},{"name":"Mont d'Hère","lat":50.37605,"lon":1.65213,"ele":20},{"name":"Croc des Aiglons","lat":50.50568,"lon":1.61949,"ele":20},{"name":"Croc de Bellevue","lat":50.50052,"lon":1.62159,"ele":15},{"name":"Mont des Artilleurs","lat":50.30723,"lon":1.58158,"ele":11},{"name":"Mont Chauve","lat":50.31794,"lon":1.55061,"ele":8},{"name":"Mont Thomas","lat":50.20382,"lon":1.7162,"ele":6}],"grand-est":[{"name":"Grand Ballon","lat":47.90084,"lon":7.0984,"ele":1424},{"name":"Storkenkopf","lat":47.90472,"lon":7.08222,"ele":1366},{"name":"Hohneck","lat":48.03761,"lon":7.01629,"ele":1363},{"name":"Kastelberg","lat":48.02137,"lon":7.00103,"ele":1350},{"name":"Klinzkopf","lat":47.94935,"lon":7.05596,"ele":1330},{"name":"Rothenbachkopf","lat":48.00074,"lon":6.981,"ele":1316},{"name":"Lauchenkopf","lat":47.95618,"lon":7.03947,"ele":1314},{"name":"Batteriekopf","lat":47.99389,"lon":6.98063,"ele":1311},{"name":"Gazon du Faing","lat":48.11392,"lon":7.07944,"ele":1306},{"name":"Haut de Falimont","lat":48.04288,"lon":7.0097,"ele":1306},{"name":"Rainkopf","lat":48.00975,"lon":6.98276,"ele":1305},{"name":"Soultzeren Eck","lat":48.10857,"lon":7.07666,"ele":1302},{"name":"Ringbuhlkopf","lat":48.09879,"lon":7.06536,"ele":1302},{"name":"Le Tanet","lat":48.08362,"lon":7.05215,"ele":1294},{"name":"Spitzkoepfe","lat":48.03035,"lon":7.01574,"ele":1290},{"name":"Langenfeldkopf","lat":47.95596,"lon":7.08135,"ele":1290},{"name":"Le Petit Hohneck","lat":48.03569,"lon":7.03314,"ele":1289},{"name":"Spitzkopf","lat":47.9515,"lon":7.07097,"ele":1281},{"name":"Breitfirst","lat":47.9476,"lon":7.02698,"ele":1280},{"name":"Hilsenfirst","lat":47.96445,"lon":7.08502,"ele":1274},{"name":"Petit Ballon","lat":47.98063,"lon":7.12603,"ele":1272},{"name":"Le Schweisel","lat":47.97442,"lon":6.9906,"ele":1271},{"name":"Jungfrauenkopf","lat":47.92621,"lon":7.02441,"ele":1268},{"name":"Trehkopf","lat":47.9271,"lon":7.01634,"ele":1266},{"name":"Schnepfenriedkopf","lat":47.98137,"lon":7.04184,"ele":1258},{"name":"Steinberg","lat":47.97653,"lon":7.11369,"ele":1258},{"name":"Nonselkopf","lat":47.96234,"lon":7.03898,"ele":1257},{"name":"Wirbelkopf","lat":47.95326,"lon":7.07794,"ele":1253},{"name":"Haute Bers","lat":47.84627,"lon":6.91202,"ele":1252},{"name":"Judenhut","lat":47.91026,"lon":7.11466,"ele":1250},{"name":"Marksteinkopf","lat":47.91779,"lon":7.04411,"ele":1242},{"name":"Hundskopf","lat":47.9121,"lon":7.06303,"ele":1238},{"name":"Hundskopf","lat":47.96164,"lon":7.00342,"ele":1237},{"name":"Steinmauer","lat":47.97523,"lon":7.1082,"ele":1232},{"name":"Grand Artimont","lat":48.02644,"lon":6.97982,"ele":1232},{"name":"Grand Brézouard","lat":48.18951,"lon":7.15,"ele":1229},{"name":"Tête des Neufs Bois","lat":47.87178,"lon":6.90966,"ele":1229},{"name":"Tête de Fellering","lat":47.91001,"lon":6.9289,"ele":1223},{"name":"Tête des Perches","lat":47.85012,"lon":6.92007,"ele":1222},{"name":"Tête des Immerlins","lat":48.14218,"lon":7.10454,"ele":1216},{"name":"Ballon de Servance","lat":47.8302,"lon":6.79289,"ele":1216},{"name":"Tête des Faux","lat":48.1542,"lon":7.11512,"ele":1208},{"name":"Le Grand Ventron","lat":47.95944,"lon":6.92533,"ele":1204},{"name":"Petit Brézouard","lat":48.19443,"lon":7.156,"ele":1203},{"name":"Le Drumont","lat":47.90216,"lon":6.9167,"ele":1200},{"name":"l'Altenberg","lat":47.99187,"lon":6.94401,"ele":1197},{"name":"Rimbachkopf","lat":47.85104,"lon":6.93966,"ele":1195},{"name":"Rossberg","lat":47.82037,"lon":7.00894,"ele":1191},{"name":"Tête du Rouge Gazon","lat":47.86007,"lon":6.91511,"ele":1188},{"name":"Hasenkopf","lat":47.90597,"lon":6.92598,"ele":1188},{"name":"Tête des Russiers (ou Steinkopf)","lat":47.89495,"lon":6.91084,"ele":1187},{"name":"Thanner Hubel","lat":47.82451,"lon":7.02563,"ele":1183},{"name":"Vogelstein","lat":47.82894,"lon":7.00454,"ele":1181},{"name":"Large Tête","lat":47.8705,"lon":6.89649,"ele":1179},{"name":"Le Steinberg","lat":47.99099,"lon":7.11472,"ele":1177},{"name":"Tête des Cerfs","lat":48.04194,"lon":6.95282,"ele":1177},{"name":"Sattefels","lat":47.89462,"lon":7.09246,"ele":1169},{"name":"Tête de la Bouloie","lat":47.86837,"lon":6.87107,"ele":1166},{"name":"Kegelritz","lat":47.98909,"lon":7.1185,"ele":1166},{"name":"Haut de Felsach","lat":47.93081,"lon":6.92589,"ele":1161},{"name":"Haut de Taye","lat":47.87149,"lon":6.88502,"ele":1161},{"name":"Ronde Tête","lat":48.00051,"lon":6.96104,"ele":1160},{"name":"Petit Ventron","lat":47.95121,"lon":6.92454,"ele":1155},{"name":"Tête du Chat Sauvage","lat":47.94641,"lon":6.92003,"ele":1153},{"name":"Tête des Bluets","lat":47.85632,"lon":6.88964,"ele":1150},{"name":"Rocher Hans","lat":48.12311,"lon":7.09276,"ele":1144},{"name":"Petite Tête des Immerlins","lat":48.13942,"lon":7.09505,"ele":1143},{"name":"Rehberg","lat":48.20292,"lon":7.17006,"ele":1141},{"name":"Hirzberg","lat":48.21174,"lon":7.18807,"ele":1140},{"name":"Tête des Redoutes","lat":47.8068,"lon":6.85047,"ele":1139},{"name":"Hoernleskopf","lat":47.97436,"lon":7.02995,"ele":1138},{"name":"Tête des Charbonniers","lat":47.83589,"lon":6.89757,"ele":1138},{"name":"Tête de Grouvelin","lat":48.04679,"lon":6.91669,"ele":1137},{"name":"Rothenkopf","lat":47.97408,"lon":6.94022,"ele":1137},{"name":"Le Champ du Diable","lat":48.20455,"lon":7.19351,"ele":1136},{"name":"Hasenlochkopf","lat":47.98045,"lon":6.94379,"ele":1135},{"name":"Haut des Helzieux","lat":47.8647,"lon":6.86484,"ele":1128},{"name":"Molkenrain","lat":47.85408,"lon":7.12993,"ele":1125},{"name":"Le Wissgrut","lat":47.79278,"lon":6.86139,"ele":1124},{"name":"Haufenwannkopf","lat":48.10274,"lon":7.09668,"ele":1119},{"name":"Rundkopf","lat":47.82207,"lon":6.85835,"ele":1117},{"name":"Plain de la Gentiane","lat":47.79559,"lon":6.85485,"ele":1114},{"name":"Tête des Porcs","lat":48.11168,"lon":6.98762,"ele":1113},{"name":"Haut du Rouge Gazon","lat":47.92245,"lon":6.85396,"ele":1110},{"name":"Felsachkopf","lat":47.92677,"lon":6.93131,"ele":1108},{"name":"la Grande Roche","lat":48.179,"lon":7.15421,"ele":1105},{"name":"Kerbholzkopf","lat":48.0766,"lon":7.06869,"ele":1105},{"name":"Tête du Broche","lat":47.95815,"lon":6.88605,"ele":1103},{"name":"Mittelrainkopf","lat":47.84637,"lon":6.95804,"ele":1101},{"name":"Champ du Feu","lat":48.39438,"lon":7.26905,"ele":1099},{"name":"Roche des Bioquets","lat":48.03443,"lon":6.90303,"ele":1091},{"name":"Gaschneykopf","lat":48.03605,"lon":7.05425,"ele":1086},{"name":"Bannbergkopf","lat":47.83199,"lon":6.99437,"ele":1081},{"name":"Tête des Chats","lat":48.1944,"lon":7.10634,"ele":1080},{"name":"Riesenkopf","lat":47.8615,"lon":7.12794,"ele":1077},{"name":"Baerenkopf","lat":47.77284,"lon":6.92215,"ele":1075},{"name":"Grand Langenberg","lat":47.80693,"lon":6.85989,"ele":1073},{"name":"Rennenbachfels","lat":47.89063,"lon":7.08954,"ele":1068},{"name":"Haut de Tomteux","lat":47.95264,"lon":6.87445,"ele":1066},{"name":"La Gesse","lat":48.03254,"lon":6.89429,"ele":1063},{"name":"Moutier des Fées","lat":48.02078,"lon":6.87732,"ele":1061},{"name":"Stiftkopf","lat":47.84296,"lon":6.98416,"ele":1055},{"name":"Schratzmaennele","lat":48.07952,"lon":7.13825,"ele":1044},{"name":"Bessayfels","lat":47.89535,"lon":7.06687,"ele":1044},{"name":"Belackerkopf","lat":47.83497,"lon":6.98945,"ele":1043},{"name":"Le Drube","lat":47.89941,"lon":6.83333,"ele":1035},{"name":"Tête Saint-Nicolas","lat":47.77167,"lon":6.9356,"ele":1021},{"name":"Tête des Allemands","lat":47.88376,"lon":6.89907,"ele":1014},{"name":"Le Sudelkopf","lat":47.88581,"lon":7.13087,"ele":1012},{"name":"Donon","lat":48.51262,"lon":7.16447,"ele":1009},{"name":"Rocher de Mutzig","lat":48.54935,"lon":7.23981,"ele":1009},{"name":"Johanneskopf","lat":47.84117,"lon":6.96776,"ele":1003},{"name":"Le Hurlin","lat":48.08328,"lon":7.12305,"ele":998},{"name":"Le Narion","lat":48.54732,"lon":7.22381,"ele":998},{"name":"Tête des Champs","lat":47.91592,"lon":6.82776,"ele":997},{"name":"Tête du Violu","lat":48.22493,"lon":7.12651,"ele":994},{"name":"Le Haut des Monts","lat":48.4182,"lon":7.24474,"ele":994},{"name":"Le Noll","lat":48.54826,"lon":7.21421,"ele":991},{"name":"Le Ramelstein","lat":48.23487,"lon":7.25848,"ele":988},{"name":"Haut de Steige","lat":48.13371,"lon":6.98878,"ele":987},{"name":"Grossmann","lat":48.55917,"lon":7.22278,"ele":986},{"name":"Le Gros Rain","lat":48.19343,"lon":7.06546,"ele":986},{"name":"Haut des Yraux","lat":48.26546,"lon":7.15318,"ele":985},{"name":"Le Grand Hohnack","lat":48.08676,"lon":7.19036,"ele":982},{"name":"Dornsilkopf","lat":47.97244,"lon":7.15379,"ele":981},{"name":"Lochbochkopf","lat":47.90667,"lon":7.13319,"ele":981},{"name":"Barrenkopf","lat":48.07502,"lon":7.13176,"ele":980},{"name":"Griebkopf","lat":47.95262,"lon":6.97827,"ele":978},{"name":"Mont de Giromagny","lat":47.78223,"lon":6.88,"ele":977},{"name":"Taennlekopf","lat":48.0393,"lon":7.06571,"ele":974},{"name":"Essenbachkopf","lat":47.8574,"lon":6.94696,"ele":973},{"name":"Neuntelstein","lat":48.42327,"lon":7.33335,"ele":972},{"name":"Moyenmont","lat":48.00935,"lon":6.89954,"ele":969},{"name":"Kuhberg","lat":48.07999,"lon":7.16109,"ele":968},{"name":"Baerenberg","lat":48.59085,"lon":7.27588,"ele":967},{"name":"Tête de Nayemont","lat":48.1252,"lon":6.89011,"ele":967},{"name":"Mt. Climont","lat":48.34486,"lon":7.18327,"ele":965},{"name":"Schneeberg","lat":48.60119,"lon":7.28694,"ele":961},{"name":"Le Petit Donon","lat":48.51612,"lon":7.17586,"ele":961},{"name":"Tête du Midi","lat":47.927,"lon":6.78757,"ele":957},{"name":"Vieil Armand","lat":47.86091,"lon":7.16102,"ele":956},{"name":"Tête du Canard","lat":47.93684,"lon":6.80915,"ele":956},{"name":"Le Housserat","lat":48.38885,"lon":7.22389,"ele":955},{"name":"Kohlgrubenkopf","lat":47.84794,"lon":6.98217,"ele":955},{"name":"Zwerberg","lat":48.08114,"lon":7.17803,"ele":951},{"name":"Urstein","lat":48.58886,"lon":7.25602,"ele":946},{"name":"Birkenfelsen","lat":47.9063,"lon":7.13906,"ele":946},{"name":"Koenigsstuhl","lat":48.18865,"lon":7.24871,"ele":945},{"name":"Rundkopf","lat":47.98065,"lon":7.15908,"ele":943},{"name":"Bramont","lat":48.15786,"lon":7.04015,"ele":941},{"name":"Kleinkopf","lat":48.06993,"lon":7.13108,"ele":940},{"name":"La Ronde Bruche","lat":47.93327,"lon":6.85761,"ele":938},{"name":"Tête des Sapins","lat":47.84667,"lon":6.7861,"ele":935},{"name":"La Haute Loge","lat":48.44384,"lon":7.10285,"ele":933},{"name":"Petit Langenberg","lat":47.80603,"lon":6.87621,"ele":933},{"name":"Tête Noir des Etangs","lat":47.85371,"lon":6.77898,"ele":929},{"name":"Le Petit Hohnack","lat":48.0941,"lon":7.18453,"ele":927},{"name":"Becherkopf","lat":47.83904,"lon":7.11385,"ele":922},{"name":"Glaserberg","lat":47.84305,"lon":7.11448,"ele":921},{"name":"Tête des Blanches Roches","lat":48.47117,"lon":7.11337,"ele":916},{"name":"Le Sudel","lat":47.75861,"lon":6.9617,"ele":916},{"name":"Eichkopf","lat":48.58292,"lon":7.24875,"ele":914},{"name":"Ospenkopf","lat":47.92192,"lon":7.12589,"ele":910},{"name":"Petit Rosskopf","lat":48.46774,"lon":7.29946,"ele":908},{"name":"Kohlberg","lat":48.51204,"lon":7.18547,"ele":907},{"name":"Petit Katzenberg","lat":48.55062,"lon":7.26064,"ele":903},{"name":"Rocher de la Paix d'Udine","lat":48.22019,"lon":7.29126,"ele":902},{"name":"Roche du Sapin Sec","lat":48.30801,"lon":7.0035,"ele":901},{"name":"Ungersberg","lat":48.36269,"lon":7.35865,"ele":901},{"name":"Tête de Bipierre","lat":48.47424,"lon":7.11801,"ele":901},{"name":"La Chatte Pendue","lat":48.44105,"lon":7.1321,"ele":900},{"name":"Tête de Mort","lat":48.55118,"lon":7.19645,"ele":900},{"name":"La Corbeille","lat":48.48676,"lon":7.12279,"ele":899},{"name":"Le Stauffen","lat":48.03304,"lon":7.23291,"ele":898},{"name":"Les Grandes Roches","lat":48.0621,"lon":6.77752,"ele":893},{"name":"Sattelkopf","lat":48.04018,"lon":7.07758,"ele":892},{"name":"Steinhubel","lat":48.44959,"lon":7.32964,"ele":891},{"name":"Tête du Chariot","lat":48.31328,"lon":7.00826,"ele":888},{"name":"Falkenstein","lat":47.80298,"lon":6.99072,"ele":887},{"name":"Kuppelthannkopf","lat":47.80749,"lon":7.05085,"ele":885},{"name":"Rain des Chênes","lat":48.10576,"lon":7.15636,"ele":884},{"name":"Le Château de Faîte","lat":48.2478,"lon":7.1334,"ele":884},{"name":"Schlusselkopf","lat":47.89521,"lon":7.15742,"ele":883},{"name":"Zundelkopf","lat":48.3963,"lon":7.29171,"ele":882},{"name":"La Cabane","lat":48.23727,"lon":7.12115,"ele":880},{"name":"Le Beheux","lat":48.27496,"lon":7.15153,"ele":877},{"name":"Altmattkopf","lat":48.02776,"lon":7.06454,"ele":877},{"name":"Côte de Plaine","lat":48.42886,"lon":7.14201,"ele":876},{"name":"Tête du 10ème B.C.P.","lat":48.31452,"lon":7.01713,"ele":874},{"name":"Tête de Raves","lat":48.31268,"lon":7.03306,"ele":874},{"name":"Haberkopf","lat":47.89108,"lon":7.05254,"ele":872},{"name":"Tête de la Malcôte","lat":48.54395,"lon":7.15939,"ele":872},{"name":"Wustkopf","lat":47.81658,"lon":6.91424,"ele":867},{"name":"Le Roitelet","lat":48.42464,"lon":7.10545,"ele":865},{"name":"Pfriemenkopf","lat":48.45013,"lon":7.25329,"ele":864},{"name":"Le Noirmont","lat":48.10998,"lon":7.13306,"ele":863},{"name":"La Maxe","lat":48.44717,"lon":7.11251,"ele":863},{"name":"Moyemont","lat":48.03604,"lon":6.7541,"ele":863},{"name":"Kleinmann","lat":48.57132,"lon":7.22162,"ele":861},{"name":"Ebeneck","lat":47.90971,"lon":7.14975,"ele":859},{"name":"La Grande Bellevue","lat":48.38347,"lon":7.31095,"ele":858},{"name":"Tête Pelée","lat":48.44713,"lon":7.13717,"ele":856},{"name":"Roffling","lat":48.37179,"lon":7.25401,"ele":856},{"name":"Rocher du Coucou","lat":48.29543,"lon":7.31306,"ele":856},{"name":"Roche des Ducs","lat":48.02982,"lon":6.80244,"ele":855},{"name":"Rocher des Anges","lat":48.46514,"lon":7.28003,"ele":855},{"name":"Breitenberg","lat":48.07223,"lon":7.16313,"ele":853},{"name":"Les Trois Bornes","lat":48.31026,"lon":7.19837,"ele":852},{"name":"Buchbuckel","lat":48.3877,"lon":7.31144,"ele":852},{"name":"Le Rond Pertuis","lat":48.46151,"lon":7.12437,"ele":849},{"name":"Grunenwaldkopf","lat":47.85969,"lon":6.98118,"ele":849},{"name":"Hohbuehl","lat":48.47609,"lon":7.29584,"ele":847},{"name":"Les Cigales","lat":48.24425,"lon":7.11608,"ele":846},{"name":"Treisskopf","lat":48.4623,"lon":7.34148,"ele":844},{"name":"Pfaffenheimerkopf","lat":48.01124,"lon":7.20667,"ele":843},{"name":"Gommkopf","lat":47.92908,"lon":6.98248,"ele":842},{"name":"Hoernleskkopf","lat":48.06452,"lon":7.14066,"ele":842},{"name":"Observatoire Pacchiodo","lat":48.24053,"lon":7.12153,"ele":842},{"name":"Tête Mathis","lat":48.48401,"lon":7.14249,"ele":838},{"name":"Thierenbachkopf","lat":47.88474,"lon":7.16308,"ele":836},{"name":"Tête du Midi","lat":47.85834,"lon":6.76304,"ele":836},{"name":"Le Grisard","lat":48.04914,"lon":6.75575,"ele":835},{"name":"Solamont","lat":48.36875,"lon":7.11149,"ele":832},{"name":"La Grande Côte","lat":48.53373,"lon":7.25128,"ele":831},{"name":"Colline de Schlingoutte","lat":48.3095,"lon":7.23515,"ele":829},{"name":"Solamont","lat":48.36687,"lon":7.11704,"ele":828},{"name":"Chèvreroche","lat":48.03877,"lon":6.70862,"ele":826},{"name":"La Bloss","lat":48.42623,"lon":7.40886,"ele":826},{"name":"Wetzkopf","lat":48.61013,"lon":7.26008,"ele":822},{"name":"Schwarzkopf","lat":48.47423,"lon":7.33711,"ele":819},{"name":"Houdimont","lat":48.398,"lon":7.08534,"ele":817},{"name":"Glaserberg","lat":47.45166,"lon":7.28109,"ele":816},{"name":"Muhlkopf","lat":47.99281,"lon":7.17343,"ele":816},{"name":"Ilienkopf","lat":48.00838,"lon":7.0871,"ele":815},{"name":"Grosser Wolfsberg","lat":48.56467,"lon":7.20333,"ele":814},{"name":"Hohrupf","lat":47.92978,"lon":7.14927,"ele":813},{"name":"Michelskopf","lat":48.59398,"lon":7.22759,"ele":813},{"name":"Hohneck","lat":47.87515,"lon":7.09662,"ele":812},{"name":"Grand Rosskopf","lat":48.6221,"lon":7.26479,"ele":811},{"name":"Sprickelsberg","lat":47.79191,"lon":6.93386,"ele":811},{"name":"Spiémont","lat":48.13497,"lon":6.73822,"ele":809},{"name":"La Schleiffe","lat":48.43052,"lon":7.2368,"ele":808},{"name":"Tête du Houssot","lat":48.08036,"lon":6.68878,"ele":807},{"name":"Le Montori","lat":47.75422,"lon":6.97059,"ele":807},{"name":"Le Pain de Sucre","lat":48.23812,"lon":7.15046,"ele":807},{"name":"Kienberg","lat":48.42308,"lon":7.38086,"ele":801},{"name":"Frauenackerkopf","lat":48.06046,"lon":7.14598,"ele":800},{"name":"Le Mont","lat":48.34316,"lon":7.2072,"ele":798},{"name":"Voyemont","lat":48.33304,"lon":7.12716,"ele":793},{"name":"Erzenbackopf","lat":47.83468,"lon":7.10313,"ele":791},{"name":"Côte de l´Eglise","lat":48.51914,"lon":7.11416,"ele":789},{"name":"Signal du Glasberg","lat":47.45422,"lon":7.31882,"ele":788},{"name":"Heidenkopf","lat":48.46946,"lon":7.37076,"ele":787},{"name":"Le Solberg","lat":48.02204,"lon":7.13473,"ele":785},